timestamp,rollspeed,pitchspeed,yawspeed,q[0],q[1],q[2],q[3]
112574307,-0.00042592664,0.00047372002,0.0008371852,0.9545906,0.041478634,0.0481749,-0.29105952
112650307,0.00023588212,-2.3435801e-05,0.00039814715,0.95460874,0.04146315,0.048188522,-0.2910001
112662307,0.00013152475,1.4633406e-06,0.00020593172,0.9546123,0.041462127,0.04818635,-0.29098874
112674307,7.400976e-05,0.00037482008,-0.00045226072,0.95461464,0.041461807,0.04818745,-0.29098108
112682307,-0.00042968662,6.7058485e-05,-0.00020577246,0.9546137,0.041460384,0.04818665,-0.2909842
112694306,-0.00031446223,0.00028707134,0.0002746936,0.9546063,0.041458137,0.048184045,-0.2910093
112703107,0.0001556878,0.00037739496,-5.2869553e-05,0.9546027,0.041458447,0.04818328,-0.2910212
112715108,1.648278e-05,0.00033525052,0.00040726457,0.95460385,0.041458525,0.04818388,-0.29101744
112727108,4.918885e-05,-1.2910226e-05,0.000133225,0.9545983,0.04145886,0.048182,-0.29103607
112735108,0.0004045652,-0.00014233589,2.0025065e-05,0.95460147,0.04145854,0.048179127,-0.29102597
112747108,-0.00031810952,0.0005817537,-0.0003531885,0.95461226,0.041456487,0.04818069,-0.2909906
112759108,-0.0006144976,0.0003549792,-0.0003081828,0.95462626,0.04145253,0.04818426,-0.29094455
112767108,-0.00053784123,-0.00012469501,1.855963e-05,0.9546206,0.04145046,0.04818221,-0.29096374
112779108,8.415838e-05,0.00053444365,0.00035074493,0.95462054,0.04144788,0.048181072,-0.29096445
112787108,-0.00016979419,0.0013023511,0.00022925343,0.95462453,0.041447386,0.048184898,-0.29095086
112799108,-0.00069346733,0.00058465404,0.00019480055,0.95462644,0.041443903,0.048190407,-0.2909445
112811115,-0.0003302578,0.0003176853,0.00018501026,0.95462734,0.04144192,0.048192304,-0.2909411
112819108,-0.00031810114,0.00086373277,0.00069067976,0.95463,0.041442122,0.048194353,-0.2909319
112831907,-0.00030598883,0.0006028523,0.0003138231,0.9546266,0.041442677,0.04819667,-0.29094264
112839907,-0.0002369996,0.0008927393,6.018905e-05,0.95462376,0.04144274,0.048198275,-0.2909517
112851900,-0.00023682357,0.0009559109,0.0002550208,0.95462203,0.041443426,0.048200924,-0.2909572
112863915,-0.00029706687,0.0004864945,0.00076919026,0.95462835,0.041444145,0.04820266,-0.29093572
112871907,-0.00089329237,0.00023337663,0.00070169615,0.95463043,0.041441683,0.048203666,-0.2909292
112883900,-0.0010132736,0.00036896043,0.0008323407,0.9546337,0.041435756,0.048205618,-0.29091895
112891900,-0.00015480642,0.00073438603,0.0013105476,0.9546385,0.04143403,0.048208855,-0.29090306
112903907,0.0001764578,-4.5154942e-05,0.00057653897,0.95463735,0.04143605,0.048209682,-0.29090643
112915901,1.3584504e-05,-9.346218e-05,0.00062067225,0.95463556,0.04143598,0.048206087,-0.2909129
112923901,5.10955e-05,-0.00012601656,0.00026143272,0.95463425,0.041436132,0.048202835,-0.29091763
112935907,-0.00015239778,0.0006684782,0.00054377783,0.95463413,0.041436724,0.048203066,-0.2909179
112947908,0.0003520464,0.00016647181,0.00065468834,0.95463866,0.04143769,0.04820421,-0.29090255
112955901,-4.4005108e-05,-0.0007559932,0.0003566097,0.9546397,0.04143652,0.048201628,-0.29089987
112968707,0.0003461556,-0.00022379798,-6.5738335e-05,0.9546323,0.041437548,0.048195925,-0.29092497
112976707,0.0005573749,3.6816346e-05,-0.0003825149,0.9546317,0.04143901,0.048194163,-0.29092717
112988707,-0.00068101136,0.00026353146,0.00023036962,0.95463663,0.041436914,0.048196524,-0.29091078
112996706,-0.0009150717,0.00027395994,0.000522909,0.95463806,0.04143293,0.04819861,-0.29090628
113008707,-0.0001937726,0.00055049453,0.0007985765,0.95464236,0.041429877,0.048200127,-0.29089242
113020707,-0.0006551681,0.0007727002,0.00027389475,0.9546398,0.04142975,0.048203547,-0.29090023
113028707,-0.0010525755,0.00076583005,5.498971e-05,0.95463794,0.04142784,0.04820525,-0.29090634
113040707,-0.00070544437,0.0007975425,0.0009771357,0.9546446,0.04142485,0.048207406,-0.2908844
113052706,-0.0009883579,0.00043507875,0.0010414228,0.9546508,0.041418787,0.048211712,-0.2908642
113060707,-0.00027836766,0.00019654515,0.00014713244,0.954649,0.041417044,0.048211746,-0.2908706
113072707,0.00023091875,0.0016379029,-0.000272925,0.9546476,0.041418917,0.048215423,-0.29087406
113080707,0.00039570493,0.0016585931,0.0002805204,0.95464754,0.04142226,0.048221033,-0.2908728
113092707,-9.781972e-05,0.0002687776,0.0012209639,0.9546495,0.041423235,0.048222475,-0.29086608
113105507,-0.0004146474,-0.0002584185,0.0006505293,0.9546522,0.04142024,0.04822074,-0.29085794
113113507,-0.00010383036,-0.00073925825,0.0007554877,0.95465463,0.04141785,0.048217107,-0.2908509
113125506,0.0005491775,-0.00010434212,0.00027481397,0.9546551,0.041419797,0.04821125,-0.29084998
113133507,6.410957e-05,9.5882686e-05,-6.0576247e-05,0.9546574,0.0414194,0.04820988,-0.2908429
113145508,0.00046138442,0.00024041068,0.0003685779,0.95465535,0.041419867,0.04820653,-0.29085013
113157552,1.1001248e-05,0.00040732324,0.001042217,0.9546598,0.04142129,0.048207026,-0.29083514
113165507,-0.0002514919,0.00042122905,0.0013316944,0.95465934,0.041420665,0.04820749,-0.29083675
113177507,-0.00091963774,-4.268717e-05,0.00093253027,0.95466083,0.04141598,0.0482057,-0.2908327
113189506,-0.0009982033,-0.00022937823,0.00072089396,0.9546666,0.041408826,0.04820265,-0.29081517
113197506,-0.00070152537,0.0005114346,0.0005181446,0.95467204,0.04140562,0.04820389,-0.2907977
113209507,-0.0008973441,0.0006585275,0.00018888153,0.95467514,0.041401535,0.048207283,-0.29078755
113217507,-0.00077699625,0.0013301069,0.00068964623,0.95467114,0.041399058,0.048210032,-0.29080057
113229507,-0.0007601534,0.0009779905,0.00032348908,0.9546683,0.041395884,0.04821647,-0.29080915
113238307,-0.00043925527,0.0002472885,1.0611722e-05,0.9546665,0.041393686,0.04821708,-0.2908157
113250307,0.0002079194,0.00040852814,-0.0005828978,0.9546637,0.041392755,0.04821722,-0.2908249
113262307,0.0005821078,0.00083048944,8.919719e-05,0.95465916,0.04139632,0.048217785,-0.2908391
113270311,0.00012821099,0.0008163133,0.0004363109,0.9546539,0.041398607,0.048218336,-0.2908558
113282307,-0.00010374875,0.0005655156,0.0006977252,0.9546502,0.041399077,0.048218634,-0.29086775
113294306,0.00019394176,9.2555536e-05,0.0009578159,0.9546466,0.04139899,0.048216645,-0.2908802
113302307,0.00029617385,-5.747215e-05,0.0007400224,0.9546465,0.041398883,0.048216093,-0.29088047
113314307,-4.9865106e-05,0.00011641695,-5.4733595e-05,0.95465404,0.041398466,0.048216317,-0.29085597
113322307,-0.00026237045,0.00054321135,-0.00045246258,0.954658,0.041397627,0.04821758,-0.29084295
113334307,3.2787211e-06,0.0006223025,-0.0001752919,0.9546637,0.04139568,0.04821959,-0.2908239
113346307,-0.0001506866,0.00081059034,-0.00030722423,0.9546669,0.04139495,0.04822169,-0.29081312
113354307,-0.000529637,0.0011820949,-2.1316111e-05,0.9546638,0.041393537,0.048223615,-0.2908231
113366306,-0.00067189534,0.0016856063,0.00057988474,0.9546647,0.041390836,0.048231177,-0.29081926
113375108,-0.00060836563,0.0016566368,0.00086773024,0.9546587,0.041390717,0.048235856,-0.29083824
113387108,-0.0009857995,0.0013356648,0.00073752645,0.95466113,0.041387584,0.048243534,-0.29082975
113399108,-0.0008287851,0.0009475115,0.0007412601,0.95466167,0.04138272,0.04824689,-0.29082814
113407108,-0.0004424028,0.001417535,0.00082042255,0.9546641,0.041380834,0.04825153,-0.29081962
113419108,0.00013411441,0.0001137231,0.0011823566,0.954668,0.041381087,0.04825432,-0.29080638
113427108,-0.0001249268,-0.00048015942,0.00052583916,0.95467067,0.04138111,0.048251998,-0.29079783
113439108,-0.00083394954,7.2882976e-06,7.188646e-06,0.95466924,0.041378196,0.04824884,-0.2908034
113451109,-2.4754205e-05,-3.7321588e-05,-0.0002530513,0.9546613,0.0413773,0.0482457,-0.29083005
113459108,-4.9641356e-05,0.00010623806,-0.000101228245,0.9546565,0.041377425,0.048243187,-0.29084623
113471108,4.607148e-05,0.0005682595,0.00027495762,0.9546532,0.04137744,0.048241463,-0.2908572
113483108,-0.00062758615,-0.00032396638,0.0006078938,0.9546525,0.04137323,0.04823778,-0.290861
113491108,-0.0007752958,-0.00038011675,0.00010107458,0.95464915,0.0413683,0.048235465,-0.29087314
113503108,0.00014394044,-0.0006420722,2.6254449e-05,0.95464694,0.041364666,0.048229787,-0.2908819
113511907,9.335636e-05,-0.00022541941,1.6556354e-05,0.9546498,0.041363314,0.048227157,-0.29087278
113523901,-0.0004090285,9.616744e-05,0.0008458453,0.95465267,0.041361317,0.048226666,-0.2908636
113535917,-0.00045633304,2.4497043e-05,0.00089164125,0.9546572,0.041358635,0.04822515,-0.2908495
113543906,-0.0004285148,0.00061362237,0.0003985155,0.9546597,0.041357893,0.048226546,-0.29084116
113555900,-0.00032683858,0.0011816466,0.00046893465,0.95466447,0.041356172,0.04823053,-0.29082516
113563901,-8.3936146e-05,0.0011251599,0.0009818324,0.9546694,0.041355666,0.048232663,-0.2908086
113575906,0.0003722654,0.00059674354,0.00097210845,0.95467645,0.041357853,0.048231862,-0.2907857
113587905,-6.729388e-05,0.0007439004,0.00060693664,0.9546826,0.04135936,0.048231855,-0.29076496
113595901,-8.756691e-05,0.0009360169,0.000573053,0.95468646,0.041360185,0.04823485,-0.29075158
113607906,-0.00033136725,7.177773e-05,0.00027869153,0.95469266,0.041356273,0.0482364,-0.2907315
113619909,-3.754429e-05,-0.0005540452,0.00054253335,0.95469856,0.04135258,0.048231013,-0.29071343
113627901,0.00026821566,-0.00032882323,0.0007122797,0.95470387,0.04135238,0.048227612,-0.2906971
113635901,0.00028608768,-5.7291705e-05,0.00010684854,0.9547001,0.04135387,0.048224367,-0.29070964
113652707,-0.00023227558,0.00024336763,0.0007432108,0.95469683,0.04135632,0.04822122,-0.29072034
113664707,1.572154e-05,0.000117774354,0.001189041,0.95470357,0.04135504,0.04822001,-0.29069874
113672706,-0.00035587058,0.00022482453,0.00089609856,0.9547081,0.04135406,0.048218872,-0.29068422
113684707,-0.0007369659,0.00069984444,-0.0002190182,0.95470697,0.041350935,0.048220675,-0.29068816
113696706,-0.00020703359,0.00067805895,-0.00036527892,0.95470285,0.04134943,0.048221525,-0.29070172
113704707,-0.00012530829,0.0006544634,0.00023457198,0.9547059,0.041348834,0.048222583,-0.2906915
113716707,-0.00046595477,0.0008917791,0.00030816207,0.9547046,0.04134748,0.048225716,-0.29069552
113724706,-0.0004887314,0.00052957283,0.0009608625,0.95470446,0.04134565,0.048228133,-0.2906957
113736707,0.000117511954,0.0005269195,0.00036335737,0.954711,0.041344736,0.04822969,-0.29067403
113748706,-0.0009158688,-0.0001544836,0.00017699809,0.95472074,0.041340783,0.048229184,-0.2906428
113756707,-0.0006255206,0.00040997867,0.0006418885,0.9547246,0.041337904,0.04822949,-0.29063055
113768707,-0.00026067614,0.00027475553,0.000450745,0.9547267,0.041336387,0.04823141,-0.29062358
113781507,-0.00019868207,0.00040612533,0.00072126114,0.9547399,0.04133319,0.048232913,-0.29058012
113793507,-0.00024445576,0.0002981103,0.00028083473,0.9547441,0.041331865,0.048233025,-0.29056686
113805506,-0.00040596013,0.000892787,6.890064e-05,0.95473886,0.041332193,0.04823505,-0.29058376
113813507,-0.0004735503,0.0009914569,-6.179116e-05,0.9547349,0.041332785,0.048238236,-0.29059607
113825507,-0.00069584174,0.00052889413,4.5019668e-05,0.9547354,0.041329883,0.048240535,-0.2905945
113833507,-0.00015487673,0.00079705985,5.650078e-05,0.9547356,0.04132901,0.048241947,-0.2905939
113845525,7.409463e-05,0.0009440696,0.0005002406,0.954741,0.041329894,0.04824542,-0.2905754
113857507,-0.00042079506,0.00026841997,0.00025022565,0.95474195,0.041329574,0.048246466,-0.29057178
113865507,-0.0004945308,0.00033635623,0.00063585304,0.95474696,0.041327834,0.048247896,-0.29055545
113877507,-0.00038663682,-9.0234214e-05,0.00057348027,0.95475674,0.041324515,0.04825036,-0.29052344
113889506,-0.00025366386,-0.00042264187,0.00043118862,0.9547562,0.041321974,0.04824754,-0.29052594
113897507,-0.00039926136,-0.00036110473,-1.0848278e-05,0.95475256,0.041320242,0.048244037,-0.29053873
113910307,-0.00030161312,0.00052107545,0.00036418717,0.9547472,0.04131815,0.048241295,-0.29055697
113922307,-0.0005629179,0.0013316583,0.0010813831,0.9547448,0.04131935,0.04824851,-0.2905635
113934306,-0.00032606756,0.0003504639,0.0006915317,0.95474,0.041317936,0.048250448,-0.2905791
113942308,-0.00014398387,4.4438988e-05,0.00038936688,0.95474255,0.041315768,0.04824967,-0.29057124
113954307,-0.00013157201,0.00019713584,-0.0005400954,0.9547451,0.04131291,0.04824692,-0.2905637
113966307,-0.00081847503,0.0004936855,0.00017133867,0.9547469,0.041308094,0.04824828,-0.2905586
113974307,-0.00037368143,0.00077495,0.00046796608,0.9547393,0.04130843,0.04824898,-0.29058352
113986307,-0.00020129816,0.0012346375,0.00015908806,0.95473987,0.041309047,0.048253074,-0.29058066
113994307,-0.00024273945,0.0010070547,0.0002676316,0.9547403,0.04130883,0.048255336,-0.2905786
114006306,-0.0006787409,0.0013733843,0.00014165672,0.9547337,0.0413087,0.04826014,-0.2905994
114018307,-0.00030526845,0.0015292241,0.000341058,0.95473593,0.04130754,0.048266437,-0.29059172
114026307,0.00010399672,0.00093225273,0.0003884146,0.95473695,0.041308478,0.048267998,-0.29058766
114038307,0.00042703014,-0.000169785,0.0003505987,0.95473003,0.041311637,0.04826369,-0.29061076
114047108,0.00025034603,-0.00015150779,0.0007090883,0.9547326,0.04131135,0.048261613,-0.29060265
114059108,-8.2117505e-05,-4.540151e-05,0.0010174669,0.95473605,0.041310526,0.048259567,-0.29059163
114067108,-0.00045452174,-7.561105e-05,0.0005876948,0.9547356,0.04130844,0.048257906,-0.29059428
114083108,-0.0003794994,0.00014265347,-0.0001163343,0.9547331,0.04130576,0.048255943,-0.29060304
114095108,8.103205e-06,-7.1220566e-05,0.0008344373,0.95474106,0.041303404,0.048255302,-0.29057714
114103108,0.00026410364,-4.9429014e-05,0.0005664814,0.9547464,0.041302737,0.048254017,-0.29055968
114115108,-0.00017388538,0.00019231602,0.0006060528,0.95474267,0.04130499,0.048253868,-0.29057172
114127108,0.00015947339,0.00079573365,0.0006272767,0.9547437,0.041308116,0.048256073,-0.29056746
114135107,0.00012326671,0.00013741828,0.000996466,0.9547478,0.041309252,0.04825639,-0.29055363
114147108,-0.00022702361,-0.00011367258,0.00038525648,0.95474803,0.041308373,0.048254248,-0.2905537
114159108,-0.0010967663,0.00024432433,-0.00026603742,0.9547553,0.041302938,0.048257113,-0.29053006
114167108,-0.0017498587,0.00016396423,0.00017414894,0.9547603,0.041296784,0.04825941,-0.29051396
114179108,-0.0012959627,0.00029976224,1.9410625e-05,0.9547636,0.0412884,0.048261013,-0.2905043
114187901,-9.043573e-05,0.00048170378,-0.0006184471,0.9547678,0.041286957,0.04826207,-0.29049045
114199906,0.00014861545,0.00042616227,0.0005959405,0.95477605,0.04128759,0.0482624,-0.29046297
114211901,-0.00027382653,0.00024228799,0.00044726836,0.95477045,0.041286886,0.048260085,-0.29048198
114223906,0.00039200374,0.00035393122,0.0007702077,0.95476264,0.0412879,0.048257116,-0.29050785
114235909,5.3797034e-05,0.00059544365,-0.00052063656,0.95475763,0.041291237,0.048256226,-0.29052407
114243900,9.634066e-06,0.00028828508,0.00013442151,0.9547557,0.041292384,0.04825529,-0.29053032
114255907,-0.00010534085,0.00011257967,0.00052810437,0.9547559,0.041292533,0.048251636,-0.29053038
114263909,-8.6857006e-05,0.00029999227,0.00045501208,0.9547573,0.041292526,0.048251607,-0.29052594
114275901,-0.00013606751,0.00039545796,0.00018634647,0.95475453,0.04129304,0.048249904,-0.29053506
114287907,-0.0003486449,0.001063765,0.00059498055,0.954755,0.041292075,0.048254464,-0.29053304
114295907,-7.0659094e-05,0.00064429827,0.00073380535,0.9547567,0.041291542,0.0482565,-0.29052743
114307901,-0.00048047875,0.0011531984,0.0008719608,0.9547572,0.04129116,0.048260067,-0.2905248
114316707,-0.00086999114,0.0014119685,0.0010259894,0.95475554,0.041289277,0.048265733,-0.29052967
114328706,0.0001326336,0.00070675765,0.0007809086,0.9547531,0.0412886,0.04826927,-0.29053706
114340707,0.00031987787,0.0009920564,0.0003700368,0.9547531,0.041292373,0.048270714,-0.29053646
114352710,-0.0005684863,0.00040614023,2.2652326e-05,0.9547497,0.0412906,0.048271507,-0.2905477
114364707,-0.00072157825,0.00060948404,-0.0008307139,0.95474744,0.0412865,0.048272528,-0.29055592
114372707,-0.0006335105,0.00045443,-0.00043241912,0.9547451,0.0412847,0.048273623,-0.2905632
114384707,-9.1090566e-05,0.00061360653,0.00012686662,0.95474464,0.041284595,0.048277162,-0.29056427
114396709,-0.000114048016,-0.00018207799,0.00084381993,0.9547476,0.04128212,0.048277225,-0.29055488
114404715,-0.00021813053,-0.00041776337,0.001009891,0.9547497,0.0412797,0.048274383,-0.29054886
114416707,0.00026509864,0.0002908113,0.0011926,0.9547569,0.04127959,0.048273392,-0.29052532
114424707,0.00028422277,0.00019626273,0.0005069715,0.95476073,0.04128041,0.048272315,-0.29051277
114436707,-0.0002557682,0.00035950216,-0.00032360782,0.95475966,0.04127937,0.04827122,-0.29051682
114449507,0.00013950106,-0.00030532735,0.00036351779,0.95475847,0.041279368,0.048268348,-0.29052106
114457507,-0.00017148594,0.0001666497,0.0007401097,0.9547624,0.0412781,0.048268095,-0.29050824
114469507,-0.00020297826,0.00061611086,0.0006981944,0.9547604,0.04127763,0.04826895,-0.29051515
114477507,-0.0006577375,0.00015734625,0.00095871324,0.95476145,0.04127558,0.04826936,-0.29051155
114489507,-0.0008115632,-0.00015155296,0.0002294355,0.95476276,0.041268837,0.048267834,-0.29050875
114497507,-0.00022639369,-0.00016359799,0.00013594562,0.95476115,0.04126688,0.048266076,-0.2905145
114509507,0.00013694155,5.57038e-05,-9.772112e-05,0.9547604,0.041267235,0.048263587,-0.29051736
114521521,0.00052812026,0.00040871394,0.00042717485,0.9547618,0.041269183,0.04826449,-0.29051244
114533506,-0.00025926938,0.00012439839,0.00019795354,0.9547632,0.04126868,0.048264608,-0.2905077
114541529,-0.0006589787,-0.00012254855,-5.137967e-05,0.9547649,0.04126482,0.04826424,-0.2905027
114553507,0.00014106731,0.00026454031,8.011563e-05,0.9547663,0.0412638,0.048262775,-0.29049852
114561537,0.00030361547,-0.00052709645,0.00014185556,0.95476866,0.04126433,0.048259016,-0.29049122
114573507,0.00038386503,6.766012e-05,0.00029054936,0.95477164,0.04126594,0.048256315,-0.29048163
114581545,-0.0002603887,0.00039727124,0.00040649436,0.95477617,0.041265134,0.048257537,-0.29046693
114594307,-0.00062802876,0.0007919844,0.00078315334,0.9547697,0.041263767,0.048258264,-0.29048806
114606307,-0.003956818,0.0042366288,0.0003124422,0.9547683,0.041254252,0.048277415,-0.2904907
114614307,-0.0007891223,0.0017521292,-2.3097498e-05,0.9547672,0.041250177,0.048287876,-0.29049304
114626307,0.00053951814,0.00042591593,0.0010860667,0.95476705,0.041256156,0.04828502,-0.29049343
114638307,0.00065146096,0.0011124251,0.000702254,0.9547681,0.04125867,0.048288375,-0.29048926
114646307,0.0012061524,0.00081608095,0.0010829924,0.9547713,0.041263446,0.048288565,-0.2904781
114658307,0.0008295323,-0.00069830194,3.4920406e-05,0.9547758,0.041267097,0.048284277,-0.29046336
114666307,0.0021135723,-0.001485897,0.00025774352,0.9547761,0.04127254,0.048273847,-0.29046327
114678307,0.001052415,9.585638e-06,0.0013965582,0.954777,0.041279525,0.0482656,-0.29046082
114690307,0.00077185396,-0.00050542085,0.0012518191,0.9547846,0.04128235,0.048259925,-0.29043648
114698307,8.483778e-05,0.0005031831,0.00047568162,0.95478505,0.041284088,0.048258685,-0.29043487
114714307,-0.000105105224,0.0010141969,-0.0002969592,0.9547709,0.04128613,0.04826367,-0.29047975
114723108,-0.0013780333,0.001279258,0.00037356396,0.954773,0.041281488,0.048269093,-0.2904731
114735108,-0.0013110392,0.0020961794,0.00012733508,0.9547755,0.041273795,0.048280496,-0.29046395
114747108,-0.0017101754,0.0018099736,2.6777387e-05,0.95477897,0.041266277,0.04829462,-0.29045138
114755109,-0.0008932692,0.0002269207,0.00014441763,0.9547828,0.0412617,0.048297074,-0.29043868
114767108,0.00016653922,0.0003054915,0.0005434912,0.95478654,0.04126078,0.048294142,-0.29042706
114775108,-0.0002656118,0.0005283549,0.00018586684,0.95478225,0.04126016,0.048293054,-0.2904416
114787114,-3.8117054e-05,0.0005431671,0.00029702694,0.95477754,0.041260228,0.04829305,-0.2904571
114799108,0.00025365618,-0.00021206797,4.253909e-05,0.9547774,0.041261785,0.048292655,-0.2904573
114807108,0.00024489663,-0.0007247904,0.0001836347,0.95477736,0.041262448,0.04828839,-0.29045805
114819108,-0.00063151645,-0.00034766062,0.00048121996,0.9547813,0.041258577,0.04828441,-0.2904466
114831108,0.0010499739,0.00029373867,-0.00025530742,0.95478606,0.041260086,0.04828333,-0.29043058
114839108,0.00060625403,0.00048387493,-7.2260154e-05,0.95478976,0.04126384,0.04828315,-0.29041797
114851121,0.00034948363,-0.00042949268,-0.00032406906,0.9547892,0.041265633,0.04828159,-0.2904197
114863907,0.17052442,-0.16701119,-0.04286725,0.95474946,0.041592564,0.04773222,-0.29059464
114875901,0.7145047,-0.9136375,-0.093267314,0.9546248,0.043637075,0.043269858,-0.2914019
114883901,0.5210347,-0.73726106,0.015424637,0.95463794,0.044921014,0.03917189,-0.29174322
114895906,-0.094142266,0.23121011,-0.07649471,0.95465076,0.045488648,0.039020065,-0.2916337
114907909,0.029325195,0.031500358,-0.29894772,0.9541812,0.045428667,0.03976841,-0.2930753
114915919,0.059542585,-0.023559757,-0.25350395,0.95385236,0.04561309,0.03970949,-0.29412305
114927907,0.019314077,-0.010293827,-0.25476435,0.9534176,0.045642667,0.03965857,-0.29553163
114935906,0.036402162,-0.005792222,-0.28627795,0.9530763,0.0457386,0.039665017,-0.29661465
114947900,0.035292566,-0.016081981,-0.2551022,0.9525872,0.04581872,0.03961645,-0.29817602
114959906,0.019526538,-0.0059843156,-0.105011635,0.952271,0.04588482,0.039511953,-0.2991882
114967907,0.0020858701,0.0011123306,-0.015207098,0.9522364,0.045859925,0.039490413,-0.29930443
114979914,3.3566495e-05,0.0032683597,-0.013107412,0.95222193,0.045863852,0.039499424,-0.29934874
114987900,-0.0099929245,0.0033349006,-0.012461241,0.9522075,0.045843773,0.039519854,-0.2993953
115000706,-0.04915765,0.0015234513,-0.011209794,0.9522018,0.04561969,0.0396023,-0.29943687
115012707,-0.012635766,6.0601626e-05,-0.04388269,0.95214725,0.04548042,0.039653227,-0.2996244
115020707,-0.007606012,-0.0025717672,-0.088074125,0.95206285,0.045477755,0.039652873,-0.29989296
115032707,-0.021018205,-0.0115596205,-0.2464181,0.95171046,0.04536406,0.039657585,-0.301026
115040707,-0.056156635,-0.017381702,-0.30286205,0.951379,0.045125354,0.039699793,-0.302102
115052707,-0.06994673,-0.0186612,-0.2569181,0.9508705,0.044538055,0.039842285,-0.30376682
115064707,-0.018845307,-0.009761359,-0.26365116,0.950424,0.044218272,0.03999297,-0.3051876
115072707,0.0004937935,-0.014156755,-0.22971152,0.9501057,0.04411567,0.04002495,-0.30618775
115084706,0.0035404027,-0.003180445,-0.18223608,0.9497688,0.044099305,0.039994348,-0.3072377
115096707,-0.02573237,6.702356e-05,-0.0663968,0.9495655,0.043942265,0.040019266,-0.30788484
115104709,0.0038792207,-9.016832e-06,0.023598386,0.9495649,0.043892715,0.040020015,-0.30789354
115116707,0.07525503,0.00497255,0.12053261,0.94972116,0.04417719,0.039913982,-0.307384
115125507,0.11796592,0.011687888,0.17540298,0.94992495,0.044654127,0.03976761,-0.3067038
115137507,0.13500991,-0.0234921,0.28158733,0.95033836,0.045429327,0.039431177,-0.30534968
115149506,0.113537624,-0.19689429,0.42650938,0.95102745,0.045843247,0.03836504,-0.30327088
115157506,0.07854483,-0.32960016,0.45913616,0.9516081,0.04587229,0.03703742,-0.30160555
115169507,-0.11593711,-0.3922582,0.38011166,0.95244247,0.044996064,0.03473259,-0.29937
115177507,-0.22725025,-0.3172559,0.31096625,0.95291275,0.04385694,0.03362181,-0.298167
115189507,-0.30956432,-0.3098677,0.27610028,0.9535471,0.04165323,0.032377224,-0.2965886
115201507,-0.3180255,-0.37360662,0.26854524,0.95417416,0.039200712,0.03082806,-0.29506713
115213507,-0.34409612,-0.28688788,0.25026515,0.9547709,0.036769938,0.029495467,-0.29358196
115225507,-0.3821541,-0.29700077,0.14598772,0.95522106,0.03414777,0.0285353,-0.29252747
115233507,-0.3113145,-0.33843336,0.097280726,0.9554258,0.03252583,0.027695764,-0.2921241
115245507,-0.14210573,-0.30935267,0.09724515,0.9556776,0.030818157,0.026138939,-0.2916288
115257506,0.104976036,0.015424276,0.15613501,0.9559491,0.030854544,0.02545521,-0.29079425
115266307,0.22481501,0.25279143,0.14960913,0.9560889,0.031895258,0.025930282,-0.29018
115278307,0.35406718,0.41854578,0.2032251,0.95626116,0.03436266,0.027566506,-0.28917822
115286306,0.53682995,0.5182382,0.37677762,0.95651054,0.036813278,0.028846174,-0.2879242
115298307,0.7378485,0.73036623,0.60948175,0.95714796,0.041964803,0.031318683,-0.28482607
115310307,0.6554502,0.40573397,0.7621053,0.95803756,0.047094796,0.033075057,-0.2808063
115318306,0.5429864,-0.011257723,0.81909835,0.95881397,0.049577914,0.03262398,-0.2777651
115330307,0.20792842,-0.5862337,0.6210198,0.9599558,0.05106056,0.029487818,-0.2738762
115338307,-0.019738311,-0.6638341,0.49978986,0.96059465,0.050518773,0.026799364,-0.27200666
115354307,-0.41736278,-0.58947057,0.4831972,0.9618549,0.047257513,0.022526205,-0.2685045
115366307,-0.6848503,-0.67939115,0.44564244,0.9628387,0.04288561,0.019647552,-0.26592577
115374307,-0.83559835,-0.7446155,0.44203877,0.96348923,0.039093833,0.017612696,-0.26429147
115386307,-0.9862198,-0.7784537,0.4160527,0.9644517,0.03246469,0.014508085,-0.26185578
115395108,-0.9571339,-0.7437466,0.32790345,0.9650265,0.027514813,0.012370446,-0.26041088
115407108,-0.82102734,-0.68241924,0.2069892,0.96558076,0.021421248,0.00960222,-0.25904214
115419108,-0.73168397,-0.6792594,0.13041714,0.96593916,0.01600872,0.0068244273,-0.25818342
115427108,-0.7127781,-0.72297174,0.12818107,0.9661244,0.012530867,0.00479627,-0.25772777
115439108,-0.74896646,-0.7811588,0.1525778,0.9664182,0.007055468,0.00144179,-0.2568735
115447108,-0.7363043,-0.7437975,0.12480249,0.96657056,0.0033765219,-0.00074291235,-0.2563778
115459116,-0.71914077,-0.6283709,0.14987889,0.9667645,-0.001844327,-0.0034914457,-0.25563803
115471108,-0.6337482,-0.6409958,0.20995104,0.96701956,-0.006744067,-0.0061038397,-0.25453958
115479110,-0.49860087,-0.6752813,0.2314849,0.96720445,-0.00950959,-0.008147443,-0.25369042
115495108,-0.14553595,-0.6825505,0.33362514,0.9676975,-0.013170941,-0.012850389,-0.25144222
115503108,0.06444447,-0.66681385,0.4177097,0.96807975,-0.013840883,-0.015629396,-0.24977167
115515108,0.31937736,-0.6975466,0.5442383,0.9687534,-0.013469107,-0.019758329,-0.2468704
115527108,0.45654088,-0.7634577,0.5526093,0.969513,-0.012146763,-0.02471435,-0.2434877
115535907,0.50998443,-0.7459528,0.4400756,0.9699488,-0.010867165,-0.028478643,-0.24139228
115547901,0.6835049,-0.69444984,0.31584403,0.97033966,-0.008289879,-0.033498917,-0.23927024
115555901,0.861474,-0.7426106,0.33994374,0.9705707,-0.0057997117,-0.037145756,-0.23786376
115567907,1.0692544,-0.7649372,0.35567617,0.9709019,-0.0010471739,-0.04300058,-0.23558319
115579910,1.1448345,-0.62164015,0.28499284,0.97113407,0.004522242,-0.04853102,-0.23350158
115587900,1.2165501,-0.46772245,0.2591525,0.97123927,0.008674427,-0.051597912,-0.23228616
115599906,1.3395482,-0.26698261,0.34505895,0.97144735,0.015727267,-0.055299122,-0.23018429
115607906,1.3791469,-0.18217689,0.44846135,0.9716836,0.02076577,-0.057350527,-0.22827764
115619900,1.4045267,-0.11074424,0.5524168,0.9721365,0.028545937,-0.060063373,-0.22478482
115631907,1.4464805,-0.08908347,0.62946427,0.97261995,0.036555383,-0.06262539,-0.22079918
115644707,1.4654922,-0.082736306,0.7148559,0.9731497,0.045319878,-0.06538049,-0.21598858
115656707,1.4292865,-0.13054672,0.73118645,0.9736138,0.053317413,-0.06812151,-0.2111702
115664707,1.4934976,-0.13579409,0.73099035,0.97384346,0.058743466,-0.07005836,-0.20801473
115676707,1.6668141,-0.08463795,0.7218869,0.97407895,0.067742035,-0.072921075,-0.20313506
115684707,1.7822104,-0.04890175,0.710719,0.9741291,0.0743507,-0.07476526,-0.19988681
115696707,1.9299992,0.010171896,0.7387604,0.97406787,0.08504787,-0.07739039,-0.19485775
115708707,1.8564161,0.024287554,0.62522304,0.9738134,0.09588741,-0.079824254,-0.19005549
115716706,1.751123,0.08662409,0.4957398,0.9735081,0.102926515,-0.08114685,-0.18735874
115728707,1.7149565,0.22549082,0.40458205,0.9729675,0.11271278,-0.08218397,-0.18405412
115740707,1.7333454,0.3512367,0.34446296,0.9722955,0.12302141,-0.08253316,-0.1808193
115748707,1.6371437,0.3883351,0.28751397,0.9718062,0.12959087,-0.08242785,-0.17889813
115760706,1.3532054,0.23738143,0.2898766,0.9710754,0.13838208,-0.0825317,-0.17621435
115768707,1.1622128,0.13070264,0.28099874,0.9706759,0.14276926,-0.08295111,-0.17471208
115784707,0.913374,0.26026896,0.17988208,0.96994305,0.15057978,-0.08312071,-0.17212537
115796707,0.7855413,0.33401287,0.17244534,0.96953213,0.15556552,-0.082207985,-0.17043695
115805507,0.6905681,0.30161425,0.17922139,0.96929324,0.15877864,-0.081520915,-0.16915788
115817507,0.48600227,0.27616456,0.09919248,0.969039,0.1622167,-0.0805664,-0.16780394
115825507,0.39290708,0.3186104,0.029414881,0.9688944,0.16401751,-0.07967355,-0.16731378
115837507,0.37484276,0.44518504,-0.03143471,0.96869373,0.16660945,-0.07765538,-0.16686322
115849507,0.45898905,0.585285,-0.052711383,0.96845955,0.16971481,-0.074813135,-0.16639124
115857507,0.4530221,0.62817305,-0.085710265,0.9682752,0.17195432,-0.07265222,-0.16612244
115869507,0.2435836,0.6250299,-0.20787571,0.9680424,0.17453633,-0.06916128,-0.16627675
115877507,0.056570724,0.64349186,-0.3137067,0.96795285,0.1754373,-0.066567,-0.16690673
115889506,-0.21635702,0.6822353,-0.39301518,0.9679883,0.17544556,-0.062145013,-0.16839144
115901507,-0.5231754,0.6734829,-0.42642173,0.96827036,0.17377762,-0.057327207,-0.17019829
115909516,-0.7086122,0.6946423,-0.4725669,0.9685776,0.17172627,-0.053874034,-0.17165354
115921507,-0.9213973,0.78910154,-0.57433367,0.96912897,0.16770619,-0.048018005,-0.17423558
115933507,-1.1780729,0.80285084,-0.7422068,0.96971786,0.16224109,-0.041337237,-0.17780973
115942306,-1.3533401,0.75859874,-0.85505515,0.9701048,0.15758955,-0.036618352,-0.1808907
115954307,-1.5753962,0.6301331,-0.99687827,0.97059166,0.14977281,-0.030185942,-0.18603423
115962309,-1.6868854,0.6401617,-1.1059662,0.9708339,0.1439641,-0.025854459,-0.18996742
115974307,-1.8544831,0.7394433,-1.203197,0.97107995,0.13450803,-0.018654883,-0.19637547
115982307,-1.9940464,0.7546465,-1.2205435,0.9712011,0.1275623,-0.013545716,-0.20078073
115994307,-2.1396818,0.7329775,-1.1670461,0.9713274,0.11619941,-0.005761972,-0.20733461
116006307,-2.1224377,0.65180314,-1.0448663,0.9713852,0.10460599,0.0015697783,-0.213228
116014306,-2.0658932,0.6260256,-1.0342513,0.97131574,0.09673202,0.0064059594,-0.21713515
116026307,-1.9868912,0.58607304,-1.0978248,0.97097486,0.0861164,0.012951942,-0.22276467
116038306,-1.9470432,0.52331525,-1.1215516,0.97038156,0.075380124,0.019261993,-0.22870576
116046307,-1.9507531,0.5404447,-1.1196841,0.9698804,0.06818738,0.023471205,-0.23266183
116058307,-1.953236,0.5899695,-1.1460748,0.96894956,0.057466283,0.030005079,-0.23860899
116066307,-1.9595462,0.59959203,-1.1789286,0.9681797,0.050321437,0.034470927,-0.24270882
116079108,-1.9281623,0.5652277,-1.233545,0.9666915,0.038963385,0.041459095,-0.24954084
116091108,-1.8071463,0.48884287,-1.2344761,0.965058,0.028725982,0.047527865,-0.25608405
116099109,-1.7408955,0.4165592,-1.2239945,0.9638891,0.022191804,0.051111847,-0.26040924
116111108,-1.7163382,0.35014817,-1.2366513,0.9620321,0.012465385,0.056063797,-0.26682553
116119108,-1.7476228,0.35542303,-1.2236516,0.96067196,0.0058656894,0.05933655,-0.27120885
116131108,-1.7831507,0.4323635,-1.1387675,0.9585915,-0.004154735,0.064568594,-0.2773372
116139108,-1.8242551,0.45657346,-1.0865387,0.9571893,-0.010936534,0.06828845,-0.28107953
116151119,-1.8666482,0.34767357,-1.0294695,0.95505106,-0.02147862,0.07361402,-0.28635153
116163108,-1.7285928,0.21318334,-0.92286617,0.95285183,-0.032423567,0.07826909,-0.2913693
116175107,-1.5070794,0.21108058,-0.7985216,0.95106566,-0.0409224,0.08177105,-0.29514918
116183108,-1.4257125,0.22030005,-0.7610803,0.94967526,-0.047168106,0.08448284,-0.2979173
116195110,-1.3799679,0.099149235,-0.7899764,0.94793975,-0.054594375,0.087276556,-0.30135116
116203108,-1.3108662,-0.0023909258,-0.8114785,0.94646764,-0.060611464,0.08895334,-0.3043231
116215906,-1.0785764,-0.1638198,-0.76686054,0.94465816,-0.0676429,0.09012223,-0.30809623
116223907,-0.92873085,-0.25229618,-0.679667,0.94358885,-0.07186545,0.090207405,-0.310384
116235900,-0.8625495,-0.3340891,-0.55969423,0.94223315,-0.0777628,0.08984864,-0.31317222
116247947,-0.85401404,-0.45619813,-0.47983876,0.9410905,-0.08375199,0.08881964,-0.31534928
116255907,-0.85017455,-0.45861417,-0.48897567,0.94034046,-0.08770746,0.087982915,-0.31674328
116267901,-0.8590615,-0.42311805,-0.51374406,0.9391576,-0.093557134,0.08687307,-0.31887826
116279914,-0.88226193,-0.37838098,-0.52933425,0.9378326,-0.09950784,0.08602336,-0.32119802
116287907,-0.90000063,-0.37899026,-0.49123457,0.93693876,-0.10356576,0.08556276,-0.3226438
116299901,-0.8985352,-0.446742,-0.41556942,0.9357291,-0.109723076,0.0846406,-0.32435784
116307901,-0.85720915,-0.49805725,-0.3771007,0.9350005,-0.11376056,0.08376339,-0.32529435
116319907,-0.6898228,-0.5611105,-0.3042209,0.93408996,-0.11923506,0.08193594,-0.3264131
116331902,-0.46998507,-0.6452327,-0.1881828,0.9335389,-0.12359455,0.07934363,-0.3270078
116340706,-0.36211675,-0.73507565,-0.11678714,0.93337893,-0.12624536,0.07683875,-0.32705
116352707,-0.24387705,-0.9153119,-0.05454687,0.9334001,-0.12953278,0.07248037,-0.32669893
116364707,-0.06706006,-1.0140576,-0.06205779,0.9335937,-0.13222973,0.067148045,-0.32620433
116376707,0.093185656,-1.1318697,-0.07192138,0.9338831,-0.13415927,0.060847532,-0.32582414
116384707,0.17863633,-1.1576363,-0.029753191,0.9341597,-0.13509856,0.056312002,-0.3254582
116396707,0.2716142,-1.1167458,0.086560845,0.9347732,-0.13595724,0.049524933,-0.32444105
116408706,0.38981432,-1.1028457,0.19946405,0.93564904,-0.13615134,0.0427787,-0.32279062
116416706,0.509465,-1.1310056,0.281627,0.93643415,-0.13576776,0.0378953,-0.3212819
116428707,0.76135564,-1.2059648,0.4090461,0.93787736,-0.13422677,0.030408584,-0.31850383
116440707,0.973281,-1.2274474,0.49781972,0.939682,-0.13129413,0.022083078,-0.31507468
116448707,1.0270723,-1.1542087,0.52178115,0.9409341,-0.12886493,0.01663702,-0.3126661
116460722,1.0406295,-0.8894142,0.5812328,0.9428215,-0.12471887,0.009614823,-0.30893436
116468707,1.0329139,-0.7657581,0.63926375,0.944115,-0.121739805,0.005676578,-0.30625853
116481507,1.0396192,-0.73509055,0.7489039,0.9462803,-0.116885416,-0.00024432698,-0.3014819
116489507,1.0850148,-0.7746449,0.8124789,0.9477133,-0.11372657,-0.0040730224,-0.29814297
116505507,1.3181722,-0.87769943,0.8215008,0.95065194,-0.106474504,-0.012649731,-0.29114258
116517507,1.5590547,-0.8853345,0.8365877,0.95291024,-0.09961051,-0.019755479,-0.28574398
116525507,1.6594026,-0.860031,0.8658518,0.95444524,-0.09436199,-0.024604592,-0.2820011
116537507,1.6940658,-0.83085865,0.84415835,0.956637,-0.08619788,-0.031754926,-0.27641872
116549506,1.6609483,-0.75450057,0.75706345,0.95859075,-0.07790317,-0.03864388,-0.27118543
116557506,1.6031729,-0.65530765,0.69010043,0.95971394,-0.072496854,-0.04280219,-0.2680695
116569507,1.600701,-0.44058588,0.5966675,0.9612119,-0.0642203,-0.04803849,-0.26389337
116577507,1.6314284,-0.30788937,0.5639903,0.96211994,-0.058446947,-0.050914396,-0.26137498
116589507,1.7026491,-0.255162,0.59943205,0.96346354,-0.04941076,-0.054831807,-0.25746855
116601507,1.7673534,-0.30107227,0.67810476,0.96482307,-0.039984696,-0.059000567,-0.2530549
116609507,1.8234571,-0.3163039,0.7308768,0.9657204,-0.033500534,-0.061950773,-0.24984801
116622307,1.957143,-0.30054596,0.80916953,0.9671522,-0.022501884,-0.06675314,-0.24424244
116634307,2.0451045,-0.28471926,0.797219,0.9684372,-0.011108881,-0.07146337,-0.2385351
116646307,1.9699563,-0.23014578,0.7130724,0.9694128,-0.0004604165,-0.07560707,-0.23349991
116654307,1.8296499,-0.17621835,0.65164804,0.9699661,0.0066514323,-0.07816252,-0.23024343
116666307,1.5736302,-0.14096764,0.5438206,0.9705467,0.015527335,-0.08121985,-0.22627707
116678307,1.5678636,-0.118974775,0.5492242,0.9710146,0.02408863,-0.0840837,-0.22244184
116686306,1.6862643,-0.051456705,0.6086871,0.9713398,0.030477632,-0.08592074,-0.21951705
116698306,1.8273783,0.07652932,0.6196727,0.9717686,0.040470332,-0.08808575,-0.2151021
116710306,2.0455186,0.11328075,0.63170415,0.9720491,0.051809482,-0.09016578,-0.21049097
116718307,2.2605565,0.16505623,0.67930204,0.97215647,0.060305197,-0.091573276,-0.20709787
116730308,2.3994184,0.22842506,0.6828135,0.9721435,0.074075505,-0.093541674,-0.20174225
116738307,2.297624,0.2159621,0.6423336,0.9720095,0.083034866,-0.09476964,-0.19829674
116751107,1.9255592,0.13670656,0.5531223,0.97167933,0.09562216,-0.09667605,-0.19326022
116763108,1.5025384,0.073329575,0.46640208,0.9713184,0.104828104,-0.09832534,-0.18942986
116771108,1.3496133,0.09807708,0.4508613,0.9711087,0.110006236,-0.09918128,-0.18710922
116783108,1.3572124,0.21936314,0.48889166,0.9708249,0.11768973,-0.09992736,-0.18347391
116795114,1.3870248,0.3310952,0.50186956,0.9705422,0.12578683,-0.10000329,-0.17951265
116807107,1.2597643,0.34483126,0.3998289,0.9701995,0.13354635,-0.09972611,-0.17587769
116819108,1.1107976,0.3474812,0.2465401,0.9697559,0.14052024,-0.09917699,-0.17318055
116827108,1.0276501,0.3803466,0.13434987,0.9694135,0.14481722,-0.098536804,-0.17191827
116839108,0.85372907,0.4538847,-0.11506668,0.9688186,0.15069927,-0.096919015,-0.17113419
116847108,0.7268551,0.5267067,-0.32581276,0.9683526,0.15417741,-0.095256,-0.17160663
116859108,0.5240104,0.63346267,-0.6016003,0.96758646,0.15862934,-0.09185077,-0.17371449
116871110,0.23232265,0.7001163,-0.776785,0.96686256,0.16169411,-0.087526575,-0.17711867
116879119,-0.016526124,0.7294141,-0.84786403,0.9664908,0.16264394,-0.08422179,-0.17985886
116891901,-0.48756087,0.7752503,-0.92264974,0.96617466,0.16206208,-0.078239,-0.18471882
116899902,-0.84197503,0.7384791,-0.9482133,0.9661976,0.15986133,-0.07406866,-0.18820316
116911907,-1.2550874,0.6593622,-0.9094895,0.9664959,0.15452145,-0.06807486,-0.19332524
116919940,-1.4990464,0.64785963,-0.8812539,0.96687746,0.14962706,-0.06387665,-0.19667101
116935917,-1.9810932,0.6451756,-1.0091488,0.967764,0.13708699,-0.05483444,-0.20404217
116947901,-2.0577774,0.49930596,-1.0685698,0.9682547,0.12627096,-0.048202787,-0.2102735
116955901,-2.1005535,0.37008926,-1.1175674,0.9684132,0.11849824,-0.044213496,-0.21489353
116967906,-2.259616,0.35137492,-1.2758565,0.96837723,0.106733754,-0.038656995,-0.22216894
116979908,-2.3837929,0.4169565,-1.360308,0.9680489,0.09394774,-0.03233253,-0.23023893
116988707,-2.4452922,0.43607467,-1.3832736,0.9676337,0.08424103,-0.027451053,-0.23629391
117000707,-2.5658278,0.5100368,-1.4803963,0.9667659,0.070545785,-0.020340685,-0.24489462
117008707,-2.6547441,0.56504583,-1.5666381,0.9659514,0.06102475,-0.015191491,-0.2509647
117020706,-2.7205217,0.6258477,-1.5892181,0.9644399,0.046412073,-0.0070700794,-0.2600989
117028706,-2.7379277,0.68002087,-1.560732,0.96326166,0.03655376,-0.0013648345,-0.26606235
117040706,-2.7049391,0.7371069,-1.49565,0.96126544,0.02199389,0.0074561997,-0.27464417
117052706,-2.725452,0.7461832,-1.4932919,0.958937,0.007577938,0.016391573,-0.28304413
117064708,-2.7210348,0.6057379,-1.5672153,0.9561121,-0.0075947503,0.025126282,-0.2918232
117076718,-2.4815307,0.38610518,-1.5132449,0.95318717,-0.021350829,0.031970963,-0.2999272
117084714,-2.2450833,0.26418668,-1.4187766,0.95113796,-0.030080393,0.035770994,-0.30520844
117096706,-1.9493395,0.279072,-1.310974,0.94817555,-0.04140668,0.040701333,-0.31239727
117108707,-1.8431875,0.35997924,-1.2610584,0.9451677,-0.051708817,0.045818247,-0.31919432
117116707,-1.804024,0.39382428,-1.2314022,0.9430024,-0.058621373,0.049519196,-0.32381782
117128708,-1.7033223,0.44913167,-1.1514176,0.9399757,-0.06773889,0.054793462,-0.32993168
117140718,-1.5468466,0.5024149,-0.9800204,0.93701553,-0.07625536,0.060316596,-0.3354832
117148707,-1.4643946,0.5391806,-0.86444294,0.93521386,-0.08134358,0.06401731,-0.33861515
117161507,-1.4639252,0.5842342,-0.8367971,0.93236846,-0.08911841,0.07011005,-0.34326607
117169507,-1.5285867,0.586632,-0.89492434,0.9304068,-0.094242506,0.074077375,-0.3463728
117181507,-1.5587333,0.5780291,-0.9575177,0.9272632,-0.10210171,0.079930976,-0.3512397
117193507,-1.5043935,0.5939862,-0.95339507,0.92395043,-0.109846815,0.08583343,-0.35620493
117205507,-1.3661059,0.53213245,-0.9175032,0.92067575,-0.11700266,0.0913574,-0.36099923
117217507,-1.2616796,0.48902532,-0.9124501,0.9174635,-0.12357284,0.096251436,-0.36568588
117225507,-1.2216214,0.523644,-0.89984566,0.91529274,-0.12769635,0.09948997,-0.36882883
117237507,-1.1201354,0.5163324,-0.78106606,0.9121829,-0.13346405,0.104324535,-0.37313005
117249507,-0.89837056,0.36864462,-0.64887416,0.9095319,-0.13836916,0.10826815,-0.37667438
117257507,-0.7723748,0.26644877,-0.6141607,0.9080111,-0.14114283,0.11015788,-0.37876102
117269507,-0.6567219,0.14657159,-0.57102835,0.90587,-0.14506061,0.11226201,-0.38177776
117277507,-0.53035533,0.035576038,-0.505526,0.9047592,-0.14716019,0.112998605,-0.38338757
117290307,-0.31247044,-0.11489781,-0.3823365,0.90341777,-0.1498259,0.113065474,-0.38549277
117298307,-0.24465069,-0.11987563,-0.35188195,0.90276897,-0.15108213,0.112786084,-0.3866028
117310307,-0.27319747,-0.022723978,-0.3729292,0.9017292,-0.15280554,0.11271322,-0.3883694
117322307,-0.31815422,0.0117424335,-0.33724454,0.9006002,-0.15469916,0.113160014,-0.3901055
117330307,-0.32270196,-0.011762215,-0.28103283,0.89990914,-0.1560701,0.1134786,-0.3910606
117346307,-0.28115508,-0.16274968,-0.09067694,0.89903134,-0.15881054,0.11359263,-0.3919421
117354307,-0.16544957,-0.30979452,0.06598101,0.89906377,-0.16015203,0.112832636,-0.39154115
117366307,0.1413632,-0.50151944,0.28225762,0.8998148,-0.16082627,0.11075732,-0.39012942
117378322,0.53726006,-0.6861217,0.48424208,0.9015206,-0.15995291,0.10690291,-0.3876178
117386307,0.82535344,-0.82678616,0.6335415,0.9032917,-0.15818956,0.103132516,-0.38523233
117398307,1.2584914,-0.9934004,0.8668418,0.9065636,-0.15405284,0.09637174,-0.38094974
117410307,1.6795832,-1.0284045,1.1740953,0.9108967,-0.14739934,0.08826336,-0.3751671
117418307,1.904084,-1.0387464,1.348981,0.9142535,-0.1417672,0.08246681,-0.3704617
117431108,2.058564,-1.0057291,1.3427575,0.91970867,-0.13155074,0.07284259,-0.3626628
117439108,2.1383615,-0.94490117,1.3802067,0.922999,-0.1247686,0.06696251,-0.3578012
117451108,2.4460785,-0.92810184,1.6449525,0.9282607,-0.113223486,0.057985276,-0.34950003
117463108,2.559339,-0.93240124,1.7693878,0.9338012,-0.10032061,0.048557825,-0.33999017
117471108,2.4341362,-0.87746274,1.6709355,0.9371881,-0.091960534,0.042514738,-0.33378786
117483108,2.311408,-0.8016005,1.4885527,0.94158894,-0.07998602,0.033973537,-0.32535887
117495105,2.3933704,-0.80423415,1.5006762,0.945668,-0.06760429,0.025317047,-0.31701866
117507108,2.5007405,-0.83712125,1.5062762,0.94939387,-0.055159178,0.016664093,-0.3087573
117519108,2.4775608,-0.8248389,1.3181937,0.9527106,-0.042197615,0.0076552946,-0.30083764
117527111,2.375677,-0.836383,1.172495,0.95452297,-0.033932135,0.0017565605,-0.29619503
117539108,2.1680565,-0.79972726,0.95436174,0.9566864,-0.022500249,-0.006734938,-0.2901715
117547108,2.0377204,-0.6618719,0.8547311,0.95782954,-0.015417982,-0.011719233,-0.28668377
117559906,1.8480791,-0.41507238,0.8040249,0.95937914,-0.004726792,-0.018073475,-0.28150088
117567907,1.7374564,-0.33898094,0.80332744,0.96025443,0.0015680012,-0.021378579,-0.27830186
117579901,1.5929537,-0.344204,0.7995678,0.9614736,0.010354633,-0.02604355,-0.273465
117591907,1.3464606,-0.31724435,0.6856444,0.9624806,0.018052798,-0.030359728,-0.26904166
117599907,1.1888609,-0.2645526,0.5734557,0.9629904,0.022473378,-0.032836773,-0.26658273
117611901,1.0511256,-0.093569584,0.42797956,0.9635379,0.028443417,-0.03556316,-0.26366866
117623926,1.0165879,0.017791359,0.32014504,0.96391696,0.034910362,-0.037471093,-0.26123008
117635900,1.0507177,0.05970102,0.27238497,0.96410793,0.04041291,-0.038739543,-0.2595419
117647907,1.0109895,0.04946264,0.1961738,0.9641931,0.046511836,-0.040096927,-0.25799355
117655907,0.9211271,0.042444207,0.085345514,0.9641286,0.050261218,-0.04093539,-0.25739878
117667901,0.79389316,0.097976774,-0.09508553,0.9638188,0.055211257,-0.041737847,-0.25741637
117679934,0.66226536,0.17998451,-0.18133715,0.9633658,0.059600137,-0.041852456,-0.2581135
117687907,0.5749805,0.22900215,-0.2341854,0.9630268,0.06218359,-0.041580603,-0.2588118
117700747,0.5051739,0.35870975,-0.32481897,0.9623923,0.065989986,-0.040403076,-0.26041147
117708707,0.5017079,0.48720798,-0.32205305,0.9619918,0.06836181,-0.03910545,-0.26147515
117720707,0.4728849,0.6478893,-0.26943552,0.9614814,0.07211679,-0.036250386,-0.26275194
117728717,0.3733849,0.71252763,-0.31681892,0.9611503,0.074442916,-0.033911508,-0.26362577
117740713,0.10750602,0.73863816,-0.54672605,0.9604609,0.07690464,-0.029793581,-0.26591897
117752706,-0.08721749,0.6783813,-0.6004169,0.95959896,0.07797447,-0.025425209,-0.26915333
117760706,-0.15191397,0.5252955,-0.38595542,0.95920175,0.0780883,-0.022878027,-0.2707599
117776707,-0.32986662,0.184797,-0.51230085,0.9585646,0.07706538,-0.020096801,-0.27351618
117784707,-0.46096495,0.23829746,-0.7221932,0.95789045,0.07550839,-0.018395754,-0.2764164
117796707,-0.5583438,0.23397763,-0.7918364,0.9569214,0.07320101,-0.015874034,-0.28051937
117808707,-0.73651433,-0.09036068,-0.5674923,0.9561144,0.06937017,-0.014325759,-0.28430256
117816707,-0.7220034,-0.0022701323,-0.54233,0.95568407,0.06638006,-0.013411661,-0.2864992
117829516,-0.62363607,0.5976672,-0.77229005,0.9547189,0.06336513,-0.0095371185,-0.2905267
117837507,-0.72070384,0.70486295,-0.8776297,0.9539109,0.061593987,-0.0058082836,-0.29364347
117849507,-0.7909661,0.39556038,-0.7820245,0.9527401,0.057971984,-0.0012432893,-0.2982013
117861507,-0.7965333,0.3097861,-0.61428505,0.9518079,0.05415374,0.0022423647,-0.30186754
117869507,-0.89237475,0.2503909,-0.56745905,0.9512849,0.05113499,0.0044446103,-0.30401087
117881507,-0.72499955,0.46980044,-0.57466525,0.9504582,0.04722771,0.008208005,-0.30713445
117893507,-0.56598175,0.79591626,-0.60936314,0.94946814,0.045085173,0.0135819195,-0.31031117
117901506,-0.5205574,0.7379457,-0.6491464,0.9487127,0.04397382,0.017265633,-0.31259
117913507,-0.4100648,0.46246952,-0.53507733,0.9476517,0.042380333,0.02144722,-0.31575355
117925510,-0.32641232,0.2271585,-0.33509323,0.94693106,0.04083833,0.023923228,-0.31793317
117937507,-0.24437948,0.20671315,-0.2838776,0.9464374,0.03965273,0.025617022,-0.31941763
117949511,-0.173788,0.30947256,-0.40012172,0.945753,0.039043207,0.027620273,-0.3213475
117957507,-0.17431994,0.35956988,-0.4493498,0.9451758,0.038811017,0.029215127,-0.3229286
117970307,-0.18208152,0.33562556,-0.415968,0.9442581,0.03831839,0.031789623,-0.3254195
117978335,-0.11053702,0.33358815,-0.3555201,0.9437363,0.038162164,0.03325611,-0.32680187
117990307,0.07732364,0.43043432,-0.24890408,0.9430986,0.038932078,0.035478964,-0.32831478
117998307,0.09080688,0.44570085,-0.19963537,0.94273674,0.039859798,0.0370617,-0.3290671
118010307,-0.2351273,0.16606939,-0.16208853,0.94236106,0.039847847,0.038954392,-0.32992482
118022308,-0.3402675,-0.2681256,-0.20918192,0.9420897,0.03759578,0.038843177,-0.33097574
118030308,-0.18227999,-0.20388624,-0.16368276,0.9419144,0.03633734,0.03825272,-0.33168286
118042310,0.091190465,0.1478845,-0.09960612,0.9416691,0.036385737,0.038391232,-0.3323576
118054306,0.184262,0.27255762,-0.071832165,0.94138694,0.037999984,0.039625518,-0.33283114
118066307,0.14715946,0.23379168,-0.038484983,0.9412042,0.039310623,0.04057636,-0.33308095
118078307,0.033197723,0.18832453,-0.02198558,0.9410981,0.04012957,0.041560575,-0.33316165
118086307,-0.0068205586,0.1554315,-0.04299235,0.9410193,0.040368788,0.042183336,-0.33327708
118099108,-0.02050831,0.16199207,-0.06350376,0.94085395,0.040542472,0.043135695,-0.3336009
118107108,0.031527244,0.21469903,-0.054068863,0.9407462,0.040837582,0.043875705,-0.333772
118119108,0.1312295,0.23557404,-0.034444377,0.9405806,0.04188049,0.04503873,-0.33395475
118131108,0.19215028,0.15084401,-0.013707736,0.94044816,0.043209735,0.045729373,-0.33406463
118139108,0.23273383,0.09116655,-0.0048950296,0.94037914,0.04418375,0.045835674,-0.33411658
118151108,0.37874067,0.052255463,0.007275762,0.9402871,0.04604128,0.04553205,-0.33416656
118163108,0.8621539,-0.01556566,0.05237043,0.94012743,0.0501687,0.044288225,-0.3341889
118171108,0.8029512,-0.31309175,0.18075153,0.94018537,0.05303102,0.042277858,-0.3338441
118183108,0.06658301,-0.8701852,0.3864076,0.94088733,0.05369415,0.03758925,-0.3323179
118191108,-0.4524346,-0.7274689,0.38397488,0.9416039,0.05137267,0.03490932,-0.33094472
118207111,-0.16390511,0.36202893,0.3283283,0.9426733,0.04901842,0.035744127,-0.32815632
118219108,-0.18315664,0.022642044,0.19974811,0.94315743,0.048656214,0.037048493,-0.3266711
118227108,-0.16757882,-0.08343957,0.16759409,0.9434355,0.047888048,0.036937196,-0.32599378
118239913,-0.12550782,0.11360375,0.21111825,0.9438831,0.0473176,0.03739211,-0.32472685
118247907,-0.15439534,0.14390744,0.18658406,0.9441522,0.04699385,0.038050115,-0.32391438
118259901,-0.13205692,0.14021844,0.06799219,0.944382,0.046538018,0.03904271,-0.323191
118267900,-0.11951004,0.16479865,0.03168112,0.94442874,0.046292983,0.03978163,-0.32299957
118279906,-0.11636733,0.17276625,0.060225256,0.9444988,0.045963943,0.040991716,-0.3226904
118291900,-0.080497295,0.09087795,0.27186498,0.9448538,0.045661017,0.04183762,-0.3215837
118299901,-0.00024217821,-0.031135065,0.4850602,0.94544107,0.04560777,0.041776624,-0.3198685
118311907,0.120187,-0.23865029,0.6892023,0.94665676,0.045899913,0.040421285,-0.31638646
118323909,0.11290353,-0.23779696,0.66212547,0.94798326,0.046304118,0.0385332,-0.3125681
118331909,-0.07288052,-0.01259639,0.5420501,0.9487176,0.046225067,0.038211975,-0.31038386
118343907,-0.3453709,0.32402048,0.21747659,0.94936913,0.045182534,0.040039275,-0.308308
118351907,-0.3661493,0.39354682,0.012856957,0.94944245,0.04429587,0.041951537,-0.30795616
118363901,-0.34952828,0.39142394,-0.052436534,0.9493476,0.043001432,0.044879574,-0.30801916
118372706,-0.33990082,0.3673586,-0.027626414,0.949293,0.04206527,0.046918653,-0.30801284
118384726,-0.2519482,0.27689147,-0.02486421,0.9492254,0.04090302,0.049448498,-0.30798212
118396707,-0.14342542,0.15547417,-0.015470511,0.94917583,0.040315747,0.05073511,-0.30800307
118404734,-0.067217335,0.07091236,-0.0032837456,0.94916457,0.04006254,0.05126749,-0.30798256
118416707,0.051167984,-0.057796836,0.0077981055,0.94917125,0.040116105,0.051133443,-0.30797744
118428706,0.14456558,-0.16007325,0.020888506,0.949207,0.040531784,0.050216157,-0.3079639
118436706,0.18551974,-0.20561379,0.025253223,0.94924986,0.0409653,0.04925601,-0.30792922
118448713,0.20852886,-0.23003119,0.02753245,0.9493244,0.04171859,0.047588952,-0.30786034
118456707,0.2002908,-0.22130124,0.027015988,0.94937086,0.04222008,0.046477895,-0.30781868
118468707,0.16446283,-0.18226753,0.02294344,0.94942975,0.042883776,0.045002468,-0.30776432
118480706,0.108697414,-0.12195639,0.01596395,0.9494698,0.04335856,0.04393572,-0.30772835
118488706,0.06559004,-0.07426119,0.010096702,0.9494876,0.04355953,0.04347826,-0.30771008
118500706,-0.00041151315,-0.00094257947,0.0024456317,0.9494919,0.04363524,0.043294773,-0.30771202
118509506,-0.04226788,0.0449172,-0.0030477953,0.94949096,0.043555412,0.043459654,-0.30770317
118521507,-0.095295295,0.103650965,-0.011112033,0.94948107,0.043264113,0.04409022,-0.307685
118533507,-0.12659061,0.1380044,-0.014644901,0.9494633,0.0428288,0.045037366,-0.3076634
118541507,-0.13460512,0.14728616,-0.015549802,0.9494398,0.04249841,0.045760952,-0.307675
118553507,-0.1299807,0.14196837,-0.014924348,0.94940376,0.04200807,0.04683461,-0.30769208
118561545,-0.11613301,0.12677634,-0.013568176,0.9493842,0.04170983,0.04748762,-0.30769283
118573507,-0.08173501,0.088038094,-0.008709076,0.9493535,0.04135883,0.04825269,-0.307716
118585507,-0.03546621,0.03692859,-0.0027495665,0.94934446,0.041156232,0.048680097,-0.30770382
118593507,-0.0022663733,0.0008157166,0.00052562566,0.94934267,0.04113282,0.04872362,-0.30770552
118605507,0.04306542,-0.048463657,0.0055667274,0.94935846,0.04124473,0.04846596,-0.30768254
118617507,0.073414564,-0.08043662,0.010353754,0.9493817,0.041471526,0.047967233,-0.30765828
118625507,0.0823823,-0.091229424,0.011488088,0.949401,0.041697033,0.04747012,-0.30764556
118638307,0.08100543,-0.09126549,0.011406572,0.94942975,0.04199448,0.04679925,-0.30761918
118646317,0.072841264,-0.080759004,0.009714285,0.94945014,0.042187143,0.04636846,-0.30759516
118658307,0.050716616,-0.05548544,0.006826559,0.9494635,0.042400483,0.045902915,-0.30759415
118670307,0.02258667,-0.025735203,0.0033374957,0.9494759,0.042520523,0.04563182,-0.30757967
118678306,0.0032345671,-0.0041163573,0.0009518147,0.94948167,0.042540062,0.045581155,-0.30756703
118690307,-0.024274684,0.026677271,-0.002652094,0.94948584,0.042483743,0.0457019,-0.30754367
118698307,-0.03987353,0.042709377,-0.00462598,0.94948167,0.04239407,0.045893203,-0.30754048
118710307,-0.055387024,0.059901148,-0.0058932584,0.9494677,0.042204805,0.046297673,-0.30754912
118722307,-0.061292797,0.06701099,-0.006857571,0.9494601,0.04198082,0.046783693,-0.30752945
118730307,-0.059079193,0.06528807,-0.0065206075,0.9494527,0.041827716,0.047124296,-0.30752125
118742307,-0.049031075,0.05407149,-0.0053187227,0.9494442,0.04163824,0.047545828,-0.30750856
118754307,-0.032430973,0.033758048,-0.0029613567,0.9494421,0.041493926,0.047854755,-0.3074867
118762307,-0.0177919,0.018197969,-0.0012556731,0.9494437,0.04143865,0.047968257,-0.30747116
118774307,0.0044625504,-0.0052292766,0.0011095607,0.9494508,0.041424483,0.04799012,-0.3074477
118783108,0.017917532,-0.019881738,0.00286544,0.9494523,0.041462753,0.04790452,-0.30745134
118795142,0.033131786,-0.03623889,0.0036245496,0.94945157,0.04158298,0.047641385,-0.30747828
118807108,0.03814346,-0.04071652,0.004885353,0.94945854,0.041710492,0.04737155,-0.3074813
118815151,0.036402594,-0.039680295,0.0048558116,0.94947606,0.0418144,0.047144048,-0.30744815
118827108,0.02859047,-0.032390367,0.0035350414,0.94949204,0.041916955,0.04691067,-0.30742055
118835107,0.021239616,-0.024956822,0.0027395384,0.9495019,0.041981366,0.046755303,-0.30740464
118847108,0.009082034,-0.010154187,0.0012533041,0.94950783,0.04202154,0.04665911,-0.3073958
118859122,-0.0057263193,0.005805565,0.00032248814,0.94951195,0.042022068,0.046657626,-0.30738315
118867108,-0.014926352,0.014803493,-0.0010911999,0.9495126,0.04198985,0.046719678,-0.307376
118879108,-0.024282124,0.025683153,-0.0023410155,0.9495156,0.041909076,0.04688499,-0.30735278
118891108,-0.030525021,0.032437377,-0.00274456,0.94951594,0.041801676,0.047113203,-0.30733144
118899108,-0.03147325,0.03393562,-0.0033395714,0.9495091,0.041725747,0.047278877,-0.30733743
118911915,-0.028475942,0.030419897,-0.0031661463,0.9494985,0.041608326,0.047531947,-0.30734685
118919912,-0.023055924,0.024796067,-0.0027303575,0.94948834,0.041547664,0.047661427,-0.30736667
118931901,-0.01238113,0.013424123,-0.0011888044,0.94949365,0.041486036,0.04778976,-0.30733833
118939901,-0.0049865465,0.0050165663,-7.3195435e-05,0.9494993,0.041467935,0.047827054,-0.30731755
118951907,0.005348109,-0.0063925255,0.0015863297,0.94949466,0.04147577,0.047806762,-0.3073343
118963901,0.013854293,-0.015362493,0.0026158658,0.94950026,0.041519415,0.047715656,-0.30732483
118971901,0.017413467,-0.020435289,0.0023260727,0.9495065,0.041560333,0.04761881,-0.30731532
118987901,0.017897567,-0.020469572,0.0029947367,0.9495153,0.04164868,0.047411557,-0.30730808
118995901,0.014931048,-0.01669173,0.0022685206,0.94951683,0.041692924,0.04731626,-0.307312
119007907,0.008772209,-0.010396648,0.0016354021,0.94952565,0.041730084,0.047231052,-0.30729273
119019900,0.0024389266,-0.0022755314,0.0014450846,0.94953924,0.041745987,0.047189474,-0.3072553
119027903,-0.0031676178,0.0036487035,0.0001767159,0.9495405,0.041741904,0.04719904,-0.30725047
119039925,-0.0104122255,0.011181434,-0.00087699294,0.9495474,0.04171196,0.047261823,-0.30722344
119048707,-0.014169581,0.014929095,-0.0012770949,0.9495394,0.04167625,0.04733844,-0.30724123
119060707,-0.017133718,0.018632494,-0.0012460444,0.94953865,0.041618217,0.04746594,-0.3072319
119072707,-0.016198462,0.018043721,-0.0009818152,0.9495327,0.041558206,0.04760247,-0.30723724
119080707,-0.013594189,0.015648369,-0.0011205825,0.9495296,0.04152491,0.047681935,-0.30723885
119092707,-0.00868115,0.008934654,-0.0014701069,0.9495205,0.04148786,0.04776483,-0.30725917
119100707,-0.005001111,0.005602639,-0.0003632228,0.9495155,0.041473363,0.047795713,-0.3072718
119112706,0.000814041,-0.00041902368,0.0013531607,0.94950897,0.04147089,0.047805924,-0.3072907
119124707,0.0060235765,-0.006399378,0.001477934,0.9495088,0.041489966,0.04776994,-0.30729425
119136707,0.008286653,-0.009729026,0.0021013096,0.9495121,0.041518304,0.04770378,-0.30729032
119148707,0.008707715,-0.010275032,0.0014127027,0.94952375,0.041547883,0.047627807,-0.3072622
119156707,0.007780282,-0.008883529,0.0010000814,0.94952744,0.04156706,0.047580518,-0.30725542
119168707,0.0042696614,-0.0050052307,0.0008056972,0.94953144,0.041586854,0.04753114,-0.30724835
119180707,0.0009648601,-0.0005797753,0.0003599387,0.94953406,0.041596077,0.047513966,-0.30724165
119189506,-0.0022622729,0.0021775875,-0.00010357727,0.9495351,0.041593,0.04751929,-0.30723804
119201507,-0.005539187,0.0067375666,-0.0001626003,0.94953376,0.04157794,0.04755705,-0.30723798
119209506,-0.007095944,0.0082566105,-0.00029759156,0.94952834,0.04156478,0.047593895,-0.3072512
119221507,-0.009071315,0.010882195,-0.0006257673,0.94952744,0.041535094,0.047667634,-0.30724642
119233541,-0.008803984,0.0108129075,-0.0010827095,0.94952595,0.04150387,0.047747876,-0.30724266
119241514,-0.0077850157,0.008831824,-0.00065178215,0.9495221,0.04148535,0.047792695,-0.30725023
119253510,-0.0050323964,0.004943829,4.3273903e-05,0.9495341,0.041459028,0.047841415,-0.307209
119261517,-0.0027883155,0.002445009,0.0004214209,0.9495336,0.04144991,0.04785553,-0.3072097
119277507,0.001360138,-0.0020143406,0.00044298032,0.9495356,0.041448426,0.04785537,-0.3072036
119289506,0.0037165638,-0.005423974,0.0007287755,0.9495387,0.041457765,0.047824197,-0.30719754
119297507,0.004268434,-0.0061089704,0.0005831956,0.94954175,0.041466914,0.047794394,-0.30719182
119309506,0.004189236,-0.004737243,0.00067420653,0.9495487,0.041482806,0.047754146,-0.30717415
119318306,0.0034453624,-0.004341444,0.0009708323,0.949552,0.041493505,0.047728296,-0.30716667
119330307,0.001396226,-0.001034358,0.0004964145,0.9495599,0.04150215,0.047710743,-0.30714366
119342306,-0.0013197198,0.0018816512,0.00030514807,0.9495656,0.04150201,0.04771721,-0.30712548
119350307,-0.002912146,0.0037942675,-0.00021542213,0.949567,0.04149716,0.047731746,-0.30711913
119362307,-0.005459546,0.0053503574,0.00083348923,0.9495617,0.041480202,0.04776641,-0.3071324
119370307,-0.0059171706,0.0064013405,0.00051373243,0.949561,0.041466087,0.04779711,-0.307132
119382306,-0.0061473204,0.0066182427,-0.0002230138,0.94955766,0.0414453,0.04784557,-0.30713758
119394307,-0.005184119,0.0051635904,-0.0010532138,0.9495525,0.041425694,0.047886726,-0.30714965
119402307,-0.00412676,0.0036614104,-0.0004976536,0.9495588,0.041412327,0.047908213,-0.30712852
119414307,-0.0016910841,0.0015344063,-0.000104401726,0.949564,0.041402113,0.047925364,-0.30711117
119422307,-0.0006857688,0.0008808698,0.00013513211,0.94955957,0.04140065,0.047930155,-0.30712458
119434307,0.0006221462,-0.0006810485,0.0011151631,0.9495543,0.04140157,0.04792775,-0.30714092
119446307,0.0009613632,-0.0020572862,0.0011186479,0.949561,0.04140351,0.047915064,-0.30712205
119455108,0.0012069183,-0.0028983979,0.0011799636,0.9495758,0.041402124,0.047904536,-0.30707788
119467113,0.00087122177,-0.0020019242,0.0012656853,0.9495827,0.04140376,0.047888827,-0.30705872
119479107,-5.244324e-05,0.00013975007,0.0010456895,0.9495837,0.04140377,0.047884405,-0.3070565
119487111,-0.00055112375,0.0010067793,0.0012556554,0.94958407,0.041403696,0.04788694,-0.30705503
119499108,-0.001553021,0.0016798428,0.0006576951,0.94958425,0.04140099,0.047895305,-0.30705366
119507108,-0.0025015073,0.0020157658,0.00018471433,0.9495805,0.04139662,0.047903292,-0.3070643
119519108,-0.0042208033,0.0037875813,0.00016001938,0.94957924,0.041383542,0.047926307,-0.30706668
119531115,-0.0033948938,0.0037503825,0.0005489427,0.94958895,0.041367456,0.047956757,-0.30703402
119539108,-0.0026225615,0.003350992,-7.763109e-05,0.9495931,0.041360896,0.047973398,-0.30701932
119551108,-0.0024956027,0.0022243815,-0.0001292685,0.94959223,0.04135204,0.047993634,-0.3070199
