timestamp,x_acc,y_acc,z_acc,x_vel,y_vel,z_vel,x_pos,y_pos,z_pos,airspeed,vel_variance[0],vel_variance[1],vel_variance[2],pos_variance[0],pos_variance[1],pos_variance[2],q[0],q[1],q[2],q[3],delta_q_reset[0],delta_q_reset[1],delta_q_reset[2],delta_q_reset[3],roll_rate,pitch_rate,yaw_rate,horz_acc_mag,airspeed_valid,quat_reset_counter
112650307,1.1028829,-0.48873687,-9.628226,0.0,0.0,0.0,0.0,0.0,0.0,0.0,0.0,0.0,0.0,0.0,0.0,0.0,0.95460874,0.04146315,0.048188522,-0.2910001,0.0,0.0,0.0,0.0,0.00023588212,-2.3435801e-05,0.00039814715,0.0,0,0
112674307,1.1118245,-0.4924809,-9.623568,0.0,0.0,0.0,0.0,0.0,0.0,0.0,0.0,0.0,0.0,0.0,0.0,0.0,0.95461464,0.041461807,0.04818745,-0.29098108,0.0,0.0,0.0,0.0,7.400976e-05,0.00037482008,-0.00045226072,0.0,0,0
112694306,1.1059111,-0.49377105,-9.626984,0.0,0.0,0.0,0.0,0.0,0.0,0.0,0.0,0.0,0.0,0.0,0.0,0.0,0.9546063,0.041458137,0.048184045,-0.2910093,0.0,0.0,0.0,0.0,-0.00031446223,0.00028707134,0.0002746936,0.0,0,0
112715108,1.1218203,-0.4901111,-9.641125,0.0,0.0,0.0,0.0,0.0,0.0,0.0,0.0,0.0,0.0,0.0,0.0,0.0,0.95460385,0.041458525,0.04818388,-0.29101744,0.0,0.0,0.0,0.0,1.648278e-05,0.00033525052,0.00040726457,0.0,0,0
112735108,1.0974754,-0.4929876,-9.636539,0.0,0.0,0.0,0.0,0.0,0.0,0.0,0.0,0.0,0.0,0.0,0.0,0.0,0.95460147,0.04145854,0.048179127,-0.29102597,0.0,0.0,0.0,0.0,0.0004045652,-0.00014233589,2.0025065e-05,0.0,0,0
112759108,1.10269,-0.50438905,-9.609455,0.0,0.0,0.0,0.0,0.0,0.0,0.0,0.0,0.0,0.0,0.0,0.0,0.0,0.95462626,0.04145253,0.04818426,-0.29094455,0.0,0.0,0.0,0.0,-0.0006144976,0.0003549792,-0.0003081828,0.0,0,0
112779108,1.1036588,-0.48203987,-9.611905,0.0,0.0,0.0,0.0,0.0,0.0,0.0,0.0,0.0,0.0,0.0,0.0,0.0,0.95462054,0.04144788,0.048181072,-0.29096445,0.0,0.0,0.0,0.0,8.415838e-05,0.00053444365,0.00035074493,0.0,0,0
112799108,1.117375,-0.48916954,-9.625018,0.0,0.0,0.0,0.0,0.0,0.0,0.0,0.0,0.0,0.0,0.0,0.0,0.0,0.95462644,0.041443903,0.048190407,-0.2909445,0.0,0.0,0.0,0.0,-0.00069346733,0.00058465404,0.00019480055,0.0,0,0
112819108,1.1142882,-0.50864625,-9.619904,0.0,0.0,0.0,0.0,0.0,0.0,0.0,0.0,0.0,0.0,0.0,0.0,0.0,0.95463,0.041442122,0.048194353,-0.2909319,0.0,0.0,0.0,0.0,-0.00031810114,0.00086373277,0.00069067976,0.0,0,0
112839907,1.1055746,-0.49528155,-9.60671,0.0,0.0,0.0,0.0,0.0,0.0,0.0,0.0,0.0,0.0,0.0,0.0,0.0,0.95462376,0.04144274,0.048198275,-0.2909517,0.0,0.0,0.0,0.0,-0.0002369996,0.0008927393,6.018905e-05,0.0,0,0
112863915,1.1100076,-0.5048102,-9.629609,0.0,0.0,0.0,0.0,0.0,0.0,0.0,0.0,0.0,0.0,0.0,0.0,0.0,0.95462835,0.041444145,0.04820266,-0.29093572,0.0,0.0,0.0,0.0,-0.00029706687,0.0004864945,0.00076919026,0.0,0,0
112883900,1.1155878,-0.48888546,-9.616833,0.0,0.0,0.0,0.0,0.0,0.0,0.0,0.0,0.0,0.0,0.0,0.0,0.0,0.9546337,0.041435756,0.048205618,-0.29091895,0.0,0.0,0.0,0.0,-0.0010132736,0.00036896043,0.0008323407,0.0,0,0
112903907,1.1199839,-0.4936054,-9.629927,0.0,0.0,0.0,0.0,0.0,0.0,0.0,0.0,0.0,0.0,0.0,0.0,0.0,0.95463735,0.04143605,0.048209682,-0.29090643,0.0,0.0,0.0,0.0,0.0001764578,-4.5154942e-05,0.00057653897,0.0,0,0
112923901,1.1037837,-0.5023726,-9.623747,0.0,0.0,0.0,0.0,0.0,0.0,0.0,0.0,0.0,0.0,0.0,0.0,0.0,0.95463425,0.041436132,0.048202835,-0.29091763,0.0,0.0,0.0,0.0,5.10955e-05,-0.00012601656,0.00026143272,0.0,0,0
112947908,1.1142044,-0.48432195,-9.61696,0.0,0.0,0.0,0.0,0.0,0.0,0.0,0.0,0.0,0.0,0.0,0.0,0.0,0.95463866,0.04143769,0.04820421,-0.29090255,0.0,0.0,0.0,0.0,0.0003520464,0.00016647181,0.00065468834,0.0,0,0
112968707,1.109456,-0.49866512,-9.610128,0.0,0.0,0.0,0.0,0.0,0.0,0.0,0.0,0.0,0.0,0.0,0.0,0.0,0.9546323,0.041437548,0.048195925,-0.29092497,0.0,0.0,0.0,0.0,0.0003461556,-0.00022379798,-6.5738335e-05,0.0,0,0
112988707,1.1291865,-0.48695704,-9.60375,0.0,0.0,0.0,0.0,0.0,0.0,0.0,0.0,0.0,0.0,0.0,0.0,0.0,0.95463663,0.041436914,0.048196524,-0.29091078,0.0,0.0,0.0,0.0,-0.00068101136,0.00026353146,0.00023036962,0.0,0,0
113008707,1.1151036,-0.49318478,-9.637012,0.0,0.0,0.0,0.0,0.0,0.0,0.0,0.0,0.0,0.0,0.0,0.0,0.0,0.95464236,0.041429877,0.048200127,-0.29089242,0.0,0.0,0.0,0.0,-0.0001937726,0.00055049453,0.0007985765,0.0,0,0
113028707,1.1033878,-0.5135795,-9.6285515,0.0,0.0,0.0,0.0,0.0,0.0,0.0,0.0,0.0,0.0,0.0,0.0,0.0,0.95463794,0.04142784,0.04820525,-0.29090634,0.0,0.0,0.0,0.0,-0.0010525755,0.00076583005,5.498971e-05,0.0,0,0
113052706,1.1153289,-0.48861727,-9.611211,0.0,0.0,0.0,0.0,0.0,0.0,0.0,0.0,0.0,0.0,0.0,0.0,0.0,0.9546508,0.041418787,0.048211712,-0.2908642,0.0,0.0,0.0,0.0,-0.0009883579,0.00043507875,0.0010414228,0.0,0,0
113072707,1.1138607,-0.4994612,-9.625153,0.0,0.0,0.0,0.0,0.0,0.0,0.0,0.0,0.0,0.0,0.0,0.0,0.0,0.9546476,0.041418917,0.048215423,-0.29087406,0.0,0.0,0.0,0.0,0.00023091875,0.0016379029,-0.000272925,0.0,0,0
113092707,1.1134894,-0.49231485,-9.626384,0.0,0.0,0.0,0.0,0.0,0.0,0.0,0.0,0.0,0.0,0.0,0.0,0.0,0.9546495,0.041423235,0.048222475,-0.29086608,0.0,0.0,0.0,0.0,-9.781972e-05,0.0002687776,0.0012209639,0.0,0,0
113113507,1.1045622,-0.493738,-9.616493,0.0,0.0,0.0,0.0,0.0,0.0,0.0,0.0,0.0,0.0,0.0,0.0,0.0,0.95465463,0.04141785,0.048217107,-0.2908509,0.0,0.0,0.0,0.0,-0.00010383036,-0.00073925825,0.0007554877,0.0,0,0
113133507,1.0997602,-0.49187407,-9.623929,0.0,0.0,0.0,0.0,0.0,0.0,0.0,0.0,0.0,0.0,0.0,0.0,0.0,0.9546574,0.0414194,0.04820988,-0.2908429,0.0,0.0,0.0,0.0,6.410957e-05,9.5882686e-05,-6.0576247e-05,0.0,0,0
113157552,1.1182338,-0.49031776,-9.626875,0.0,0.0,0.0,0.0,0.0,0.0,0.0,0.0,0.0,0.0,0.0,0.0,0.0,0.9546598,0.04142129,0.048207026,-0.29083514,0.0,0.0,0.0,0.0,1.1001248e-05,0.00040732324,0.001042217,0.0,0,0
113177507,1.0897737,-0.4899064,-9.595178,0.0,0.0,0.0,0.0,0.0,0.0,0.0,0.0,0.0,0.0,0.0,0.0,0.0,0.95466083,0.04141598,0.0482057,-0.2908327,0.0,0.0,0.0,0.0,-0.00091963774,-4.268717e-05,0.00093253027,0.0,0,0
113197506,1.1115212,-0.50194776,-9.621237,0.0,0.0,0.0,0.0,0.0,0.0,0.0,0.0,0.0,0.0,0.0,0.0,0.0,0.95467204,0.04140562,0.04820389,-0.2907977,0.0,0.0,0.0,0.0,-0.00070152537,0.0005114346,0.0005181446,0.0,0,0
113217507,1.1004272,-0.48229623,-9.6220045,0.0,0.0,0.0,0.0,0.0,0.0,0.0,0.0,0.0,0.0,0.0,0.0,0.0,0.95467114,0.041399058,0.048210032,-0.29080057,0.0,0.0,0.0,0.0,-0.00077699625,0.0013301069,0.00068964623,0.0,0,0
113238307,1.1112149,-0.49036917,-9.630781,0.0,0.0,0.0,0.0,0.0,0.0,0.0,0.0,0.0,0.0,0.0,0.0,0.0,0.9546665,0.041393686,0.04821708,-0.2908157,0.0,0.0,0.0,0.0,-0.00043925527,0.0002472885,1.0611722e-05,0.0,0,0
113262307,1.1056573,-0.48959732,-9.604849,0.0,0.0,0.0,0.0,0.0,0.0,0.0,0.0,0.0,0.0,0.0,0.0,0.0,0.95465916,0.04139632,0.048217785,-0.2908391,0.0,0.0,0.0,0.0,0.0005821078,0.00083048944,8.919719e-05,0.0,0,0
113282307,1.1042342,-0.4939953,-9.633102,0.0,0.0,0.0,0.0,0.0,0.0,0.0,0.0,0.0,0.0,0.0,0.0,0.0,0.9546502,0.041399077,0.048218634,-0.29086775,0.0,0.0,0.0,0.0,-0.00010374875,0.0005655156,0.0006977252,0.0,0,0
113302307,1.1233612,-0.47623816,-9.615106,0.0,0.0,0.0,0.0,0.0,0.0,0.0,0.0,0.0,0.0,0.0,0.0,0.0,0.9546465,0.041398883,0.048216093,-0.29088047,0.0,0.0,0.0,0.0,0.00029617385,-5.747215e-05,0.0007400224,0.0,0,0
113322307,1.1100074,-0.50135237,-9.629262,0.0,0.0,0.0,0.0,0.0,0.0,0.0,0.0,0.0,0.0,0.0,0.0,0.0,0.954658,0.041397627,0.04821758,-0.29084295,0.0,0.0,0.0,0.0,-0.00026237045,0.00054321135,-0.00045246258,0.0,0,0
113346307,1.1011766,-0.48800367,-9.620341,0.0,0.0,0.0,0.0,0.0,0.0,0.0,0.0,0.0,0.0,0.0,0.0,0.0,0.9546669,0.04139495,0.04822169,-0.29081312,0.0,0.0,0.0,0.0,-0.0001506866,0.00081059034,-0.00030722423,0.0,0,0
113366306,1.1050617,-0.49018764,-9.616199,0.0,0.0,0.0,0.0,0.0,0.0,0.0,0.0,0.0,0.0,0.0,0.0,0.0,0.9546647,0.041390836,0.048231177,-0.29081926,0.0,0.0,0.0,0.0,-0.00067189534,0.0016856063,0.00057988474,0.0,0,0
113387108,1.1011271,-0.4934297,-9.613266,0.0,0.0,0.0,0.0,0.0,0.0,0.0,0.0,0.0,0.0,0.0,0.0,0.0,0.95466113,0.041387584,0.048243534,-0.29082975,0.0,0.0,0.0,0.0,-0.0009857995,0.0013356648,0.00073752645,0.0,0,0
113407108,1.1075583,-0.48521677,-9.620019,0.0,0.0,0.0,0.0,0.0,0.0,0.0,0.0,0.0,0.0,0.0,0.0,0.0,0.9546641,0.041380834,0.04825153,-0.29081962,0.0,0.0,0.0,0.0,-0.0004424028,0.001417535,0.00082042255,0.0,0,0
113427108,1.1153493,-0.5076896,-9.61548,0.0,0.0,0.0,0.0,0.0,0.0,0.0,0.0,0.0,0.0,0.0,0.0,0.0,0.95467067,0.04138111,0.048251998,-0.29079783,0.0,0.0,0.0,0.0,-0.0001249268,-0.00048015942,0.00052583916,0.0,0,0
113451109,1.1035577,-0.4956651,-9.621855,0.0,0.0,0.0,0.0,0.0,0.0,0.0,0.0,0.0,0.0,0.0,0.0,0.0,0.9546613,0.0413773,0.0482457,-0.29083005,0.0,0.0,0.0,0.0,-2.4754205e-05,-3.7321588e-05,-0.0002530513,0.0,0,0
113471108,1.0864336,-0.48874345,-9.636488,0.0,0.0,0.0,0.0,0.0,0.0,0.0,0.0,0.0,0.0,0.0,0.0,0.0,0.9546532,0.04137744,0.048241463,-0.2908572,0.0,0.0,0.0,0.0,4.607148e-05,0.0005682595,0.00027495762,0.0,0,0
113491108,1.1062192,-0.47602057,-9.60435,0.0,0.0,0.0,0.0,0.0,0.0,0.0,0.0,0.0,0.0,0.0,0.0,0.0,0.95464915,0.0413683,0.048235465,-0.29087314,0.0,0.0,0.0,0.0,-0.0007752958,-0.00038011675,0.00010107458,0.0,0,0
113511907,1.1129353,-0.48963135,-9.62704,0.0,0.0,0.0,0.0,0.0,0.0,0.0,0.0,0.0,0.0,0.0,0.0,0.0,0.9546498,0.041363314,0.048227157,-0.29087278,0.0,0.0,0.0,0.0,9.335636e-05,-0.00022541941,1.6556354e-05,0.0,0,0
113535917,1.1124947,-0.50488925,-9.636549,0.0,0.0,0.0,0.0,0.0,0.0,0.0,0.0,0.0,0.0,0.0,0.0,0.0,0.9546572,0.041358635,0.04822515,-0.2908495,0.0,0.0,0.0,0.0,-0.00045633304,2.4497043e-05,0.00089164125,0.0,0,0
113555900,1.0945288,-0.49666458,-9.646709,0.0,0.0,0.0,0.0,0.0,0.0,0.0,0.0,0.0,0.0,0.0,0.0,0.0,0.95466447,0.041356172,0.04823053,-0.29082516,0.0,0.0,0.0,0.0,-0.00032683858,0.0011816466,0.00046893465,0.0,0,0
113575906,1.0846335,-0.5061286,-9.599161,0.0,0.0,0.0,0.0,0.0,0.0,0.0,0.0,0.0,0.0,0.0,0.0,0.0,0.95467645,0.041357853,0.048231862,-0.2907857,0.0,0.0,0.0,0.0,0.0003722654,0.00059674354,0.00097210845,0.0,0,0
113595901,1.1158144,-0.49994326,-9.618472,0.0,0.0,0.0,0.0,0.0,0.0,0.0,0.0,0.0,0.0,0.0,0.0,0.0,0.95468646,0.041360185,0.04823485,-0.29075158,0.0,0.0,0.0,0.0,-8.756691e-05,0.0009360169,0.000573053,0.0,0,0
113619909,1.0950965,-0.49889416,-9.629178,0.0,0.0,0.0,0.0,0.0,0.0,0.0,0.0,0.0,0.0,0.0,0.0,0.0,0.95469856,0.04135258,0.048231013,-0.29071343,0.0,0.0,0.0,0.0,-3.754429e-05,-0.0005540452,0.00054253335,0.0,0,0
113635901,1.1051784,-0.49894893,-9.633765,0.0,0.0,0.0,0.0,0.0,0.0,0.0,0.0,0.0,0.0,0.0,0.0,0.0,0.9547001,0.04135387,0.048224367,-0.29070964,0.0,0.0,0.0,0.0,0.00028608768,-5.7291705e-05,0.00010684854,0.0,0,0
113660707,1.1056839,-0.4995427,-9.626948,0.0,0.0,0.0,0.0,0.0,0.0,0.0,0.0,0.0,0.0,0.0,0.0,0.0,0.95470196,0.041355055,0.048220485,-0.29070395,0.0,0.0,0.0,0.0,-0.00013240403,0.00015985663,0.001180104,0.0,0,0
113680710,1.1007513,-0.49735963,-9.622384,0.0,0.0,0.0,0.0,0.0,0.0,0.0,0.0,0.0,0.0,0.0,0.0,0.0,0.9547091,0.041351605,0.04822039,-0.2906811,0.0,0.0,0.0,0.0,-0.00082483375,0.0007917767,0.00030817348,0.0,0,0
113700707,1.1038408,-0.49788344,-9.636486,0.0,0.0,0.0,0.0,0.0,0.0,0.0,0.0,0.0,0.0,0.0,0.0,0.0,0.9547062,0.04134882,0.048222475,-0.2906906,0.0,0.0,0.0,0.0,-0.00013156724,0.0006511824,-4.3676235e-05,0.0,0,0
113724706,1.1193342,-0.48790833,-9.637066,0.0,0.0,0.0,0.0,0.0,0.0,0.0,0.0,0.0,0.0,0.0,0.0,0.0,0.95470446,0.04134565,0.048228133,-0.2906957,0.0,0.0,0.0,0.0,-0.0004887314,0.00052957283,0.0009608625,0.0,0,0
113744707,1.0955043,-0.50288224,-9.61495,0.0,0.0,0.0,0.0,0.0,0.0,0.0,0.0,0.0,0.0,0.0,0.0,0.0,0.9547172,0.041343257,0.048229836,-0.29065385,0.0,0.0,0.0,0.0,-0.00054241996,0.0001325137,4.484132e-05,0.0,0,0
113764707,1.1153226,-0.493536,-9.614426,0.0,0.0,0.0,0.0,0.0,0.0,0.0,0.0,0.0,0.0,0.0,0.0,0.0,0.95472586,0.041337043,0.04823104,-0.29062635,0.0,0.0,0.0,0.0,-0.00033253594,0.0005185681,0.00040044938,0.0,0,0
113785507,1.1029204,-0.4968447,-9.6246605,0.0,0.0,0.0,0.0,0.0,0.0,0.0,0.0,0.0,0.0,0.0,0.0,0.0,0.9547413,0.04133269,0.048233166,-0.290576,0.0,0.0,0.0,0.0,-0.00032439665,0.00050642225,0.00060835737,0.0,0,0
113805506,1.1216161,-0.49730578,-9.609039,0.0,0.0,0.0,0.0,0.0,0.0,0.0,0.0,0.0,0.0,0.0,0.0,0.0,0.95473886,0.041332193,0.04823505,-0.29058376,0.0,0.0,0.0,0.0,-0.00040596013,0.000892787,6.890064e-05,0.0,0,0
113829554,1.1036278,-0.49264723,-9.616595,0.0,0.0,0.0,0.0,0.0,0.0,0.0,0.0,0.0,0.0,0.0,0.0,0.0,0.95473546,0.041329157,0.048241165,-0.2905943,0.0,0.0,0.0,0.0,-0.00041317288,0.0006462827,-7.275329e-05,0.0,0,0
113849507,1.1068121,-0.5023714,-9.631821,0.0,0.0,0.0,0.0,0.0,0.0,0.0,0.0,0.0,0.0,0.0,0.0,0.0,0.95474064,0.041330397,0.048245944,-0.29057598,0.0,0.0,0.0,0.0,-5.993643e-05,0.00078488677,0.0002729618,0.0,0,0
113869510,1.1222466,-0.4966629,-9.604409,0.0,0.0,0.0,0.0,0.0,0.0,0.0,0.0,0.0,0.0,0.0,0.0,0.0,0.9547506,0.041326895,0.04824913,-0.29054344,0.0,0.0,0.0,0.0,-0.00043262437,0.0003809256,0.0006948204,0.0,0,0
113889506,1.1138734,-0.49317348,-9.632669,0.0,0.0,0.0,0.0,0.0,0.0,0.0,0.0,0.0,0.0,0.0,0.0,0.0,0.9547562,0.041321974,0.04824754,-0.29052594,0.0,0.0,0.0,0.0,-0.00025366386,-0.00042264187,0.00043118862,0.0,0,0
113910307,1.1158072,-0.49630517,-9.622924,0.0,0.0,0.0,0.0,0.0,0.0,0.0,0.0,0.0,0.0,0.0,0.0,0.0,0.9547472,0.04131815,0.048241295,-0.29055697,0.0,0.0,0.0,0.0,-0.00030161312,0.00052107545,0.00036418717,0.0,0,0
113934306,1.1080387,-0.4823904,-9.628276,0.0,0.0,0.0,0.0,0.0,0.0,0.0,0.0,0.0,0.0,0.0,0.0,0.0,0.95474,0.041317936,0.048250448,-0.2905791,0.0,0.0,0.0,0.0,-0.00032606756,0.0003504639,0.0006915317,0.0,0,0
113954307,1.0910248,-0.48359114,-9.624622,0.0,0.0,0.0,0.0,0.0,0.0,0.0,0.0,0.0,0.0,0.0,0.0,0.0,0.9547451,0.04131291,0.04824692,-0.2905637,0.0,0.0,0.0,0.0,-0.00013157201,0.00019713584,-0.0005400954,0.0,0,0
113974307,1.1107118,-0.50080913,-9.619677,0.0,0.0,0.0,0.0,0.0,0.0,0.0,0.0,0.0,0.0,0.0,0.0,0.0,0.9547393,0.04130843,0.04824898,-0.29058352,0.0,0.0,0.0,0.0,-0.00037368143,0.00077495,0.00046796608,0.0,0,0
113994307,1.102476,-0.49360073,-9.631639,0.0,0.0,0.0,0.0,0.0,0.0,0.0,0.0,0.0,0.0,0.0,0.0,0.0,0.9547403,0.04130883,0.048255336,-0.2905786,0.0,0.0,0.0,0.0,-0.00024273945,0.0010070547,0.0002676316,0.0,0,0
114018307,1.0964707,-0.49861923,-9.64436,0.0,0.0,0.0,0.0,0.0,0.0,0.0,0.0,0.0,0.0,0.0,0.0,0.0,0.95473593,0.04130754,0.048266437,-0.29059172,0.0,0.0,0.0,0.0,-0.00030526845,0.0015292241,0.000341058,0.0,0,0
114038307,1.1064332,-0.49147573,-9.603169,0.0,0.0,0.0,0.0,0.0,0.0,0.0,0.0,0.0,0.0,0.0,0.0,0.0,0.95473003,0.041311637,0.04826369,-0.29061076,0.0,0.0,0.0,0.0,0.00042703014,-0.000169785,0.0003505987,0.0,0,0
114059108,1.1063968,-0.48623034,-9.611565,0.0,0.0,0.0,0.0,0.0,0.0,0.0,0.0,0.0,0.0,0.0,0.0,0.0,0.95473605,0.041310526,0.048259567,-0.29059163,0.0,0.0,0.0,0.0,-8.2117505e-05,-4.540151e-05,0.0010174669,0.0,0,0
114079108,1.1101357,-0.5041125,-9.629846,0.0,0.0,0.0,0.0,0.0,0.0,0.0,0.0,0.0,0.0,0.0,0.0,0.0,0.9547338,0.041306067,0.048256326,-0.29060024,0.0,0.0,0.0,0.0,-0.00046124216,0.00018924847,3.8766535e-05,0.0,0,0
114103108,1.1122997,-0.48877826,-9.613878,0.0,0.0,0.0,0.0,0.0,0.0,0.0,0.0,0.0,0.0,0.0,0.0,0.0,0.9547464,0.041302737,0.048254017,-0.29055968,0.0,0.0,0.0,0.0,0.00026410364,-4.9429014e-05,0.0005664814,0.0,0,0
114123110,1.1231402,-0.50807035,-9.623513,0.0,0.0,0.0,0.0,0.0,0.0,0.0,0.0,0.0,0.0,0.0,0.0,0.0,0.95474344,0.041306984,0.048255242,-0.29056895,0.0,0.0,0.0,0.0,3.868935e-05,0.0006870355,0.0005650362,0.0,0,0
114143108,1.1184376,-0.49171484,-9.613021,0.0,0.0,0.0,0.0,0.0,0.0,0.0,0.0,0.0,0.0,0.0,0.0,0.0,0.95474815,0.041308872,0.048254512,-0.29055318,0.0,0.0,0.0,0.0,-8.6013344e-05,-0.00029580598,0.0006497407,0.0,0,0
114163112,1.1169536,-0.49849913,-9.614044,0.0,0.0,0.0,0.0,0.0,0.0,0.0,0.0,0.0,0.0,0.0,0.0,0.0,0.9547577,0.041300133,0.048258293,-0.29052237,0.0,0.0,0.0,0.0,-0.0013991437,0.00022992725,-0.0001479548,0.0,0,0
114183907,1.1055228,-0.50707614,-9.6179495,0.0,0.0,0.0,0.0,0.0,0.0,0.0,0.0,0.0,0.0,0.0,0.0,0.0,0.9547661,0.041287117,0.048261687,-0.2904962,0.0,0.0,0.0,0.0,-0.0006225839,0.00042526028,-0.00045114802,0.0,0,0
114207906,1.0960884,-0.4907307,-9.617628,0.0,0.0,0.0,0.0,0.0,0.0,0.0,0.0,0.0,0.0,0.0,0.0,0.0,0.95477456,0.0412872,0.048261385,-0.2904682,0.0,0.0,0.0,0.0,-0.0002439305,0.00034815865,0.0004158544,0.0,0,0
114227901,1.1061418,-0.4945916,-9.637478,0.0,0.0,0.0,0.0,0.0,0.0,0.0,0.0,0.0,0.0,0.0,0.0,0.0,0.9547599,0.041289426,0.048256405,-0.29051676,0.0,0.0,0.0,0.0,0.00050203706,0.000473256,0.00035429373,0.0,0,0
114247906,1.1008337,-0.50548476,-9.630384,0.0,0.0,0.0,0.0,0.0,0.0,0.0,0.0,0.0,0.0,0.0,0.0,0.0,0.9547552,0.041292574,0.048253752,-0.29053235,0.0,0.0,0.0,0.0,-5.8340374e-05,-0.000110132154,0.00049885083,0.0,0,0
114267901,1.1083958,-0.49840564,-9.630264,0.0,0.0,0.0,0.0,0.0,0.0,0.0,0.0,0.0,0.0,0.0,0.0,0.0,0.9547579,0.041292537,0.048251104,-0.29052392,0.0,0.0,0.0,0.0,-1.3905927e-05,0.00015609898,0.00033197436,0.0,0,0
114287907,1.1169835,-0.48717284,-9.63332,0.0,0.0,0.0,0.0,0.0,0.0,0.0,0.0,0.0,0.0,0.0,0.0,0.0,0.954755,0.041292075,0.048254464,-0.29053304,0.0,0.0,0.0,0.0,-0.0003486449,0.001063765,0.00059498055,0.0,0,0
114311907,1.1176093,-0.4862069,-9.630111,0.0,0.0,0.0,0.0,0.0,0.0,0.0,0.0,0.0,0.0,0.0,0.0,0.0,0.9547564,0.041290354,0.048262846,-0.29052725,0.0,0.0,0.0,0.0,-0.0007437038,0.0013611135,0.0010004882,0.0,0,0
114332711,1.1086732,-0.49122623,-9.620971,0.0,0.0,0.0,0.0,0.0,0.0,0.0,0.0,0.0,0.0,0.0,0.0,0.0,0.9547532,0.04128989,0.04826943,-0.29053655,0.0,0.0,0.0,0.0,0.00054572616,0.0006632074,0.0007790504,0.0,0,0
114352710,1.1015341,-0.4858022,-9.631821,0.0,0.0,0.0,0.0,0.0,0.0,0.0,0.0,0.0,0.0,0.0,0.0,0.0,0.9547497,0.0412906,0.048271507,-0.2905477,0.0,0.0,0.0,0.0,-0.0005684863,0.00040614023,2.2652326e-05,0.0,0,0
114372707,1.1119635,-0.50111616,-9.616787,0.0,0.0,0.0,0.0,0.0,0.0,0.0,0.0,0.0,0.0,0.0,0.0,0.0,0.9547451,0.0412847,0.048273623,-0.2905632,0.0,0.0,0.0,0.0,-0.0006335105,0.00045443,-0.00043241912,0.0,0,0
114396709,1.1025485,-0.4790561,-9.618761,0.0,0.0,0.0,0.0,0.0,0.0,0.0,0.0,0.0,0.0,0.0,0.0,0.0,0.9547476,0.04128212,0.048277225,-0.29055488,0.0,0.0,0.0,0.0,-0.000114048016,-0.00018207799,0.00084381993,0.0,0,0
114416707,1.1105839,-0.49961305,-9.627309,0.0,0.0,0.0,0.0,0.0,0.0,0.0,0.0,0.0,0.0,0.0,0.0,0.0,0.9547569,0.04127959,0.048273392,-0.29052532,0.0,0.0,0.0,0.0,0.00026509864,0.0002908113,0.0011926,0.0,0,0
114436707,1.1057509,-0.49284852,-9.614221,0.0,0.0,0.0,0.0,0.0,0.0,0.0,0.0,0.0,0.0,0.0,0.0,0.0,0.95475966,0.04127937,0.04827122,-0.29051682,0.0,0.0,0.0,0.0,-0.0002557682,0.00035950216,-0.00032360782,0.0,0,0
114457507,1.1112858,-0.48751456,-9.606328,0.0,0.0,0.0,0.0,0.0,0.0,0.0,0.0,0.0,0.0,0.0,0.0,0.0,0.9547624,0.0412781,0.048268095,-0.29050824,0.0,0.0,0.0,0.0,-0.00017148594,0.0001666497,0.0007401097,0.0,0,0
114477507,1.1083262,-0.48592004,-9.609259,0.0,0.0,0.0,0.0,0.0,0.0,0.0,0.0,0.0,0.0,0.0,0.0,0.0,0.95476145,0.04127558,0.04826936,-0.29051155,0.0,0.0,0.0,0.0,-0.0006577375,0.00015734625,0.00095871324,0.0,0,0
114497507,1.1088094,-0.4907036,-9.604209,0.0,0.0,0.0,0.0,0.0,0.0,0.0,0.0,0.0,0.0,0.0,0.0,0.0,0.95476115,0.04126688,0.048266076,-0.2905145,0.0,0.0,0.0,0.0,-0.00022639369,-0.00016359799,0.00013594562,0.0,0,0
114521521,1.1145887,-0.48711807,-9.631876,0.0,0.0,0.0,0.0,0.0,0.0,0.0,0.0,0.0,0.0,0.0,0.0,0.0,0.9547618,0.041269183,0.04826449,-0.29051244,0.0,0.0,0.0,0.0,0.00052812026,0.00040871394,0.00042717485,0.0,0,0
114541529,1.1092101,-0.48891562,-9.617494,0.0,0.0,0.0,0.0,0.0,0.0,0.0,0.0,0.0,0.0,0.0,0.0,0.0,0.9547649,0.04126482,0.04826424,-0.2905027,0.0,0.0,0.0,0.0,-0.0006589787,-0.00012254855,-5.137967e-05,0.0,0,0
114561537,1.1098899,-0.49904877,-9.631429,0.0,0.0,0.0,0.0,0.0,0.0,0.0,0.0,0.0,0.0,0.0,0.0,0.0,0.95476866,0.04126433,0.048259016,-0.29049122,0.0,0.0,0.0,0.0,0.00030361547,-0.00052709645,0.00014185556,0.0,0,0
114581545,1.1170921,-0.4925803,-9.62986,0.0,0.0,0.0,0.0,0.0,0.0,0.0,0.0,0.0,0.0,0.0,0.0,0.0,0.95477617,0.041265134,0.048257537,-0.29046693,0.0,0.0,0.0,0.0,-0.0002603887,0.00039727124,0.00040649436,0.0,0,0
114606307,1.1033024,-0.49462384,-9.615144,0.0,0.0,0.0,0.0,0.0,0.0,0.0,0.0,0.0,0.0,0.0,0.0,0.0,0.9547683,0.041254252,0.048277415,-0.2904907,0.0,0.0,0.0,0.0,-0.003956818,0.0042366288,0.0003124422,0.0,0,0
114626307,1.1097841,-0.50165576,-9.618642,0.0,0.0,0.0,0.0,0.0,0.0,0.0,0.0,0.0,0.0,0.0,0.0,0.0,0.95476705,0.041256156,0.04828502,-0.29049343,0.0,0.0,0.0,0.0,0.00053951814,0.00042591593,0.0010860667,0.0,0,0
114646307,1.1015302,-0.49463236,-9.614319,0.0,0.0,0.0,0.0,0.0,0.0,0.0,0.0,0.0,0.0,0.0,0.0,0.0,0.9547713,0.041263446,0.048288565,-0.2904781,0.0,0.0,0.0,0.0,0.0012061524,0.00081608095,0.0010829924,0.0,0,0
114666307,1.099251,-0.4981928,-9.650866,0.0,0.0,0.0,0.0,0.0,0.0,0.0,0.0,0.0,0.0,0.0,0.0,0.0,0.9547761,0.04127254,0.048273847,-0.29046327,0.0,0.0,0.0,0.0,0.0021135723,-0.001485897,0.00025774352,0.0,0,0
114690307,1.1084727,-0.49422348,-9.633675,0.0,0.0,0.0,0.0,0.0,0.0,0.0,0.0,0.0,0.0,0.0,0.0,0.0,0.9547846,0.04128235,0.048259925,-0.29043648,0.0,0.0,0.0,0.0,0.00077185396,-0.00050542085,0.0012518191,0.0,0,0
114710307,1.1144091,-0.49536067,-9.630328,0.0,0.0,0.0,0.0,0.0,0.0,0.0,0.0,0.0,0.0,0.0,0.0,0.0,0.9547751,0.04128552,0.0482625,-0.2904664,0.0,0.0,0.0,0.0,-0.0002199082,0.0012038338,-0.0004747631,0.0,0,0
114731108,1.1029775,-0.48674804,-9.614565,0.0,0.0,0.0,0.0,0.0,0.0,0.0,0.0,0.0,0.0,0.0,0.0,0.0,0.95477474,0.04127554,0.048276395,-0.2904669,0.0,0.0,0.0,0.0,-0.0016313057,0.001876378,0.00010387157,0.0,0,0
114751120,1.1102113,-0.49561644,-9.631014,0.0,0.0,0.0,0.0,0.0,0.0,0.0,0.0,0.0,0.0,0.0,0.0,0.0,0.95478076,0.041263845,0.048296828,-0.29044542,0.0,0.0,0.0,0.0,-0.0013771362,0.0009969131,-1.3233395e-05,0.0,0,0
114775108,1.0894315,-0.4870336,-9.626506,0.0,0.0,0.0,0.0,0.0,0.0,0.0,0.0,0.0,0.0,0.0,0.0,0.0,0.95478225,0.04126016,0.048293054,-0.2904416,0.0,0.0,0.0,0.0,-0.0002656118,0.0005283549,0.00018586684,0.0,0,0
114795108,1.1244159,-0.5050484,-9.632029,0.0,0.0,0.0,0.0,0.0,0.0,0.0,0.0,0.0,0.0,0.0,0.0,0.0,0.95477855,0.041260872,0.04829412,-0.29045352,0.0,0.0,0.0,0.0,-3.7486316e-05,0.0001652313,0.00021720654,0.0,0,0
114815108,1.1189011,-0.48954755,-9.608489,0.0,0.0,0.0,0.0,0.0,0.0,0.0,0.0,0.0,0.0,0.0,0.0,0.0,0.9547799,0.041260406,0.048284974,-0.2904504,0.0,0.0,0.0,0.0,-0.00038840156,-0.0008052855,0.00059972564,0.0,0,0
114835108,1.1083496,-0.5055095,-9.612481,0.0,0.0,0.0,0.0,0.0,0.0,0.0,0.0,0.0,0.0,0.0,0.0,0.0,0.954789,0.04126214,0.048283197,-0.2904207,0.0,0.0,0.0,0.0,0.0010496402,0.00044850353,-0.00022583292,0.0,0,0
114855907,1.1137441,-0.54950714,-9.490557,0.0,0.0,0.0,0.0,0.0,0.0,0.0,0.0,0.0,0.0,0.0,0.0,0.0,0.9547845,0.041281912,0.04825828,-0.29043683,0.0,0.0,0.0,0.0,0.007449217,-0.0069563612,-0.0029228753,0.0,0,0
114879913,1.2118703,-0.15913078,-10.827435,0.0,0.0,0.0,0.0,0.0,0.0,0.0,0.0,0.0,0.0,0.0,0.0,0.0,0.9546149,0.044339772,0.041001603,-0.2916561,0.0,0.0,0.0,0.0,0.6745413,-0.97803724,-0.054602817,0.0,0,0
114899900,1.083226,-1.4371262,-9.175106,0.0,0.0,0.0,0.0,0.0,0.0,0.0,0.0,0.0,0.0,0.0,0.0,0.0,0.95452714,0.04541348,0.039440088,-0.29199353,0.0,0.0,0.0,0.0,-0.10493158,0.18051286,-0.20647268,0.0,0,0
114919906,1.0784315,-0.5084938,-9.583816,0.0,0.0,0.0,0.0,0.0,0.0,0.0,0.0,0.0,0.0,0.0,0.0,0.0,0.95371073,0.04563059,0.03967215,-0.2945843,0.0,0.0,0.0,0.0,0.027884819,-0.024371497,-0.23435654,0.0,0,0
114939904,1.1680348,-0.67913663,-9.53802,0.0,0.0,0.0,0.0,0.0,0.0,0.0,0.0,0.0,0.0,0.0,0.0,0.0,0.9528965,0.045771144,0.039661214,-0.29718754,0.0,0.0,0.0,0.0,0.028155632,-0.00968572,-0.2798232,0.0,0,0
114963900,0.5588669,-0.19349343,-9.6959505,0.0,0.0,0.0,0.0,0.0,0.0,0.0,0.0,0.0,0.0,0.0,0.0,0.0,0.9522442,0.045868505,0.039497364,-0.29927775,0.0,0.0,0.0,0.0,0.0057222014,-0.0020122328,-0.04829958,0.0,0,0
114983907,0.985029,-0.6289769,-9.607165,0.0,0.0,0.0,0.0,0.0,0.0,0.0,0.0,0.0,0.0,0.0,0.0,0.0,0.95221376,0.045862,0.039507534,-0.29937428,0.0,0.0,0.0,0.0,-0.001587678,0.0033115617,-0.01454594,0.0,0,0
115004707,0.95681137,-0.7514472,-9.674887,0.0,0.0,0.0,0.0,0.0,0.0,0.0,0.0,0.0,0.0,0.0,0.0,0.0,0.9521931,0.045543887,0.039627485,-0.2994724,0.0,0.0,0.0,0.0,-0.0420237,0.00096631295,-0.019843293,0.0,0,0
115024707,0.8803101,-1.1846901,-9.58335,0.0,0.0,0.0,0.0,0.0,0.0,0.0,0.0,0.0,0.0,0.0,0.0,0.0,0.95198286,0.045458484,0.039651856,-0.30014995,0.0,0.0,0.0,0.0,-0.014156149,-0.005254154,-0.13476066,0.0,0,0
115044706,1.011163,-0.25331643,-9.588433,0.0,0.0,0.0,0.0,0.0,0.0,0.0,0.0,0.0,0.0,0.0,0.0,0.0,0.9511945,0.044926777,0.039741255,-0.3027067,0.0,0.0,0.0,0.0,-0.07264243,-0.019128557,-0.2958581,0.0,0,0
115068706,1.4201925,0.00014653115,-9.628637,0.0,0.0,0.0,0.0,0.0,0.0,0.0,0.0,0.0,0.0,0.0,0.0,0.0,0.9502706,0.044158954,0.04001794,-0.30567032,0.0,0.0,0.0,0.0,-0.007438918,-0.013250146,-0.25090104,0.0,0,0
115088706,0.57813776,-0.66350275,-9.622441,0.0,0.0,0.0,0.0,0.0,0.0,0.0,0.0,0.0,0.0,0.0,0.0,0.0,0.9496763,0.044065364,0.039995752,-0.30752835,0.0,0.0,0.0,0.0,-0.010023602,-0.0006353243,-0.15659523,0.0,0,0
115108708,0.9177758,-0.3098742,-9.74934,0.0,0.0,0.0,0.0,0.0,0.0,0.0,0.0,0.0,0.0,0.0,0.0,0.0,0.9495981,0.043939374,0.0399984,-0.30778736,0.0,0.0,0.0,0.0,0.027632173,0.0006771288,0.060268544,0.0,0,0
115129507,0.7747443,-0.3522782,-9.695758,0.0,0.0,0.0,0.0,0.0,0.0,0.0,0.0,0.0,0.0,0.0,0.0,0.0,0.9500412,0.04491963,0.039688352,-0.30631474,0.0,0.0,0.0,0.0,0.13375647,0.013961824,0.20701331,0.0,0,0
115149506,0.8757484,0.17248937,-9.400425,0.0,0.0,0.0,0.0,0.0,0.0,0.0,0.0,0.0,0.0,0.0,0.0,0.0,0.95102745,0.045843247,0.03836504,-0.30327088,0.0,0.0,0.0,0.0,0.113537624,-0.19689429,0.42650938,0.0,0,0
115173546,0.793768,-0.68211764,-10.307618,0.0,0.0,0.0,0.0,0.0,0.0,0.0,0.0,0.0,0.0,0.0,0.0,0.0,0.9526899,0.044460937,0.034112964,-0.298733,0.0,0.0,0.0,0.0,-0.17657986,-0.3564545,0.34253195,0.0,0,0
115193516,0.8045122,-0.029954903,-9.67964,0.0,0.0,0.0,0.0,0.0,0.0,0.0,0.0,0.0,0.0,0.0,0.0,0.0,0.953759,0.04083632,0.03190032,-0.2960719,0.0,0.0,0.0,0.0,-0.31740758,-0.3377952,0.2720367,0.0,0,0
115213507,0.7909661,-0.4983799,-9.931559,0.0,0.0,0.0,0.0,0.0,0.0,0.0,0.0,0.0,0.0,0.0,0.0,0.0,0.9547709,0.036769938,0.029495467,-0.29358196,0.0,0.0,0.0,0.0,-0.34409612,-0.28688788,0.25026515,0.0,0,0
115233507,1.2494367,-0.61300945,-10.068851,0.0,0.0,0.0,0.0,0.0,0.0,0.0,0.0,0.0,0.0,0.0,0.0,0.0,0.9554258,0.03252583,0.027695764,-0.2921241,0.0,0.0,0.0,0.0,-0.3113145,-0.33843336,0.097280726,0.0,0,0
115257506,0.8415093,-0.8378292,-10.40709,0.0,0.0,0.0,0.0,0.0,0.0,0.0,0.0,0.0,0.0,0.0,0.0,0.0,0.9559491,0.030854544,0.02545521,-0.29079425,0.0,0.0,0.0,0.0,0.104976036,0.015424276,0.15613501,0.0,0,0
115278307,0.92879504,-0.45444065,-9.912213,0.0,0.0,0.0,0.0,0.0,0.0,0.0,0.0,0.0,0.0,0.0,0.0,0.0,0.95626116,0.03436266,0.027566506,-0.28917822,0.0,0.0,0.0,0.0,0.35406718,0.41854578,0.2032251,0.0,0,0
115298307,0.18900476,-0.9391826,-9.057056,0.0,0.0,0.0,0.0,0.0,0.0,0.0,0.0,0.0,0.0,0.0,0.0,0.0,0.95714796,0.041964803,0.031318683,-0.28482607,0.0,0.0,0.0,0.0,0.7378485,0.73036623,0.60948175,0.0,0,0
115318306,0.36963728,-1.146465,-7.857513,0.0,0.0,0.0,0.0,0.0,0.0,0.0,0.0,0.0,0.0,0.0,0.0,0.0,0.95881397,0.049577914,0.03262398,-0.2777651,0.0,0.0,0.0,0.0,0.5429864,-0.011257723,0.81909835,0.0,0,0
115338307,0.78142595,-0.5982061,-10.604437,0.0,0.0,0.0,0.0,0.0,0.0,0.0,0.0,0.0,0.0,0.0,0.0,0.0,0.96059465,0.050518773,0.026799364,-0.27200666,0.0,0.0,0.0,0.0,-0.019738311,-0.6638341,0.49978986,0.0,0,0
115358307,0.7708635,-0.81585395,-10.138148,0.0,0.0,0.0,0.0,0.0,0.0,0.0,0.0,0.0,0.0,0.0,0.0,0.0,0.9621844,0.045968227,0.021585302,-0.2676232,0.0,0.0,0.0,0.0,-0.51248866,-0.6110365,0.47529802,0.0,0,0
115382320,0.49869648,-0.8812565,-9.980761,0.0,0.0,0.0,0.0,0.0,0.0,0.0,0.0,0.0,0.0,0.0,0.0,0.0,0.9642304,0.03410874,0.015237484,-0.26242003,0.0,0.0,0.0,0.0,-0.9550234,-0.779985,0.4390583,0.0,0,0
115403108,0.18959719,-0.4688924,-9.658938,0.0,0.0,0.0,0.0,0.0,0.0,0.0,0.0,0.0,0.0,0.0,0.0,0.0,0.96543163,0.023195496,0.010436006,-0.2594124,0.0,0.0,0.0,0.0,-0.86199445,-0.69823223,0.2395135,0.0,0,0
115423108,-0.1049981,-0.35328496,-9.187608,0.0,0.0,0.0,0.0,0.0,0.0,0.0,0.0,0.0,0.0,0.0,0.0,0.0,0.96604204,0.014058837,0.0057094847,-0.25793913,0.0,0.0,0.0,0.0,-0.71543896,-0.69682145,0.121957235,0.0,0,0
115447108,0.03322413,0.03785397,-10.091078,0.0,0.0,0.0,0.0,0.0,0.0,0.0,0.0,0.0,0.0,0.0,0.0,0.0,0.96657056,0.0033765219,-0.00074291235,-0.2563778,0.0,0.0,0.0,0.0,-0.7363043,-0.7437975,0.12480249,0.0,0,0
115467116,-0.32898003,0.18909568,-9.520615,0.0,0.0,0.0,0.0,0.0,0.0,0.0,0.0,0.0,0.0,0.0,0.0,0.0,0.96693146,-0.005190677,-0.0051882206,-0.2549309,0.0,0.0,0.0,0.0,-0.6826268,-0.6240762,0.19813684,0.0,0,0
115487108,-0.2814142,0.08741811,-9.479652,0.0,0.0,0.0,0.0,0.0,0.0,0.0,0.0,0.0,0.0,0.0,0.0,0.0,0.96742,-0.011708504,-0.010398485,-0.25269237,0.0,0.0,0.0,0.0,-0.33932015,-0.68913823,0.27433226,0.0,0,0
115507108,-0.55944026,-0.03239181,-9.412802,0.0,0.0,0.0,0.0,0.0,0.0,0.0,0.0,0.0,0.0,0.0,0.0,0.0,0.9682666,-0.01386717,-0.016819939,-0.24896717,0.0,0.0,0.0,0.0,0.16061674,-0.6670023,0.4649092,0.0,0,0
115527108,-0.7441307,-0.33819702,-9.036589,0.0,0.0,0.0,0.0,0.0,0.0,0.0,0.0,0.0,0.0,0.0,0.0,0.0,0.969513,-0.012146763,-0.02471435,-0.2434877,0.0,0.0,0.0,0.0,0.45654088,-0.7634577,0.5526093,0.0,0,0
115551907,-0.7405412,-0.54359764,-9.27206,0.0,0.0,0.0,0.0,0.0,0.0,0.0,0.0,0.0,0.0,0.0,0.0,0.0,0.97045255,-0.007144634,-0.035252992,-0.238596,0.0,0.0,0.0,0.0,0.76825243,-0.7147608,0.32323292,0.0,0,0
115575907,-0.58420795,-0.6905057,-10.3011265,0.0,0.0,0.0,0.0,0.0,0.0,0.0,0.0,0.0,0.0,0.0,0.0,0.0,0.97106934,0.0025871426,-0.046789043,-0.23415513,0.0,0.0,0.0,0.0,1.1256292,-0.6862516,0.3115811,0.0,0,0
115595900,-0.6871449,-0.44461304,-10.613297,0.0,0.0,0.0,0.0,0.0,0.0,0.0,0.0,0.0,0.0,0.0,0.0,0.0,0.9713617,0.013275681,-0.05415662,-0.23097076,0.0,0.0,0.0,0.0,1.3074082,-0.3237381,0.30005002,0.0,0,0
115615906,-0.8275815,-0.7764858,-10.105967,0.0,0.0,0.0,0.0,0.0,0.0,0.0,0.0,0.0,0.0,0.0,0.0,0.0,0.97197855,0.025920048,-0.05919006,-0.22601412,0.0,0.0,0.0,0.0,1.3981628,-0.12912539,0.5244864,0.0,0,0
115635901,-0.9888681,-1.202572,-9.616401,0.0,0.0,0.0,0.0,0.0,0.0,0.0,0.0,0.0,0.0,0.0,0.0,0.0,0.9727832,0.0392888,-0.06348211,-0.21936111,0.0,0.0,0.0,0.0,1.4643272,-0.08367449,0.65636545,0.0,0,0
115656707,-1.0944752,-1.5366461,-9.137146,0.0,0.0,0.0,0.0,0.0,0.0,0.0,0.0,0.0,0.0,0.0,0.0,0.0,0.9736138,0.053317413,-0.06812151,-0.2111702,0.0,0.0,0.0,0.0,1.4292865,-0.13054672,0.73118645,0.0,0,0
115680707,-0.9779904,-2.050555,-9.253866,0.0,0.0,0.0,0.0,0.0,0.0,0.0,0.0,0.0,0.0,0.0,0.0,0.0,0.9741137,0.07100155,-0.07385536,-0.20151092,0.0,0.0,0.0,0.0,1.72262,-0.06845404,0.7122745,0.0,0,0
115700706,-0.95572096,-2.0410786,-9.360595,0.0,0.0,0.0,0.0,0.0,0.0,0.0,0.0,0.0,0.0,0.0,0.0,0.0,0.97401005,0.08873076,-0.07823883,-0.19315787,0.0,0.0,0.0,0.0,1.9340624,0.014299709,0.7249803,0.0,0,0
115720707,-0.6338692,-2.3515253,-9.962456,0.0,0.0,0.0,0.0,0.0,0.0,0.0,0.0,0.0,0.0,0.0,0.0,0.0,0.97334653,0.106045425,-0.0815721,-0.18627104,0.0,0.0,0.0,0.0,1.7200916,0.13481241,0.44998023,0.0,0,0
115740707,-1.1810211,-2.3130805,-9.2667885,0.0,0.0,0.0,0.0,0.0,0.0,0.0,0.0,0.0,0.0,0.0,0.0,0.0,0.9722955,0.12302141,-0.08253316,-0.1808193,0.0,0.0,0.0,0.0,1.7333454,0.3512367,0.34446296,0.0,0,0
115764708,-1.4879755,-1.7157186,-8.547348,0.0,0.0,0.0,0.0,0.0,0.0,0.0,0.0,0.0,0.0,0.0,0.0,0.0,0.9708817,0.14054842,-0.08271513,-0.17547968,0.0,0.0,0.0,0.0,1.2533125,0.17248422,0.29157805,0.0,0,0
115784707,-0.7316878,-2.770938,-9.683775,0.0,0.0,0.0,0.0,0.0,0.0,0.0,0.0,0.0,0.0,0.0,0.0,0.0,0.96994305,0.15057978,-0.08312071,-0.17212537,0.0,0.0,0.0,0.0,0.913374,0.26026896,0.17988208,0.0,0,0
115805507,-0.942295,-2.7125928,-8.830836,0.0,0.0,0.0,0.0,0.0,0.0,0.0,0.0,0.0,0.0,0.0,0.0,0.0,0.96929324,0.15877864,-0.081520915,-0.16915788,0.0,0.0,0.0,0.0,0.6905681,0.30161425,0.17922139,0.0,0,0
115825507,-0.6570369,-3.6820664,-9.436716,0.0,0.0,0.0,0.0,0.0,0.0,0.0,0.0,0.0,0.0,0.0,0.0,0.0,0.9688944,0.16401751,-0.07967355,-0.16731378,0.0,0.0,0.0,0.0,0.39290708,0.3186104,0.029414881,0.0,0,0
115849507,-0.37863863,-3.856572,-9.578863,0.0,0.0,0.0,0.0,0.0,0.0,0.0,0.0,0.0,0.0,0.0,0.0,0.0,0.96845955,0.16971481,-0.074813135,-0.16639124,0.0,0.0,0.0,0.0,0.45898905,0.585285,-0.052711383,0.0,0,0
115869507,-0.76247394,-3.3091888,-8.998312,0.0,0.0,0.0,0.0,0.0,0.0,0.0,0.0,0.0,0.0,0.0,0.0,0.0,0.9680424,0.17453633,-0.06916128,-0.16627675,0.0,0.0,0.0,0.0,0.2435836,0.6250299,-0.20787571,0.0,0,0
115889506,-0.87868166,-2.7379956,-9.2791195,0.0,0.0,0.0,0.0,0.0,0.0,0.0,0.0,0.0,0.0,0.0,0.0,0.0,0.9679883,0.17544556,-0.062145013,-0.16839144,0.0,0.0,0.0,0.0,-0.21635702,0.6822353,-0.39301518,0.0,0,0
115909516,-0.26077163,-3.0815947,-9.820565,0.0,0.0,0.0,0.0,0.0,0.0,0.0,0.0,0.0,0.0,0.0,0.0,0.0,0.9685776,0.17172627,-0.053874034,-0.17165354,0.0,0.0,0.0,0.0,-0.7086122,0.6946423,-0.4725669,0.0,0,0
115933507,-0.40449646,-3.194812,-8.928159,0.0,0.0,0.0,0.0,0.0,0.0,0.0,0.0,0.0,0.0,0.0,0.0,0.0,0.96971786,0.16224109,-0.041337237,-0.17780973,0.0,0.0,0.0,0.0,-1.1780729,0.80285084,-0.7422068,0.0,0,0
115954307,-0.024520215,-3.350076,-9.136147,0.0,0.0,0.0,0.0,0.0,0.0,0.0,0.0,0.0,0.0,0.0,0.0,0.0,0.97059166,0.14977281,-0.030185942,-0.18603423,0.0,0.0,0.0,0.0,-1.5753962,0.6301331,-0.99687827,0.0,0,0
115974307,0.056242365,-2.6838076,-9.684449,0.0,0.0,0.0,0.0,0.0,0.0,0.0,0.0,0.0,0.0,0.0,0.0,0.0,0.97107995,0.13450803,-0.018654883,-0.19637547,0.0,0.0,0.0,0.0,-1.8544831,0.7394433,-1.203197,0.0,0,0
115994307,0.019711975,-1.6699872,-9.33021,0.0,0.0,0.0,0.0,0.0,0.0,0.0,0.0,0.0,0.0,0.0,0.0,0.0,0.9713274,0.11619941,-0.005761972,-0.20733461,0.0,0.0,0.0,0.0,-2.1396818,0.7329775,-1.1670461,0.0,0,0
116014306,0.24950789,-2.3886726,-9.434112,0.0,0.0,0.0,0.0,0.0,0.0,0.0,0.0,0.0,0.0,0.0,0.0,0.0,0.97131574,0.09673202,0.0064059594,-0.21713515,0.0,0.0,0.0,0.0,-2.0658932,0.6260256,-1.0342513,0.0,0,0
116038306,0.66587436,-1.3244866,-9.584287,0.0,0.0,0.0,0.0,0.0,0.0,0.0,0.0,0.0,0.0,0.0,0.0,0.0,0.97038156,0.075380124,0.019261993,-0.22870576,0.0,0.0,0.0,0.0,-1.9470432,0.52331525,-1.1215516,0.0,0,0
116058307,0.8617089,-1.1299927,-9.775733,0.0,0.0,0.0,0.0,0.0,0.0,0.0,0.0,0.0,0.0,0.0,0.0,0.0,0.96894956,0.057466283,0.030005079,-0.23860899,0.0,0.0,0.0,0.0,-1.953236,0.5899695,-1.1460748,0.0,0,0
116079108,0.9835717,-1.2157612,-9.49298,0.0,0.0,0.0,0.0,0.0,0.0,0.0,0.0,0.0,0.0,0.0,0.0,0.0,0.9666915,0.038963385,0.041459095,-0.24954084,0.0,0.0,0.0,0.0,-1.9281623,0.5652277,-1.233545,0.0,0,0
116099109,0.7721107,-0.51727456,-9.056537,0.0,0.0,0.0,0.0,0.0,0.0,0.0,0.0,0.0,0.0,0.0,0.0,0.0,0.9638891,0.022191804,0.051111847,-0.26040924,0.0,0.0,0.0,0.0,-1.7408955,0.4165592,-1.2239945,0.0,0,0
116119108,1.1950588,0.33437502,-9.985375,0.0,0.0,0.0,0.0,0.0,0.0,0.0,0.0,0.0,0.0,0.0,0.0,0.0,0.96067196,0.0058656894,0.05933655,-0.27120885,0.0,0.0,0.0,0.0,-1.7476228,0.35542303,-1.2236516,0.0,0,0
116139108,0.7392244,1.0861048,-9.343444,0.0,0.0,0.0,0.0,0.0,0.0,0.0,0.0,0.0,0.0,0.0,0.0,0.0,0.9571893,-0.010936534,0.06828845,-0.28107953,0.0,0.0,0.0,0.0,-1.8242551,0.45657346,-1.0865387,0.0,0,0
116163108,1.2121316,1.2289326,-9.228932,0.0,0.0,0.0,0.0,0.0,0.0,0.0,0.0,0.0,0.0,0.0,0.0,0.0,0.95285183,-0.032423567,0.07826909,-0.2913693,0.0,0.0,0.0,0.0,-1.7285928,0.21318334,-0.92286617,0.0,0,0
116183108,0.7904605,1.78441,-8.686277,0.0,0.0,0.0,0.0,0.0,0.0,0.0,0.0,0.0,0.0,0.0,0.0,0.0,0.94967526,-0.047168106,0.08448284,-0.2979173,0.0,0.0,0.0,0.0,-1.4257125,0.22030005,-0.7610803,0.0,0,0
116203108,0.97058237,1.2159268,-8.596234,0.0,0.0,0.0,0.0,0.0,0.0,0.0,0.0,0.0,0.0,0.0,0.0,0.0,0.94646764,-0.060611464,0.08895334,-0.3043231,0.0,0.0,0.0,0.0,-1.3108662,-0.0023909258,-0.8114785,0.0,0,0
116223907,0.7709289,2.0443919,-8.82162,0.0,0.0,0.0,0.0,0.0,0.0,0.0,0.0,0.0,0.0,0.0,0.0,0.0,0.94358885,-0.07186545,0.090207405,-0.310384,0.0,0.0,0.0,0.0,-0.92873085,-0.25229618,-0.679667,0.0,0,0
116247947,0.97021794,2.1150188,-9.222045,0.0,0.0,0.0,0.0,0.0,0.0,0.0,0.0,0.0,0.0,0.0,0.0,0.0,0.9410905,-0.08375199,0.08881964,-0.31534928,0.0,0.0,0.0,0.0,-0.85401404,-0.45619813,-0.47983876,0.0,0,0
116267901,1.0327199,2.0050588,-9.61416,0.0,0.0,0.0,0.0,0.0,0.0,0.0,0.0,0.0,0.0,0.0,0.0,0.0,0.9391576,-0.093557134,0.08687307,-0.31887826,0.0,0.0,0.0,0.0,-0.8590615,-0.42311805,-0.51374406,0.0,0,0
116287907,0.7330362,2.8271577,-9.324186,0.0,0.0,0.0,0.0,0.0,0.0,0.0,0.0,0.0,0.0,0.0,0.0,0.0,0.93693876,-0.10356576,0.08556276,-0.3226438,0.0,0.0,0.0,0.0,-0.90000063,-0.37899026,-0.49123457,0.0,0,0
116307901,0.44466892,2.5188718,-8.807326,0.0,0.0,0.0,0.0,0.0,0.0,0.0,0.0,0.0,0.0,0.0,0.0,0.0,0.9350005,-0.11376056,0.08376339,-0.32529435,0.0,0.0,0.0,0.0,-0.85720915,-0.49805725,-0.3771007,0.0,0,0
116331902,0.13855505,2.3401167,-8.431835,0.0,0.0,0.0,0.0,0.0,0.0,0.0,0.0,0.0,0.0,0.0,0.0,0.0,0.9335389,-0.12359455,0.07934363,-0.3270078,0.0,0.0,0.0,0.0,-0.46998507,-0.6452327,-0.1881828,0.0,0,0
116352707,0.06021641,2.3577566,-8.62275,0.0,0.0,0.0,0.0,0.0,0.0,0.0,0.0,0.0,0.0,0.0,0.0,0.0,0.9334001,-0.12953278,0.07248037,-0.32669893,0.0,0.0,0.0,0.0,-0.24387705,-0.9153119,-0.05454687,0.0,0,0
116372707,0.051379655,2.7843132,-8.9248705,0.0,0.0,0.0,0.0,0.0,0.0,0.0,0.0,0.0,0.0,0.0,0.0,0.0,0.93377465,-0.13358176,0.06304135,-0.32595512,0.0,0.0,0.0,0.0,0.04805913,-1.096927,-0.07493853,0.0,0,0
116392707,-0.000892072,3.14956,-9.684474,0.0,0.0,0.0,0.0,0.0,0.0,0.0,0.0,0.0,0.0,0.0,0.0,0.0,0.9345413,-0.13573962,0.051767502,-0.32484993,0.0,0.0,0.0,0.0,0.24490443,-1.1342121,0.046389204,0.0,0,0
116412706,-0.48314208,2.7679238,-8.918962,0.0,0.0,0.0,0.0,0.0,0.0,0.0,0.0,0.0,0.0,0.0,0.0,0.0,0.9360056,-0.1360267,0.04046714,-0.32210672,0.0,0.0,0.0,0.0,0.44505873,-1.1135417,0.23922893,0.0,0,0
116436707,-0.6779749,2.1864395,-9.18865,0.0,0.0,0.0,0.0,0.0,0.0,0.0,0.0,0.0,0.0,0.0,0.0,0.0,0.93905854,-0.13239843,0.024901867,-0.31625858,0.0,0.0,0.0,0.0,0.9226797,-1.2308886,0.47668326,0.0,0,0
116456709,-0.21344665,2.3248487,-10.701614,0.0,0.0,0.0,0.0,0.0,0.0,0.0,0.0,0.0,0.0,0.0,0.0,0.0,0.9421867,-0.12616226,0.011785012,-0.31020722,0.0,0.0,0.0,0.0,1.0423346,-0.98080355,0.5565258,0.0,0,0
116477507,-0.71804976,2.0783408,-9.7130375,0.0,0.0,0.0,0.0,0.0,0.0,0.0,0.0,0.0,0.0,0.0,0.0,0.0,0.94558436,-0.118423104,0.0016146303,-0.30305722,0.0,0.0,0.0,0.0,1.0310032,-0.73117834,0.7088976,0.0,0,0
116497517,-0.9506374,1.234714,-9.120433,0.0,0.0,0.0,0.0,0.0,0.0,0.0,0.0,0.0,0.0,0.0,0.0,0.0,0.94916517,-0.11035519,-0.008164203,-0.2946872,0.0,0.0,0.0,0.0,1.1740147,-0.8354799,0.8284451,0.0,0,0
116521507,-0.78959084,1.3292817,-9.808106,0.0,0.0,0.0,0.0,0.0,0.0,0.0,0.0,0.0,0.0,0.0,0.0,0.0,0.95368445,-0.09700651,-0.022203883,-0.283871,0.0,0.0,0.0,0.0,1.6181583,-0.8734487,0.8527737,0.0,0,0
116541507,-0.78793395,0.8936533,-9.998185,0.0,0.0,0.0,0.0,0.0,0.0,0.0,0.0,0.0,0.0,0.0,0.0,0.0,0.95732737,-0.08339794,-0.034133635,-0.27459788,0.0,0.0,0.0,0.0,1.6938928,-0.815545,0.81978816,0.0,0,0
116561507,-0.8388568,0.52578634,-10.538672,0.0,0.0,0.0,0.0,0.0,0.0,0.0,0.0,0.0,0.0,0.0,0.0,0.0,0.96024024,-0.06976882,-0.044696473,-0.26659584,0.0,0.0,0.0,0.0,1.5895071,-0.5908354,0.6568266,0.0,0,0
116581507,-1.2911788,0.99116063,-9.74165,0.0,0.0,0.0,0.0,0.0,0.0,0.0,0.0,0.0,0.0,0.0,0.0,0.0,0.9625707,-0.0554624,-0.05223589,-0.26010197,0.0,0.0,0.0,0.0,1.6485726,-0.2703109,0.56460863,0.0,0,0
116605507,-1.5678427,0.46263573,-9.318881,0.0,0.0,0.0,0.0,0.0,0.0,0.0,0.0,0.0,0.0,0.0,0.0,0.0,0.9652705,-0.036788143,-0.060459655,-0.25148356,0.0,0.0,0.0,0.0,1.7917268,-0.31315783,0.7043465,0.0,0,0
116626307,-1.5006496,-0.38246113,-9.339981,0.0,0.0,0.0,0.0,0.0,0.0,0.0,0.0,0.0,0.0,0.0,0.0,0.0,0.967589,-0.018869672,-0.06827839,-0.24239133,0.0,0.0,0.0,0.0,2.000885,-0.29667118,0.8195897,0.0,0,0
116646307,-1.3698055,-0.19955212,-9.891819,0.0,0.0,0.0,0.0,0.0,0.0,0.0,0.0,0.0,0.0,0.0,0.0,0.0,0.9694128,-0.0004604165,-0.07560707,-0.23349991,0.0,0.0,0.0,0.0,1.9699563,-0.23014578,0.7130724,0.0,0,0
116666307,-1.2887651,-0.4353264,-9.838292,0.0,0.0,0.0,0.0,0.0,0.0,0.0,0.0,0.0,0.0,0.0,0.0,0.0,0.9705467,0.015527335,-0.08121985,-0.22627707,0.0,0.0,0.0,0.0,1.5736302,-0.14096764,0.5438206,0.0,0,0
116686306,-1.1637174,-1.1531665,-9.979579,0.0,0.0,0.0,0.0,0.0,0.0,0.0,0.0,0.0,0.0,0.0,0.0,0.0,0.9713398,0.030477632,-0.08592074,-0.21951705,0.0,0.0,0.0,0.0,1.6862643,-0.051456705,0.6086871,0.0,0,0
116710306,-1.252095,-2.2562895,-9.514724,0.0,0.0,0.0,0.0,0.0,0.0,0.0,0.0,0.0,0.0,0.0,0.0,0.0,0.9720491,0.051809482,-0.09016578,-0.21049097,0.0,0.0,0.0,0.0,2.0455186,0.11328075,0.63170415,0.0,0,0
116730308,-1.5726696,-1.5932997,-9.100905,0.0,0.0,0.0,0.0,0.0,0.0,0.0,0.0,0.0,0.0,0.0,0.0,0.0,0.9721435,0.074075505,-0.093541674,-0.20174225,0.0,0.0,0.0,0.0,2.3994184,0.22842506,0.6828135,0.0,0,0
116751107,-1.6971976,-0.9247745,-9.21926,0.0,0.0,0.0,0.0,0.0,0.0,0.0,0.0,0.0,0.0,0.0,0.0,0.0,0.97167933,0.09562216,-0.09667605,-0.19326022,0.0,0.0,0.0,0.0,1.9255592,0.13670656,0.5531223,0.0,0,0
116771108,-1.1832544,-1.8410003,-10.051156,0.0,0.0,0.0,0.0,0.0,0.0,0.0,0.0,0.0,0.0,0.0,0.0,0.0,0.9711087,0.110006236,-0.09918128,-0.18710922,0.0,0.0,0.0,0.0,1.3496133,0.09807708,0.4508613,0.0,0,0
116791108,-1.1309549,-2.651837,-9.803924,0.0,0.0,0.0,0.0,0.0,0.0,0.0,0.0,0.0,0.0,0.0,0.0,0.0,0.97064114,0.12306613,-0.100032106,-0.180843,0.0,0.0,0.0,0.0,1.3922969,0.3061221,0.5082756,0.0,0,0
116815109,-1.3050828,-3.374571,-9.307571,0.0,0.0,0.0,0.0,0.0,0.0,0.0,0.0,0.0,0.0,0.0,0.0,0.0,0.9699153,0.13827606,-0.09940052,-0.17396477,0.0,0.0,0.0,0.0,1.1547463,0.34069753,0.29814047,0.0,0,0
116835108,-0.7978827,-4.052185,-9.469368,0.0,0.0,0.0,0.0,0.0,0.0,0.0,0.0,0.0,0.0,0.0,0.0,0.0,0.9690284,0.14883669,-0.09755977,-0.17121257,0.0,0.0,0.0,0.0,0.91768014,0.42563605,-0.018802665,0.0,0,0
116855114,-0.682998,-4.235155,-9.70295,0.0,0.0,0.0,0.0,0.0,0.0,0.0,0.0,0.0,0.0,0.0,0.0,0.0,0.9678443,0.15727018,-0.09309371,-0.17285031,0.0,0.0,0.0,0.0,0.5982971,0.60134923,-0.51981187,0.0,0,0
116875108,-1.1116714,-3.0383365,-9.582843,0.0,0.0,0.0,0.0,0.0,0.0,0.0,0.0,0.0,0.0,0.0,0.0,0.0,0.96666104,0.16229407,-0.08590871,-0.17845689,0.0,0.0,0.0,0.0,0.11315078,0.7134931,-0.81504387,0.0,0,0
116895906,-1.3119425,-2.702386,-9.255837,0.0,0.0,0.0,0.0,0.0,0.0,0.0,0.0,0.0,0.0,0.0,0.0,0.0,0.9661646,0.16116601,-0.07621113,-0.18639576,0.0,0.0,0.0,0.0,-0.667764,0.7638677,-0.93898165,0.0,0,0
116919940,-0.803234,-2.4977505,-9.538473,0.0,0.0,0.0,0.0,0.0,0.0,0.0,0.0,0.0,0.0,0.0,0.0,0.0,0.96687746,0.14962706,-0.06387665,-0.19667101,0.0,0.0,0.0,0.0,-1.4990464,0.64785963,-0.8812539,0.0,0,0
116939900,-0.46599445,-2.6222825,-9.133827,0.0,0.0,0.0,0.0,0.0,0.0,0.0,0.0,0.0,0.0,0.0,0.0,0.0,0.9679614,0.1335414,-0.05254186,-0.20605066,0.0,0.0,0.0,0.0,-2.036535,0.6152175,-1.0414295,0.0,0,0
116959906,-0.26370934,-2.742536,-9.364921,0.0,0.0,0.0,0.0,0.0,0.0,0.0,0.0,0.0,0.0,0.0,0.0,0.0,0.96843475,0.11480914,-0.042465128,-0.21714,0.0,0.0,0.0,0.0,-2.1500452,0.33613938,-1.1660753,0.0,0,0
116979908,-0.07536095,-2.2606623,-9.802307,0.0,0.0,0.0,0.0,0.0,0.0,0.0,0.0,0.0,0.0,0.0,0.0,0.0,0.9680489,0.09394774,-0.03233253,-0.23023893,0.0,0.0,0.0,0.0,-2.3837929,0.4169565,-1.360308,0.0,0,0
117000707,0.08005596,-1.9619373,-10.026989,0.0,0.0,0.0,0.0,0.0,0.0,0.0,0.0,0.0,0.0,0.0,0.0,0.0,0.9667659,0.070545785,-0.020340685,-0.24489462,0.0,0.0,0.0,0.0,-2.5658278,0.5100368,-1.4803963,0.0,0,0
117024718,-0.1276378,-0.6779517,-9.649775,0.0,0.0,0.0,0.0,0.0,0.0,0.0,0.0,0.0,0.0,0.0,0.0,0.0,0.9638363,0.041237775,-0.0041059894,-0.2632529,0.0,0.0,0.0,0.0,-2.7308815,0.65160894,-1.5748292,0.0,0,0
117044715,-0.016561288,-0.5887792,-9.519131,0.0,0.0,0.0,0.0,0.0,0.0,0.0,0.0,0.0,0.0,0.0,0.0,0.0,0.9605166,0.017049987,0.0105264075,-0.2775005,0.0,0.0,0.0,0.0,-2.6982722,0.7502522,-1.477642,0.0,0,0
117064708,0.17145383,-0.22355136,-8.772923,0.0,0.0,0.0,0.0,0.0,0.0,0.0,0.0,0.0,0.0,0.0,0.0,0.0,0.9561121,-0.0075947503,0.025126282,-0.2918232,0.0,0.0,0.0,0.0,-2.7210348,0.6057379,-1.5672153,0.0,0,0
117084714,0.59610516,0.5540169,-9.207877,0.0,0.0,0.0,0.0,0.0,0.0,0.0,0.0,0.0,0.0,0.0,0.0,0.0,0.95113796,-0.030080393,0.035770994,-0.30520844,0.0,0.0,0.0,0.0,-2.2450833,0.26418668,-1.4187766,0.0,0,0
117108707,0.72199285,1.507232,-9.9923115,0.0,0.0,0.0,0.0,0.0,0.0,0.0,0.0,0.0,0.0,0.0,0.0,0.0,0.9451677,-0.051708817,0.045818247,-0.31919432,0.0,0.0,0.0,0.0,-1.8431875,0.35997924,-1.2610584,0.0,0,0
117128708,0.7475376,2.0957897,-9.95557,0.0,0.0,0.0,0.0,0.0,0.0,0.0,0.0,0.0,0.0,0.0,0.0,0.0,0.9399757,-0.06773889,0.054793462,-0.32993168,0.0,0.0,0.0,0.0,-1.7033223,0.44913167,-1.1514176,0.0,0,0
117148707,0.5738094,2.2343335,-9.553196,0.0,0.0,0.0,0.0,0.0,0.0,0.0,0.0,0.0,0.0,0.0,0.0,0.0,0.93521386,-0.08134358,0.06401731,-0.33861515,0.0,0.0,0.0,0.0,-1.4643946,0.5391806,-0.86444294,0.0,0,0
117169507,0.32828307,1.8364325,-8.977259,0.0,0.0,0.0,0.0,0.0,0.0,0.0,0.0,0.0,0.0,0.0,0.0,0.0,0.9304068,-0.094242506,0.074077375,-0.3463728,0.0,0.0,0.0,0.0,-1.5285867,0.586632,-0.89492434,0.0,0,0
117193507,0.6032063,2.6376495,-8.891481,0.0,0.0,0.0,0.0,0.0,0.0,0.0,0.0,0.0,0.0,0.0,0.0,0.0,0.92395043,-0.109846815,0.08583343,-0.35620493,0.0,0.0,0.0,0.0,-1.5043935,0.5939862,-0.95339507,0.0,0,0
117217507,0.83263445,2.9254165,-9.134032,0.0,0.0,0.0,0.0,0.0,0.0,0.0,0.0,0.0,0.0,0.0,0.0,0.0,0.9174635,-0.12357284,0.096251436,-0.36568588,0.0,0.0,0.0,0.0,-1.2616796,0.48902532,-0.9124501,0.0,0,0
117237507,0.42026198,3.438498,-8.461637,0.0,0.0,0.0,0.0,0.0,0.0,0.0,0.0,0.0,0.0,0.0,0.0,0.0,0.9121829,-0.13346405,0.104324535,-0.37313005,0.0,0.0,0.0,0.0,-1.1201354,0.5163324,-0.78106606,0.0,0,0
117257507,0.33001783,3.1668105,-8.040687,0.0,0.0,0.0,0.0,0.0,0.0,0.0,0.0,0.0,0.0,0.0,0.0,0.0,0.9080111,-0.14114283,0.11015788,-0.37876102,0.0,0.0,0.0,0.0,-0.7723748,0.26644877,-0.6141607,0.0,0,0
117277507,0.5599378,3.255191,-8.172569,0.0,0.0,0.0,0.0,0.0,0.0,0.0,0.0,0.0,0.0,0.0,0.0,0.0,0.9047592,-0.14716019,0.112998605,-0.38338757,0.0,0.0,0.0,0.0,-0.53035533,0.035576038,-0.505526,0.0,0,0
117298307,0.8141687,3.0230057,-9.062491,0.0,0.0,0.0,0.0,0.0,0.0,0.0,0.0,0.0,0.0,0.0,0.0,0.0,0.90276897,-0.15108213,0.112786084,-0.3866028,0.0,0.0,0.0,0.0,-0.24465069,-0.11987563,-0.35188195,0.0,0,0
117322307,0.853636,3.8980906,-9.199954,0.0,0.0,0.0,0.0,0.0,0.0,0.0,0.0,0.0,0.0,0.0,0.0,0.0,0.9006002,-0.15469916,0.113160014,-0.3901055,0.0,0.0,0.0,0.0,-0.31815422,0.0117424335,-0.33724454,0.0,0,0
117342313,0.39201015,4.1660457,-8.511246,0.0,0.0,0.0,0.0,0.0,0.0,0.0,0.0,0.0,0.0,0.0,0.0,0.0,0.89916426,-0.15812884,0.11369273,-0.3918838,0.0,0.0,0.0,0.0,-0.3111678,-0.10249862,-0.15515056,0.0,0,0
117362307,0.4854001,3.7071261,-8.2537565,0.0,0.0,0.0,0.0,0.0,0.0,0.0,0.0,0.0,0.0,0.0,0.0,0.0,0.89944655,-0.16073847,0.11167675,-0.3907523,0.0,0.0,0.0,0.0,0.026384285,-0.4420894,0.21661295,0.0,0,0
117382307,0.37275204,3.9138768,-8.081866,0.0,0.0,0.0,0.0,0.0,0.0,0.0,0.0,0.0,0.0,0.0,0.0,0.0,0.9023186,-0.15921663,0.10519393,-0.38652983,0.0,0.0,0.0,0.0,0.6809333,-0.7553647,0.559489,0.0,0,0
117406307,0.31042716,3.594435,-9.017366,0.0,0.0,0.0,0.0,0.0,0.0,0.0,0.0,0.0,0.0,0.0,0.0,0.0,0.9093447,-0.14989178,0.09105447,-0.3772716,0.0,0.0,0.0,0.0,1.5432836,-1.0243121,1.0654836,0.0,0,0
117427108,0.1956594,2.1176112,-9.369954,0.0,0.0,0.0,0.0,0.0,0.0,0.0,0.0,0.0,0.0,0.0,0.0,0.0,0.9180341,-0.13483769,0.07585469,-0.3650729,0.0,0.0,0.0,0.0,2.0273895,-1.0294626,1.3630505,0.0,0,0
117447108,0.23941794,3.0376825,-9.103812,0.0,0.0,0.0,0.0,0.0,0.0,0.0,0.0,0.0,0.0,0.0,0.0,0.0,0.9264375,-0.11730594,0.061051697,-0.35245654,0.0,0.0,0.0,0.0,2.331688,-0.92165655,1.5466474,0.0,0,0
117467115,-0.1760238,1.47615,-9.038493,0.0,0.0,0.0,0.0,0.0,0.0,0.0,0.0,0.0,0.0,0.0,0.0,0.0,0.93554246,-0.09608214,0.045489315,-0.33683732,0.0,0.0,0.0,0.0,2.5054255,-0.90891963,1.732706,0.0,0,0
117491108,-0.39786014,1.0593582,-8.665729,0.0,0.0,0.0,0.0,0.0,0.0,0.0,0.0,0.0,0.0,0.0,0.0,0.0,0.94426864,-0.071971215,0.028357305,-0.31995738,0.0,0.0,0.0,0.0,2.3550782,-0.7951611,1.478429,0.0,0,0
117511108,-0.51952946,0.06781918,-8.720996,0.0,0.0,0.0,0.0,0.0,0.0,0.0,0.0,0.0,0.0,0.0,0.0,0.0,0.9505701,-0.050815962,0.01364944,-0.30601925,0.0,0.0,0.0,0.0,2.512256,-0.8363912,1.4590286,0.0,0,0
117531110,-0.11707911,-0.06864347,-9.826438,0.0,0.0,0.0,0.0,0.0,0.0,0.0,0.0,0.0,0.0,0.0,0.0,0.0,0.9553155,-0.029990694,-0.0011508251,-0.2940608,0.0,0.0,0.0,0.0,2.3082786,-0.84207904,1.098102,0.0,0,0
117551108,0.012692224,0.7776701,-11.110617,0.0,0.0,0.0,0.0,0.0,0.0,0.0,0.0,0.0,0.0,0.0,0.0,0.0,0.95834285,-0.012006777,-0.013899079,-0.28502944,0.0,0.0,0.0,0.0,1.973061,-0.5722877,0.8278157,0.0,0,0
117571901,-0.13436806,0.26150125,-10.294695,0.0,0.0,0.0,0.0,0.0,0.0,0.0,0.0,0.0,0.0,0.0,0.0,0.0,0.9606877,0.004669199,-0.022988841,-0.27663833,0.0,0.0,0.0,0.0,1.6935573,-0.33231005,0.8076319,0.0,0,0
117595900,-0.44978225,-0.9309294,-10.077524,0.0,0.0,0.0,0.0,0.0,0.0,0.0,0.0,0.0,0.0,0.0,0.0,0.0,0.9627501,0.02030948,-0.031643778,-0.26776588,0.0,0.0,0.0,0.0,1.2613631,-0.29789916,0.6289824,0.0,0,0
117615907,-0.49275124,-1.3100914,-9.822764,0.0,0.0,0.0,0.0,0.0,0.0,0.0,0.0,0.0,0.0,0.0,0.0,0.0,0.9636751,0.030413117,-0.03622237,-0.2628564,0.0,0.0,0.0,0.0,1.0279784,-0.04397696,0.38502175,0.0,0,0
117635900,-0.44445115,-1.4172791,-9.390495,0.0,0.0,0.0,0.0,0.0,0.0,0.0,0.0,0.0,0.0,0.0,0.0,0.0,0.96410793,0.04041291,-0.038739543,-0.2595419,0.0,0.0,0.0,0.0,1.0507177,0.05970102,0.27238497,0.0,0,0
117655907,-0.2946162,-1.6290886,-9.7046585,0.0,0.0,0.0,0.0,0.0,0.0,0.0,0.0,0.0,0.0,0.0,0.0,0.0,0.9641286,0.050261218,-0.04093539,-0.25739878,0.0,0.0,0.0,0.0,0.9211271,0.042444207,0.085345514,0.0,0,0
117679934,-0.17015198,-1.3725516,-10.153191,0.0,0.0,0.0,0.0,0.0,0.0,0.0,0.0,0.0,0.0,0.0,0.0,0.0,0.9633658,0.059600137,-0.041852456,-0.2581135,0.0,0.0,0.0,0.0,0.66226536,0.17998451,-0.18133715,0.0,0,0
117700747,-0.16639976,-1.129727,-10.309822,0.0,0.0,0.0,0.0,0.0,0.0,0.0,0.0,0.0,0.0,0.0,0.0,0.0,0.9623923,0.065989986,-0.040403076,-0.26041147,0.0,0.0,0.0,0.0,0.5051739,0.35870975,-0.32481897,0.0,0,0
117720707,-0.23161544,-0.9066374,-9.968205,0.0,0.0,0.0,0.0,0.0,0.0,0.0,0.0,0.0,0.0,0.0,0.0,0.0,0.9614814,0.07211679,-0.036250386,-0.26275194,0.0,0.0,0.0,0.0,0.4728849,0.6478893,-0.26943552,0.0,0,0
117740713,-0.3848499,-1.7605753,-9.242052,0.0,0.0,0.0,0.0,0.0,0.0,0.0,0.0,0.0,0.0,0.0,0.0,0.0,0.9604609,0.07690464,-0.029793581,-0.26591897,0.0,0.0,0.0,0.0,0.10750602,0.73863816,-0.54672605,0.0,0,0
117760706,-0.3787746,-1.4321003,-8.361563,0.0,0.0,0.0,0.0,0.0,0.0,0.0,0.0,0.0,0.0,0.0,0.0,0.0,0.95920175,0.0780883,-0.022878027,-0.2707599,0.0,0.0,0.0,0.0,-0.15191397,0.5252955,-0.38595542,0.0,0,0
117780707,-0.32232362,-1.7204525,-9.384226,0.0,0.0,0.0,0.0,0.0,0.0,0.0,0.0,0.0,0.0,0.0,0.0,0.0,0.95829314,0.07643067,-0.019421158,-0.27469158,0.0,0.0,0.0,0.0,-0.40543422,0.19749615,-0.6284398,0.0,0,0
117804707,0.48921284,-0.72540545,-9.894518,0.0,0.0,0.0,0.0,0.0,0.0,0.0,0.0,0.0,0.0,0.0,0.0,0.0,0.95628816,0.0705244,-0.01460572,-0.28341845,0.0,0.0,0.0,0.0,-0.6799916,-0.008262252,-0.6424534,0.0,0,0
117824707,0.7636845,-1.5565163,-11.684997,0.0,0.0,0.0,0.0,0.0,0.0,0.0,0.0,0.0,0.0,0.0,0.0,0.0,0.9550809,0.06419126,-0.011164158,-0.28909394,0.0,0.0,0.0,0.0,-0.62480557,0.40138254,-0.6867898,0.0,0,0
117845507,0.20656884,-0.8937141,-8.936639,0.0,0.0,0.0,0.0,0.0,0.0,0.0,0.0,0.0,0.0,0.0,0.0,0.0,0.9530919,0.059192885,-0.002499036,-0.29682627,0.0,0.0,0.0,0.0,-0.79868585,0.48890752,-0.8371915,0.0,0,0
117865507,0.4268068,-1.4044898,-9.706862,0.0,0.0,0.0,0.0,0.0,0.0,0.0,0.0,0.0,0.0,0.0,0.0,0.0,0.9515485,0.05270175,0.0033393092,-0.30293036,0.0,0.0,0.0,0.0,-0.856349,0.27264825,-0.5797152,0.0,0,0
117889552,0.77637404,-0.7867174,-10.551652,0.0,0.0,0.0,0.0,0.0,0.0,0.0,0.0,0.0,0.0,0.0,0.0,0.0,0.9498153,0.045671493,0.011686572,-0.30923846,0.0,0.0,0.0,0.0,-0.5923043,0.7321042,-0.5898226,0.0,0,0
117909508,0.3732417,-0.390244,-8.935785,0.0,0.0,0.0,0.0,0.0,0.0,0.0,0.0,0.0,0.0,0.0,0.0,0.0,0.9479695,0.04290055,0.02027237,-0.31480557,0.0,0.0,0.0,0.0,-0.44542414,0.56028557,-0.5993197,0.0,0,0
117929508,0.77162486,-0.5638671,-9.734939,0.0,0.0,0.0,0.0,0.0,0.0,0.0,0.0,0.0,0.0,0.0,0.0,0.0,0.946769,0.040399756,0.02448332,-0.31842884,0.0,0.0,0.0,0.0,-0.3006035,0.1948852,-0.2924807,0.0,0,0
117949511,0.7474053,-0.79786044,-9.876902,0.0,0.0,0.0,0.0,0.0,0.0,0.0,0.0,0.0,0.0,0.0,0.0,0.0,0.945753,0.039043207,0.027620273,-0.3213475,0.0,0.0,0.0,0.0,-0.173788,0.30947256,-0.40012172,0.0,0,0
117970307,0.5460271,-0.53610796,-9.3527565,0.0,0.0,0.0,0.0,0.0,0.0,0.0,0.0,0.0,0.0,0.0,0.0,0.0,0.9442581,0.03831839,0.031789623,-0.3254195,0.0,0.0,0.0,0.0,-0.18208152,0.33562556,-0.415968,0.0,0,0
117994307,0.6525501,-0.43869868,-9.651472,0.0,0.0,0.0,0.0,0.0,0.0,0.0,0.0,0.0,0.0,0.0,0.0,0.0,0.94286036,0.03954023,0.036492877,-0.3288149,0.0,0.0,0.0,0.0,0.10554031,0.45205408,-0.22221251,0.0,0,0
118014307,0.40750757,-0.70860356,-8.389953,0.0,0.0,0.0,0.0,0.0,0.0,0.0,0.0,0.0,0.0,0.0,0.0,0.0,0.9422433,0.03898686,0.039186142,-0.33033633,0.0,0.0,0.0,0.0,-0.33299696,-0.019030416,-0.18008336,0.0,0,0
118034307,0.9250338,-0.34768158,-10.407377,0.0,0.0,0.0,0.0,0.0,0.0,0.0,0.0,0.0,0.0,0.0,0.0,0.0,0.9418155,0.03607443,0.038120408,-0.33200777,0.0,0.0,0.0,0.0,-0.07466711,-0.08750425,-0.13514401,0.0,0,0
118054306,1.0573314,-0.76206213,-9.763142,0.0,0.0,0.0,0.0,0.0,0.0,0.0,0.0,0.0,0.0,0.0,0.0,0.0,0.94138694,0.037999984,0.039625518,-0.33283114,0.0,0.0,0.0,0.0,0.184262,0.27255762,-0.071832165,0.0,0,0
118078307,0.8464434,-0.7626701,-9.607849,0.0,0.0,0.0,0.0,0.0,0.0,0.0,0.0,0.0,0.0,0.0,0.0,0.0,0.9410981,0.04012957,0.041560575,-0.33316165,0.0,0.0,0.0,0.0,0.033197723,0.18832453,-0.02198558,0.0,0,0
118099108,0.96479607,-0.3602643,-9.855946,0.0,0.0,0.0,0.0,0.0,0.0,0.0,0.0,0.0,0.0,0.0,0.0,0.0,0.94085395,0.040542472,0.043135695,-0.3336009,0.0,0.0,0.0,0.0,-0.02050831,0.16199207,-0.06350376,0.0,0,0
118119108,1.0882105,-0.42734915,-9.620886,0.0,0.0,0.0,0.0,0.0,0.0,0.0,0.0,0.0,0.0,0.0,0.0,0.0,0.9405806,0.04188049,0.04503873,-0.33395475,0.0,0.0,0.0,0.0,0.1312295,0.23557404,-0.034444377,0.0,0,0
118139108,1.0561968,-0.5985192,-9.471595,0.0,0.0,0.0,0.0,0.0,0.0,0.0,0.0,0.0,0.0,0.0,0.0,0.0,0.94037914,0.04418375,0.045835674,-0.33411658,0.0,0.0,0.0,0.0,0.23273383,0.09116655,-0.0048950296,0.0,0,0
118163108,0.91364455,-0.6102094,-8.35315,0.0,0.0,0.0,0.0,0.0,0.0,0.0,0.0,0.0,0.0,0.0,0.0,0.0,0.94012743,0.0501687,0.044288225,-0.3341889,0.0,0.0,0.0,0.0,0.8621539,-0.01556566,0.05237043,0.0,0,0
118183108,1.1732484,-0.5212173,-9.613022,0.0,0.0,0.0,0.0,0.0,0.0,0.0,0.0,0.0,0.0,0.0,0.0,0.0,0.94088733,0.05369415,0.03758925,-0.3323179,0.0,0.0,0.0,0.0,0.06658301,-0.8701852,0.3864076,0.0,0,0
118203110,0.66761166,-1.1328791,-11.244252,0.0,0.0,0.0,0.0,0.0,0.0,0.0,0.0,0.0,0.0,0.0,0.0,0.0,0.9424671,0.04904725,0.035001818,-0.32882383,0.0,0.0,0.0,0.0,-0.25640607,0.24922298,0.35499933,0.0,0,0
118223108,0.9175913,-0.75701827,-9.477456,0.0,0.0,0.0,0.0,0.0,0.0,0.0,0.0,0.0,0.0,0.0,0.0,0.0,0.94330084,0.04824941,0.037003763,-0.32632232,0.0,0.0,0.0,0.0,-0.19375698,-0.07992534,0.17337744,0.0,0,0
118243901,0.6447492,-1.0993283,-9.6776,0.0,0.0,0.0,0.0,0.0,0.0,0.0,0.0,0.0,0.0,0.0,0.0,0.0,0.9440327,0.04714918,0.037734352,-0.32427666,0.0,0.0,0.0,0.0,-0.1475099,0.1404866,0.20664199,0.0,0,0
118267900,0.94139224,-0.6736731,-9.744257,0.0,0.0,0.0,0.0,0.0,0.0,0.0,0.0,0.0,0.0,0.0,0.0,0.0,0.94442874,0.046292983,0.03978163,-0.32299957,0.0,0.0,0.0,0.0,-0.11951004,0.16479865,0.03168112,0.0,0,0
118287906,0.8724344,-0.262041,-9.354818,0.0,0.0,0.0,0.0,0.0,0.0,0.0,0.0,0.0,0.0,0.0,0.0,0.0,0.94467366,0.04575082,0.041640285,-0.32212508,0.0,0.0,0.0,0.0,-0.10006579,0.13015407,0.17797638,0.0,0,0
118307900,0.6053086,-0.4964715,-9.13545,0.0,0.0,0.0,0.0,0.0,0.0,0.0,0.0,0.0,0.0,0.0,0.0,0.0,0.94620955,0.045767054,0.04102245,-0.31766343,0.0,0.0,0.0,0.0,0.09172094,-0.18016514,0.6453767,0.0,0,0
118327907,1.9613535,-0.21411426,-10.455969,0.0,0.0,0.0,0.0,0.0,0.0,0.0,0.0,0.0,0.0,0.0,0.0,0.0,0.9483932,0.046332546,0.038196713,-0.3113594,0.0,0.0,0.0,0.0,0.040462106,-0.14467154,0.6093708,0.0,0,0
118351907,1.2262877,-0.79331326,-9.681882,0.0,0.0,0.0,0.0,0.0,0.0,0.0,0.0,0.0,0.0,0.0,0.0,0.0,0.94944245,0.04429587,0.041951537,-0.30795616,0.0,0.0,0.0,0.0,-0.3661493,0.39354682,0.012856957,0.0,0,0
118372706,1.1170785,-0.4637687,-9.458953,0.0,0.0,0.0,0.0,0.0,0.0,0.0,0.0,0.0,0.0,0.0,0.0,0.0,0.949293,0.04206527,0.046918653,-0.30801284,0.0,0.0,0.0,0.0,-0.33990082,0.3673586,-0.027626414,0.0,0,0
118392707,1.1899886,-0.3746052,-9.336063,0.0,0.0,0.0,0.0,0.0,0.0,0.0,0.0,0.0,0.0,0.0,0.0,0.0,0.9491883,0.040497225,0.050344802,-0.30800498,0.0,0.0,0.0,0.0,-0.17875688,0.19624032,-0.021796476,0.0,0,0
118412707,1.1930894,-0.38250932,-9.338761,0.0,0.0,0.0,0.0,0.0,0.0,0.0,0.0,0.0,0.0,0.0,0.0,0.0,0.949169,0.04005361,0.051274277,-0.30796912,0.0,0.0,0.0,0.0,0.012885125,-0.016526554,0.0039121537,0.0,0,0
118432706,1.1759483,-0.4405173,-9.472723,0.0,0.0,0.0,0.0,0.0,0.0,0.0,0.0,0.0,0.0,0.0,0.0,0.0,0.9492274,0.040751603,0.049729776,-0.30795068,0.0,0.0,0.0,0.0,0.1673667,-0.18556468,0.02360774,0.0,0,0
118456707,1.0923378,-0.52068156,-9.694766,0.0,0.0,0.0,0.0,0.0,0.0,0.0,0.0,0.0,0.0,0.0,0.0,0.0,0.94937086,0.04222008,0.046477895,-0.30781868,0.0,0.0,0.0,0.0,0.2002908,-0.22130124,0.027015988,0.0,0,0
118476709,1.0434127,-0.5755121,-9.778191,0.0,0.0,0.0,0.0,0.0,0.0,0.0,0.0,0.0,0.0,0.0,0.0,0.0,0.9494594,0.04322528,0.044236828,-0.30773637,0.0,0.0,0.0,0.0,0.12885001,-0.1438916,0.018770142,0.0,0,0
118496707,1.0314814,-0.57662874,-9.767822,0.0,0.0,0.0,0.0,0.0,0.0,0.0,0.0,0.0,0.0,0.0,0.0,0.0,0.9494932,0.04363555,0.043298896,-0.30770737,0.0,0.0,0.0,0.0,0.02127972,-0.024972215,0.004943269,0.0,0,0
118517507,1.0432677,-0.5939344,-9.730195,0.0,0.0,0.0,0.0,0.0,0.0,0.0,0.0,0.0,0.0,0.0,0.0,0.0,0.949485,0.04338094,0.04383594,-0.30769292,0.0,0.0,0.0,0.0,-0.07979755,0.08634444,-0.008872853,0.0,0,0
118537507,1.0797349,-0.53336895,-9.617691,0.0,0.0,0.0,0.0,0.0,0.0,0.0,0.0,0.0,0.0,0.0,0.0,0.0,0.94945174,0.042665683,0.04539425,-0.3076692,0.0,0.0,0.0,0.0,-0.13174176,0.14397971,-0.015271231,0.0,0,0
118561545,1.1295863,-0.49140435,-9.542169,0.0,0.0,0.0,0.0,0.0,0.0,0.0,0.0,0.0,0.0,0.0,0.0,0.0,0.9493842,0.04170983,0.04748762,-0.30769283,0.0,0.0,0.0,0.0,-0.11613301,0.12677634,-0.013568176,0.0,0,0
118581506,1.146868,-0.46178368,-9.491904,0.0,0.0,0.0,0.0,0.0,0.0,0.0,0.0,0.0,0.0,0.0,0.0,0.0,0.94934815,0.041209266,0.048569705,-0.30770275,0.0,0.0,0.0,0.0,-0.05185807,0.05478199,-0.0045712395,0.0,0,0
118601508,1.1553146,-0.45231596,-9.5057,0.0,0.0,0.0,0.0,0.0,0.0,0.0,0.0,0.0,0.0,0.0,0.0,0.0,0.9493511,0.04118324,0.04860486,-0.30769166,0.0,0.0,0.0,0.0,0.029088996,-0.033374958,0.0038676015,0.0,0,0
118621507,1.1310387,-0.47423747,-9.579544,0.0,0.0,0.0,0.0,0.0,0.0,0.0,0.0,0.0,0.0,0.0,0.0,0.0,0.94939053,0.041568797,0.047753803,-0.30765128,0.0,0.0,0.0,0.0,0.07905908,-0.0869061,0.011114802,0.0,0,0
118642307,1.1012669,-0.5197851,-9.675526,0.0,0.0,0.0,0.0,0.0,0.0,0.0,0.0,0.0,0.0,0.0,0.0,0.0,0.9494418,0.04208835,0.046587694,-0.30760133,0.0,0.0,0.0,0.0,0.07769427,-0.086983606,0.0106799835,0.0,0,0
118666307,1.070533,-0.5381624,-9.700713,0.0,0.0,0.0,0.0,0.0,0.0,0.0,0.0,0.0,0.0,0.0,0.0,0.0,0.9494726,0.042492736,0.0456968,-0.3075843,0.0,0.0,0.0,0.0,0.032386098,-0.036249164,0.004591531,0.0,0,0
118686316,1.0670984,-0.5376605,-9.701476,0.0,0.0,0.0,0.0,0.0,0.0,0.0,0.0,0.0,0.0,0.0,0.0,0.0,0.9494854,0.042513523,0.045636907,-0.30755088,0.0,0.0,0.0,0.0,-0.015329269,0.017058916,-0.0014160031,0.0,0,0
118706307,1.0903115,-0.50751275,-9.652871,0.0,0.0,0.0,0.0,0.0,0.0,0.0,0.0,0.0,0.0,0.0,0.0,0.0,0.9494723,0.042270586,0.04615693,-0.3075471,0.0,0.0,0.0,0.0,-0.05111926,0.055218745,-0.005634927,0.0,0,0
118726307,1.1275367,-0.50040627,-9.598624,0.0,0.0,0.0,0.0,0.0,0.0,0.0,0.0,0.0,0.0,0.0,0.0,0.0,0.94945866,0.041901655,0.046958774,-0.3075181,0.0,0.0,0.0,0.0,-0.06072747,0.06674941,-0.0068013463,0.0,0,0
118750307,1.1365921,-0.48997387,-9.567323,0.0,0.0,0.0,0.0,0.0,0.0,0.0,0.0,0.0,0.0,0.0,0.0,0.0,0.94944227,0.041534517,0.04776975,-0.3074938,0.0,0.0,0.0,0.0,-0.038867433,0.04133104,-0.003836943,0.0,0,0
118770307,1.1239635,-0.4656315,-9.565634,0.0,0.0,0.0,0.0,0.0,0.0,0.0,0.0,0.0,0.0,0.0,0.0,0.0,0.9494478,0.041419815,0.048002683,-0.30745593,0.0,0.0,0.0,0.0,-0.0028743676,0.002433511,0.00011182064,0.0,0,0
118791108,1.1159431,-0.4851826,-9.607771,0.0,0.0,0.0,0.0,0.0,0.0,0.0,0.0,0.0,0.0,0.0,0.0,0.0,0.9494529,0.041529335,0.047757283,-0.3074638,0.0,0.0,0.0,0.0,0.029170543,-0.032239206,0.0035905445,0.0,0,0
118811108,1.1064479,-0.48859063,-9.624319,0.0,0.0,0.0,0.0,0.0,0.0,0.0,0.0,0.0,0.0,0.0,0.0,0.0,0.9494663,0.041757215,0.04727039,-0.30746663,0.0,0.0,0.0,0.0,0.037806492,-0.04063102,0.0051080696,0.0,0,0
118831108,1.1010256,-0.50108856,-9.64589,0.0,0.0,0.0,0.0,0.0,0.0,0.0,0.0,0.0,0.0,0.0,0.0,0.0,0.9494964,0.04194698,0.046839457,-0.3074138,0.0,0.0,0.0,0.0,0.025040068,-0.028879225,0.0031541497,0.0,0,0
118855115,1.092005,-0.51671755,-9.633109,0.0,0.0,0.0,0.0,0.0,0.0,0.0,0.0,0.0,0.0,0.0,0.0,0.0,0.9495112,0.042026926,0.046647914,-0.3073863,0.0,0.0,0.0,0.0,-0.0006696088,0.0007742313,0.0007317194,0.0,0,0
118875122,1.11266,-0.5085311,-9.655307,0.0,0.0,0.0,0.0,0.0,0.0,0.0,0.0,0.0,0.0,0.0,0.0,0.0,0.9495132,0.04193092,0.04683921,-0.30736372,0.0,0.0,0.0,0.0,-0.02157417,0.022473158,-0.0022037511,0.0,0,0
118895108,1.1208147,-0.5152006,-9.638952,0.0,0.0,0.0,0.0,0.0,0.0,0.0,0.0,0.0,0.0,0.0,0.0,0.0,0.94951165,0.041753367,0.047218334,-0.30733508,0.0,0.0,0.0,0.0,-0.03133701,0.03352265,-0.003129215,0.0,0,0
