timestamp,ref_timestamp,ref_lat,ref_lon,surface_bottom_timestamp,x,y,z,delta_xy[0],delta_xy[1],delta_z,vx,vy,vz,delta_vxy[0],delta_vxy[1],delta_vz,yaw,ref_alt,dist_bottom,dist_bottom_rate,eph,epv,xy_valid,z_valid,v_xy_valid,v_z_valid,xy_reset_counter,z_reset_counter,vxy_reset_counter,vz_reset_counter,xy_global,z_global,dist_bottom_valid
112571708,112571708,0.0,0.0,112571708,0.0,0.0,0.09838478,0.0,0.0,0.0,0.0,0.0,0.10560964,0.0,0.0,0.0,-0.5888415,0.0,-0.008061072,-0.10560964,98.23651,0.1773513,0,1,0,1,0,0,0,0,0,1,1
112689688,112689688,0.0,0.0,112689688,0.0,0.0,0.09890994,0.0,0.0,0.0,0.0,0.0,0.10489321,0.0,0.0,0.0,-0.58875376,0.0,-0.008586516,-0.10489321,98.379974,0.17802072,0,1,0,1,0,0,0,0,0,1,1
112789731,112789731,0.0,0.0,112789731,0.0,0.0,0.0986281,0.0,0.0,0.0,0.0,0.0,0.10436161,0.0,0.0,0.0,-0.58870316,0.0,-0.008304933,-0.10436161,98.5017,0.17799033,0,1,0,1,0,0,0,0,0,1,1
112889781,112889781,0.0,0.0,112889781,0.0,0.0,0.09856468,0.0,0.0,0.0,0.0,0.0,0.104813635,0.0,0.0,0.0,-0.58859307,0.0,-0.008241633,-0.104813635,98.62351,0.17797782,0,1,0,1,0,0,0,0,0,1,1
112989828,112989828,0.0,0.0,112989828,0.0,0.0,0.098567404,0.0,0.0,0.0,0.0,0.0,0.10527078,0.0,0.0,0.0,-0.58859164,0.0,-0.008244508,-0.10527078,98.74538,0.1779671,0,1,0,1,0,0,0,0,0,1,1
113089999,113089999,0.0,0.0,113089999,0.0,0.0,0.098576434,0.0,0.0,0.0,0.0,0.0,0.10487234,0.0,0.0,0.0,-0.5885161,0.0,-0.008253732,-0.10487234,98.86747,0.17796513,0,1,0,1,0,0,0,0,0,1,1
113200155,113200155,0.0,0.0,113200155,0.0,0.0,0.09901181,0.0,0.0,0.0,0.0,0.0,0.10539176,0.0,0.0,0.0,-0.5883938,0.0,-0.008689217,-0.10539176,99.00181,0.17838947,0,1,0,1,0,0,0,0,0,1,1
113300200,113300200,0.0,0.0,113300200,0.0,0.0,0.099022985,0.0,0.0,0.0,0.0,0.0,0.10558014,0.0,0.0,0.0,-0.58853155,0.0,-0.008700623,-0.10558014,99.12388,0.17837827,0,1,0,1,0,0,0,0,0,1,1
113400247,113400247,0.0,0.0,113400247,0.0,0.0,0.09903508,0.0,0.0,0.0,0.0,0.0,0.105799615,0.0,0.0,0.0,-0.5884243,0.0,-0.008712976,-0.105799615,99.246025,0.17836908,0,1,0,1,0,0,0,0,0,1,1
113500412,113500412,0.0,0.0,113500412,0.0,0.0,0.099082254,0.0,0.0,0.0,0.0,0.0,0.10618441,0.0,0.0,0.0,-0.58854383,0.0,-0.008760425,-0.10618441,99.36838,0.17836915,0,1,0,1,0,0,0,0,0,1,1
113600506,113600506,0.0,0.0,113600506,0.0,0.0,0.099077694,0.0,0.0,0.0,0.0,0.0,0.10571373,0.0,0.0,0.0,-0.58829373,0.0,-0.008756123,-0.10571373,99.490715,0.17835787,0,1,0,1,0,0,0,0,0,1,1
113700589,113700589,0.0,0.0,113700589,0.0,0.0,0.09902928,0.0,0.0,0.0,0.0,0.0,0.10509616,0.0,0.0,0.0,-0.58815515,0.0,-0.008707969,-0.10509616,99.61312,0.17834061,0,1,0,1,0,0,0,0,0,1,1
113800631,113800631,0.0,0.0,113800631,0.0,0.0,0.09873852,0.0,0.0,0.0,0.0,0.0,0.10436215,0.0,0.0,0.0,-0.58788973,0.0,-0.008417528,-0.10436215,99.73553,0.17792854,0,1,0,1,0,0,0,0,0,1,1
113910844,113910844,0.0,0.0,113910844,0.0,0.0,0.099022344,0.0,0.0,0.0,0.0,0.0,0.10484911,0.0,0.0,0.0,-0.5878612,0.0,-0.008701533,-0.10484911,99.870476,0.1783474,0,1,0,1,0,0,0,0,0,1,1
114010933,114010933,0.0,0.0,114010933,0.0,0.0,0.09899806,0.0,0.0,0.0,0.0,0.0,0.10495408,0.0,0.0,0.0,-0.58794576,0.0,-0.0086774975,-0.10495408,99.99308,0.17833552,0,1,0,1,0,0,0,0,0,1,1
114110988,114110988,0.0,0.0,114110988,0.0,0.0,0.09898422,0.0,0.0,0.0,0.0,0.0,0.10516152,0.0,0.0,0.0,-0.58788663,0.0,-0.008663902,-0.10516152,100.11572,0.17832921,0,1,0,1,0,0,0,0,0,1,1
114211046,114211046,0.0,0.0,114211046,0.0,0.0,0.09900044,0.0,0.0,0.0,0.0,0.0,0.10529375,0.0,0.0,0.0,-0.58766717,0.0,-0.0086803725,-0.10529375,100.23844,0.17832357,0,1,0,1,0,0,0,0,0,1,1
114311236,114311236,0.0,0.0,114311236,0.0,0.0,0.0989868,0.0,0.0,0.0,0.0,0.0,0.104360275,0.0,0.0,0.0,-0.5877961,0.0,-0.008666974,-0.104360275,100.36138,0.17832847,0,1,0,1,0,0,0,0,0,1,1
114411337,114411337,0.0,0.0,114411337,0.0,0.0,0.09890476,0.0,0.0,0.0,0.0,0.0,0.10378651,0.0,0.0,0.0,-0.5878544,0.0,-0.008585139,-0.10378651,100.48428,0.17831863,0,1,0,1,0,0,0,0,0,1,1
114511450,114511450,0.0,0.0,114511450,0.0,0.0,0.098887675,0.0,0.0,0.0,0.0,0.0,0.10440219,0.0,0.0,0.0,-0.58777755,0.0,-0.0085682655,-0.10440219,100.60727,0.17831817,0,1,0,1,0,0,0,0,0,1,1
114611573,114611573,0.0,0.0,114611573,0.0,0.0,0.09891295,0.0,0.0,0.0,0.0,0.0,0.10444041,0.0,0.0,0.0,-0.5877332,0.0,-0.0085937595,-0.10444041,100.73033,0.17831564,0,1,0,1,0,0,0,0,0,1,1
114721653,114721653,0.0,0.0,114721653,0.0,0.0,0.09938455,0.0,0.0,0.0,0.0,0.0,0.10427301,0.0,0.0,0.0,-0.58767456,0.0,-0.0090654325,-0.10427301,100.865715,0.17874749,0,1,0,1,0,0,0,0,0,1,1
114821734,114821734,0.0,0.0,114821734,0.0,0.0,0.09935276,0.0,0.0,0.0,0.0,0.0,0.10402382,0.0,0.0,0.0,-0.587636,0.0,-0.00903386,-0.10402382,100.98887,0.17874512,0,1,0,1,0,0,0,0,0,1,1
114921770,114921770,0.0,0.0,114921770,0.0,0.0,0.10042612,0.0,0.0,0.0,0.0,0.0,0.13176629,0.0,0.0,0.0,-0.5927259,0.0,-0.010107382,-0.13176629,101.112045,0.17872658,0,1,0,1,0,0,0,0,0,1,1
115021806,115021806,0.0,0.0,115021806,0.0,0.0,0.10167802,0.0,0.0,0.0,0.0,0.0,0.13612467,0.0,0.0,0.0,-0.60705155,0.0,-0.011359969,-0.13612467,101.23528,0.1783186,0,1,0,1,0,0,0,0,0,1,1
115122105,115122105,0.0,0.0,115122105,0.0,0.0,0.10221812,0.0,0.0,0.0,0.0,0.0,0.13517629,0.0,0.0,0.0,-0.6223416,0.0,-0.011900886,-0.13517629,101.35892,0.17831263,0,1,0,1,0,0,0,0,0,1,1
115222003,115222003,0.0,0.0,115222003,0.0,0.0,0.102031976,0.0,0.0,0.0,0.0,0.0,0.12353191,0.0,0.0,0.0,-0.5930615,0.0,-0.0117156515,-0.12353191,101.482124,0.17828953,0,1,0,1,0,0,0,0,0,1,1
115322144,115322144,0.0,0.0,115322144,0.0,0.0,0.099760905,0.0,0.0,0.0,0.0,0.0,0.111539364,0.0,0.0,0.0,-0.5604619,0.0,-0.009445395,-0.111539364,101.605705,0.17788042,0,1,0,1,0,0,0,0,0,1,1
115432203,115432203,0.0,0.0,115432203,0.0,0.0,0.09946457,0.0,0.0,0.0,0.0,0.0,0.106884934,0.0,0.0,0.0,-0.52069724,0.0,-0.009149437,-0.106884934,101.74159,0.17828906,0,1,0,1,0,0,0,0,0,1,1
115532434,115532434,0.0,0.0,115532434,0.0,0.0,0.09956987,0.0,0.0,0.0,0.0,0.0,0.11998597,0.0,0.0,0.0,-0.48937196,0.0,-0.009255019,-0.11998597,101.86541,0.17829847,0,1,0,1,0,0,0,0,0,1,1
115632438,115632438,0.0,0.0,115632438,0.0,0.0,0.100284494,0.0,0.0,0.0,0.0,0.0,0.10767593,0.0,0.0,0.0,-0.45173854,0.0,-0.009970023,-0.10767593,101.98903,0.17828321,0,1,0,1,0,0,0,0,0,1,1
115732456,115732456,0.0,0.0,115732456,0.0,0.0,0.09943538,0.0,0.0,0.0,0.0,0.0,0.10356118,0.0,0.0,0.0,-0.39265803,0.0,-0.009121286,-0.10356118,102.112724,0.17786236,0,1,0,1,0,0,0,0,0,1,1
115832550,115832550,0.0,0.0,115832550,0.0,0.0,0.099615976,0.0,0.0,0.0,0.0,0.0,0.11754474,0.0,0.0,0.0,-0.3593321,0.0,-0.009302141,-0.11754474,102.236565,0.17782925,0,1,0,1,0,0,0,0,0,1,1
115932566,115932566,0.0,0.0,115932566,0.0,0.0,0.098776355,0.0,0.0,0.0,0.0,0.0,0.095952794,0.0,0.0,0.0,-0.36459574,0.0,-0.008462697,-0.095952794,102.360344,0.17740598,0,1,0,1,0,0,0,0,0,1,1
116032597,116032597,0.0,0.0,116032597,0.0,0.0,0.09752696,0.0,0.0,0.0,0.0,0.0,0.0914547,0.0,0.0,0.0,-0.44196975,0.0,-0.00721322,-0.0914547,102.4842,0.17737141,0,1,0,1,0,0,0,0,0,1,1
116142747,116142747,0.0,0.0,116142747,0.0,0.0,0.097520456,0.0,0.0,0.0,0.0,0.0,0.09944539,0.0,0.0,0.0,-0.57498604,0.0,-0.007206249,-0.09944539,102.6207,0.17740008,0,1,0,1,0,0,0,0,0,1,1
116242849,116242849,0.0,0.0,116242849,0.0,0.0,0.09954596,0.0,0.0,0.0,0.0,0.0,0.15260595,0.0,0.0,0.0,-0.6523239,0.0,-0.009231486,-0.15260595,102.74482,0.1773789,0,1,0,1,0,0,0,0,0,1,1
116342975,116342975,0.0,0.0,116342975,0.0,0.0,0.102864616,0.0,0.0,0.0,0.0,0.0,0.1846735,0.0,0.0,0.0,-0.6836077,0.0,-0.012550498,-0.1846735,102.86905,0.17737995,0,1,0,1,0,0,0,0,0,1,1
116443042,116443042,0.0,0.0,116443042,0.0,0.0,0.106480934,0.0,0.0,0.0,0.0,0.0,0.2115662,0.0,0.0,0.0,-0.6478341,0.0,-0.0161679,-0.2115662,102.99326,0.17737964,0,1,0,1,0,0,0,0,0,1,1
116543236,116543236,0.0,0.0,116543236,0.0,0.0,0.10744905,0.0,0.0,0.0,0.0,0.0,0.19183539,0.0,0.0,0.0,-0.5621436,0.0,-0.017137762,-0.19183539,103.11769,0.17739092,0,1,0,1,0,0,0,0,0,1,1
116643298,116643298,0.0,0.0,116643298,0.0,0.0,0.10608252,0.0,0.0,0.0,0.0,0.0,0.16690189,0.0,0.0,0.0,-0.4781403,0.0,-0.015773142,-0.16690189,103.242035,0.1773845,0,1,0,1,0,0,0,0,0,1,1
116743348,116743348,0.0,0.0,116743348,0.0,0.0,0.1043082,0.0,0.0,0.0,0.0,0.0,0.15053642,0.0,0.0,0.0,-0.4151762,0.0,-0.014000398,-0.15053642,103.36644,0.17738014,0,1,0,1,0,0,0,0,0,1,1
116853424,116853424,0.0,0.0,116853424,0.0,0.0,0.102728695,0.0,0.0,0.0,0.0,0.0,0.11584275,0.0,0.0,0.0,-0.37438115,0.0,-0.012422057,-0.11584275,103.503395,0.17780033,0,1,0,1,0,0,0,0,0,1,1
116953630,116953630,0.0,0.0,116953630,0.0,0.0,0.099243656,0.0,0.0,0.0,0.0,0.0,0.08625606,0.0,0.0,0.0,-0.4369162,0.0,-0.0089375,-0.08625606,103.62813,0.17739598,0,1,0,1,0,0,0,0,0,1,1
117053669,117053669,0.0,0.0,117053669,0.0,0.0,0.096568875,0.0,0.0,0.0,0.0,0.0,0.07330323,0.0,0.0,0.0,-0.5739354,0.0,-0.0062625417,-0.07330323,103.75273,0.17736082,0,1,0,1,0,0,0,0,0,1,1
117153838,117153838,0.0,0.0,117153838,0.0,0.0,0.09628086,0.0,0.0,0.0,0.0,0.0,0.08388983,0.0,0.0,0.0,-0.70559853,0.0,-0.00597398,-0.08388983,103.87756,0.17736754,0,1,0,1,0,0,0,0,0,1,1
117253939,117253939,0.0,0.0,117253939,0.0,0.0,0.09716481,0.0,0.0,0.0,0.0,0.0,0.11589792,0.0,0.0,0.0,-0.8041231,0.0,-0.006857344,-0.11589792,104.002365,0.17736812,0,1,0,1,0,0,0,0,0,1,1
117353820,117353820,0.0,0.0,117353820,0.0,0.0,0.10019404,0.0,0.0,0.0,0.0,0.0,0.15417796,0.0,0.0,0.0,-0.83753765,0.0,-0.009886121,-0.15417796,104.12691,0.17695224,0,1,0,1,0,0,0,0,0,1,1
117453939,117453939,0.0,0.0,117453939,0.0,0.0,0.103196084,0.0,0.0,0.0,0.0,0.0,0.18422523,0.0,0.0,0.0,-0.723823,0.0,-0.012888278,-0.18422523,104.25179,0.17692542,0,1,0,1,0,0,0,0,0,1,1
117564140,117564140,0.0,0.0,117564140,0.0,0.0,0.10737331,0.0,0.0,0.0,0.0,0.0,0.2135506,0.0,0.0,0.0,-0.57083875,0.0,-0.017067008,-0.2135506,104.38936,0.1769647,0,1,0,1,0,0,0,0,0,1,1
117664319,117664319,0.0,0.0,117664319,0.0,0.0,0.10690888,0.0,0.0,0.0,0.0,0.0,0.17847559,0.0,0.0,0.0,-0.52498955,0.0,-0.016605027,-0.17847559,104.51452,0.17694859,0,1,0,1,0,0,0,0,0,1,1
117764187,117764187,0.0,0.0,117764187,0.0,0.0,0.104555435,0.0,0.0,0.0,0.0,0.0,0.15437952,0.0,0.0,0.0,-0.55036736,0.0,-0.01425384,-0.15437952,104.63939,0.17693354,0,1,0,1,0,0,0,0,0,1,1
117864219,117864219,0.0,0.0,117864219,0.0,0.0,0.10308772,0.0,0.0,0.0,0.0,0.0,0.13824373,0.0,0.0,0.0,-0.6123472,0.0,-0.012787922,-0.13824373,104.76454,0.17692971,0,1,0,1,0,0,0,0,0,1,1
117964346,117964346,0.0,0.0,117964346,0.0,0.0,0.1008897,0.0,0.0,0.0,0.0,0.0,0.11718385,0.0,0.0,0.0,-0.657961,0.0,-0.010590939,-0.11718385,104.889854,0.17693436,0,1,0,1,0,0,0,0,0,1,1
118064494,118064494,0.0,0.0,118064494,0.0,0.0,0.10020767,0.0,0.0,0.0,0.0,0.0,0.123438895,0.0,0.0,0.0,-0.67770284,0.0,-0.009909554,-0.123438895,105.01526,0.1769329,0,1,0,1,0,0,0,0,0,1,1
118164538,118164538,0.0,0.0,118164538,0.0,0.0,0.099851474,0.0,0.0,0.0,0.0,0.0,0.12864925,0.0,0.0,0.0,-0.679259,0.0,-0.009553794,-0.12864925,105.14061,0.17693397,0,1,0,1,0,0,0,0,0,1,1
118274611,118274611,0.0,0.0,118274611,0.0,0.0,0.09966669,0.0,0.0,0.0,0.0,0.0,0.10903259,0.0,0.0,0.0,-0.655617,0.0,-0.009369415,-0.10903259,105.27862,0.177367,0,1,0,1,0,0,0,0,0,1,1
118374654,118374654,0.0,0.0,118374654,0.0,0.0,0.09887701,0.0,0.0,0.0,0.0,0.0,0.10289922,0.0,0.0,0.0,-0.6244284,0.0,-0.008580055,-0.10289922,105.40412,0.17736678,0,1,0,1,0,0,0,0,0,1,1
118475033,118475033,0.0,0.0,118475033,0.0,0.0,0.09877336,0.0,0.0,0.0,0.0,0.0,0.11171159,0.0,0.0,0.0,-0.6238422,0.0,-0.008476554,-0.11171159,105.530136,0.17738926,0,1,0,1,0,0,0,0,0,1,1
118574920,118574920,0.0,0.0,118574920,0.0,0.0,0.09861607,0.0,0.0,0.0,0.0,0.0,0.10698443,0.0,0.0,0.0,-0.62400365,0.0,-0.0083193835,-0.10698443,105.6556,0.17737539,0,1,0,1,0,0,0,0,0,1,1
118675047,118675047,0.0,0.0,118675047,0.0,0.0,0.09867808,0.0,0.0,0.0,0.0,0.0,0.10963357,0.0,0.0,0.0,-0.6235448,0.0,-0.008381508,-0.10963357,105.78145,0.1773758,0,1,0,1,0,0,0,0,0,1,1
118775012,118775012,0.0,0.0,118775012,0.0,0.0,0.09862229,0.0,0.0,0.0,0.0,0.0,0.108458206,0.0,0.0,0.0,-0.62347275,0.0,-0.008325859,-0.108458206,105.90716,0.17696771,0,1,0,1,0,0,0,0,0,1,1
118875062,118875062,0.0,0.0,118875062,0.0,0.0,0.09843144,0.0,0.0,0.0,0.0,0.0,0.10797069,0.0,0.0,0.0,-0.6231986,0.0,-0.0081352005,-0.10797069,106.03305,0.17694725,0,1,0,1,0,0,0,0,0,1,1
118985264,118985264,0.0,0.0,118985264,0.0,0.0,0.098534316,0.0,0.0,0.0,0.0,0.0,0.106809154,0.0,0.0,0.0,-0.6231002,0.0,-0.008238133,-0.106809154,106.1718,0.17738286,0,1,0,1,0,0,0,0,0,1,1
119085326,119085326,0.0,0.0,119085326,0.0,0.0,0.0984149,0.0,0.0,0.0,0.0,0.0,0.10584887,0.0,0.0,0.0,-0.62298304,0.0,-0.008118848,-0.10584887,106.29785,0.17738469,0,1,0,1,0,0,0,0,0,1,1
119185584,119185584,0.0,0.0,119185584,0.0,0.0,0.09838591,0.0,0.0,0.0,0.0,0.0,0.10640361,0.0,0.0,0.0,-0.6229635,0.0,-0.008090002,-0.10640361,106.424225,0.17740107,0,1,0,1,0,0,0,0,0,1,1
119285472,119285472,0.0,0.0,119285472,0.0,0.0,0.09834199,0.0,0.0,0.0,0.0,0.0,0.10533671,0.0,0.0,0.0,-0.6229175,0.0,-0.008046157,-0.10533671,106.5502,0.1773882,0,1,0,1,0,0,0,0,0,1,1
119385632,119385632,0.0,0.0,119385632,0.0,0.0,0.09826501,0.0,0.0,0.0,0.0,0.0,0.10453635,0.0,0.0,0.0,-0.6227526,0.0,-0.007969295,-0.10453635,106.67659,0.17739159,0,1,0,1,0,0,0,0,0,1,1
119485695,119485695,0.0,0.0,119485695,0.0,0.0,0.098215535,0.0,0.0,0.0,0.0,0.0,0.10438205,0.0,0.0,0.0,-0.6225945,0.0,-0.007919944,-0.10438205,106.80293,0.17739314,0,1,0,1,0,0,0,0,0,1,1
119585741,119585741,0.0,0.0,119585741,0.0,0.0,0.098200716,0.0,0.0,0.0,0.0,0.0,0.10486484,0.0,0.0,0.0,-0.6224723,0.0,-0.007905237,-0.10486484,106.92933,0.1773932,0,1,0,1,0,0,0,0,0,1,1
119695791,119695791,0.0,0.0,119695791,0.0,0.0,0.09854886,0.0,0.0,0.0,0.0,0.0,0.104956575,0.0,0.0,0.0,-0.6223058,0.0,-0.008253411,-0.104956575,107.068436,0.17782713,0,1,0,1,0,0,0,0,0,1,1
119795843,119795843,0.0,0.0,119795843,0.0,0.0,0.09854649,0.0,0.0,0.0,0.0,0.0,0.10498809,0.0,0.0,0.0,-0.62201446,0.0,-0.0082511585,-0.10498809,107.19498,0.17782773,0,1,0,1,0,0,0,0,0,1,1
119896109,119896109,0.0,0.0,119896109,0.0,0.0,0.098581545,0.0,0.0,0.0,0.0,0.0,0.105501,0.0,0.0,0.0,-0.6219379,0.0,-0.008286325,-0.105501,107.32188,0.17783368,0,1,0,1,0,0,0,0,0,1,1
119996154,119996154,0.0,0.0,119996154,0.0,0.0,0.09846782,0.0,0.0,0.0,0.0,0.0,0.105403535,0.0,0.0,0.0,-0.62207204,0.0,-0.008172774,-0.105403535,107.44855,0.17742632,0,1,0,1,0,0,0,0,0,1,1
120096202,120096202,0.0,0.0,120096202,0.0,0.0,0.09833786,0.0,0.0,0.0,0.0,0.0,0.1057774,0.0,0.0,0.0,-0.62204176,0.0,-0.008043042,-0.1057774,107.5753,0.17740345,0,1,0,1,0,0,0,0,0,1,1
120196239,120196239,0.0,0.0,120196239,0.0,0.0,0.09830681,0.0,0.0,0.0,0.0,0.0,0.105466016,0.0,0.0,0.0,-0.6221409,0.0,-0.008012152,-0.105466016,107.70211,0.1774027,0,1,0,1,0,0,0,0,0,1,1
120296450,120296450,0.0,0.0,120296450,0.0,0.0,0.098275326,0.0,0.0,0.0,0.0,0.0,0.10479647,0.0,0.0,0.0,-0.62192106,0.0,-0.007980751,-0.10479647,107.82921,0.17741181,0,1,0,1,0,0,0,0,0,1,1
120406521,120406521,0.0,0.0,120406521,0.0,0.0,0.09857599,0.0,0.0,0.0,0.0,0.0,0.10494168,0.0,0.0,0.0,-0.62182504,0.0,-0.008281461,-0.10494168,107.968895,0.17784378,0,1,0,1,0,0,0,0,0,1,1
120506552,120506552,0.0,0.0,120506552,0.0,0.0,0.09856143,0.0,0.0,0.0,0.0,0.0,0.10493432,0.0,0.0,0.0,-0.6217616,0.0,-0.00826702,-0.10493432,108.09592,0.17784174,0,1,0,1,0,0,0,0,0,1,1
120606762,120606762,0.0,0.0,120606762,0.0,0.0,0.09855775,0.0,0.0,0.0,0.0,0.0,0.104897305,0.0,0.0,0.0,-0.62160915,0.0,-0.008263496,-0.104897305,108.223236,0.17785189,0,1,0,1,0,0,0,0,0,1,1
120706833,120706833,0.0,0.0,120706833,0.0,0.0,0.09853912,0.0,0.0,0.0,0.0,0.0,0.10455777,0.0,0.0,0.0,-0.62153983,0.0,-0.008245042,-0.10455777,108.35045,0.17785406,0,1,0,1,0,0,0,0,0,1,1
120806980,120806980,0.0,0.0,120806980,0.0,0.0,0.09852366,0.0,0.0,0.0,0.0,0.0,0.10435423,0.0,0.0,0.0,-0.6215545,0.0,-0.008229733,-0.10435423,108.47784,0.17785397,0,1,0,1,0,0,0,0,0,1,1
120907017,120907017,0.0,0.0,120907017,0.0,0.0,0.09845664,0.0,0.0,0.0,0.0,0.0,0.10333343,0.0,0.0,0.0,-0.62145805,0.0,-0.008162859,-0.10333343,108.60514,0.17785057,0,1,0,1,0,0,0,0,0,1,1
121007255,121007255,0.0,0.0,121007255,0.0,0.0,0.09839803,0.0,0.0,0.0,0.0,0.0,0.102882385,0.0,0.0,0.0,-0.62118214,0.0,-0.008104391,-0.102882385,108.73277,0.17786363,0,1,0,1,0,0,0,0,0,1,1
121117300,121117300,0.0,0.0,121117300,0.0,0.0,0.09876998,0.0,0.0,0.0,0.0,0.0,0.103022106,0.0,0.0,0.0,-0.6209348,0.0,-0.008476347,-0.103022106,108.87298,0.1782921,0,1,0,1,0,0,0,0,0,1,1
121217336,121217336,0.0,0.0,121217336,0.0,0.0,0.09877971,0.0,0.0,0.0,0.0,0.0,0.10371754,0.0,0.0,0.0,-0.62075496,0.0,-0.0084862,-0.10371754,109.00052,0.17829007,0,1,0,1,0,0,0,0,0,1,1
121317429,121317429,0.0,0.0,121317429,0.0,0.0,0.09879374,0.0,0.0,0.0,0.0,0.0,0.103505015,0.0,0.0,0.0,-0.62079823,0.0,-0.008500349,-0.103505015,109.12819,0.17829439,0,1,0,1,0,0,0,0,0,1,1
121417611,121417611,0.0,0.0,121417611,0.0,0.0,0.09879776,0.0,0.0,0.0,0.0,0.0,0.10368378,0.0,0.0,0.0,-0.6206884,0.0,-0.008504492,-0.10368378,109.25605,0.17830107,0,1,0,1,0,0,0,0,0,1,1
121517708,121517708,0.0,0.0,121517708,0.0,0.0,0.09878485,0.0,0.0,0.0,0.0,0.0,0.10297074,0.0,0.0,0.0,-0.62067467,0.0,-0.008491705,-0.10297074,109.38387,0.17829993,0,1,0,1,0,0,0,0,0,1,1
121617746,121617746,0.0,0.0,121617746,0.0,0.0,0.098721445,0.0,0.0,0.0,0.0,0.0,0.10274072,0.0,0.0,0.0,-0.62039113,0.0,-0.008428406,-0.10274072,109.51169,0.17829672,0,1,0,1,0,0,0,0,0,1,1
121717800,121717800,0.0,0.0,121717800,0.0,0.0,0.0987221,0.0,0.0,0.0,0.0,0.0,0.1028036,0.0,0.0,0.0,-0.620515,0.0,-0.0084291715,-0.1028036,109.63959,0.17829706,0,1,0,1,0,0,0,0,0,1,1
121817847,121817847,0.0,0.0,121817847,0.0,0.0,0.098696955,0.0,0.0,0.0,0.0,0.0,0.102625296,0.0,0.0,0.0,-0.62037,0.0,-0.008404123,-0.102625296,109.767555,0.17829703,0,1,0,1,0,0,0,0,0,1,1
121928015,121928015,0.0,0.0,121928015,0.0,0.0,0.09919335,0.0,0.0,0.0,0.0,0.0,0.10306717,0.0,0.0,0.0,-0.6201784,0.0,-0.008900496,-0.10306717,109.90854,0.17874421,0,1,0,1,0,0,0,0,0,1,1
122028174,122028174,0.0,0.0,122028174,0.0,0.0,0.09918312,0.0,0.0,0.0,0.0,0.0,0.10304352,0.0,0.0,0.0,-0.6199731,0.0,-0.0088904165,-0.10304352,110.03681,0.17874628,0,1,0,1,0,0,0,0,0,1,1
122128214,122128214,0.0,0.0,122128214,0.0,0.0,0.099221304,0.0,0.0,0.0,0.0,0.0,0.10370608,0.0,0.0,0.0,-0.61977893,0.0,-0.008928694,-0.10370608,110.164986,0.17874122,0,1,0,1,0,0,0,0,0,1,1
122228254,122228254,0.0,0.0,122228254,0.0,0.0,0.09921476,0.0,0.0,0.0,0.0,0.0,0.10296343,0.0,0.0,0.0,-0.61963314,0.0,-0.008922255,-0.10296343,110.293236,0.1787407,0,1,0,1,0,0,0,0,0,1,1
122328788,122328788,0.0,0.0,122328788,0.0,0.0,0.099199295,0.0,0.0,0.0,0.0,0.0,0.10252869,0.0,0.0,0.0,-0.619438,0.0,-0.008906901,-0.10252869,110.42218,0.17877692,0,1,0,1,0,0,0,0,0,1,1
122428465,122428465,0.0,0.0,122428465,0.0,0.0,0.0990998,0.0,0.0,0.0,0.0,0.0,0.10211669,0.0,0.0,0.0,-0.6193787,0.0,-0.008807468,-0.10211669,110.550095,0.17874427,0,1,0,1,0,0,0,0,0,1,1
122528543,122528543,0.0,0.0,122528543,0.0,0.0,0.09908654,0.0,0.0,0.0,0.0,0.0,0.102426514,0.0,0.0,0.0,-0.61902356,0.0,-0.008794277,-0.102426514,110.678604,0.1787458,0,1,0,1,0,0,0,0,0,1,1
122638615,122638615,0.0,0.0,122638615,0.0,0.0,0.09962117,0.0,0.0,0.0,0.0,0.0,0.1024898,0.0,0.0,0.0,-0.61869,0.0,-0.009328863,-0.1024898,110.82004,0.1791842,0,1,0,1,0,0,0,0,0,1,1
122738842,122738842,0.0,0.0,122738842,0.0,0.0,0.099245146,0.0,0.0,0.0,0.0,0.0,0.10221228,0.0,0.0,0.0,-0.6185795,0.0,-0.008953021,-0.10221228,110.94888,0.17878127,0,1,0,1,0,0,0,0,0,1,1
122838844,122838844,0.0,0.0,122838844,0.0,0.0,0.09914531,0.0,0.0,0.0,0.0,0.0,0.10233116,0.0,0.0,0.0,-0.6185816,0.0,-0.00885333,-0.10233116,111.07752,0.17875549,0,1,0,1,0,0,0,0,0,1,1
122938940,122938940,0.0,0.0,122938940,0.0,0.0,0.09910378,0.0,0.0,0.0,0.0,0.0,0.10227671,0.0,0.0,0.0,-0.61858547,0.0,-0.008811925,-0.10227671,111.206345,0.1787528,0,1,0,1,0,0,0,0,0,1,1
123039036,123039036,0.0,0.0,123039036,0.0,0.0,0.09911457,0.0,0.0,0.0,0.0,0.0,0.10257863,0.0,0.0,0.0,-0.61841875,0.0,-0.008822797,-0.10257863,111.33524,0.17875332,0,1,0,1,0,0,0,0,0,1,1
123139021,123139021,0.0,0.0,123139021,0.0,0.0,0.099125706,0.0,0.0,0.0,0.0,0.0,0.102757476,0.0,0.0,0.0,-0.6182701,0.0,-0.008834026,-0.102757476,111.46408,0.1787485,0,1,0,1,0,0,0,0,0,1,1
123239223,123239223,0.0,0.0,123239223,0.0,0.0,0.09913957,0.0,0.0,0.0,0.0,0.0,0.10266609,0.0,0.0,0.0,-0.6183003,0.0,-0.008847979,-0.10266609,111.593254,0.17875148,0,1,0,1,0,0,0,0,0,1,1
123349275,123349275,0.0,0.0,123349275,0.0,0.0,0.09965886,0.0,0.0,0.0,0.0,0.0,0.10317946,0.0,0.0,0.0,-0.61838293,0.0,-0.009367224,-0.10317946,111.735214,0.17918867,0,1,0,1,0,0,0,0,0,1,1
123449333,123449333,0.0,0.0,123449333,0.0,0.0,0.09926337,0.0,0.0,0.0,0.0,0.0,0.10182379,0.0,0.0,0.0,-0.6183448,0.0,-0.008971932,-0.10182379,111.86435,0.1787762,0,1,0,1,0,0,0,0,0,1,1
123549395,123549395,0.0,0.0,123549395,0.0,0.0,0.09909097,0.0,0.0,0.0,0.0,0.0,0.101819396,0.0,0.0,0.0,-0.6182706,0.0,-0.008799662,-0.101819396,111.993576,0.17875479,0,1,0,1,0,0,0,0,0,1,1
123649478,123649478,0.0,0.0,123649478,0.0,0.0,0.099012256,0.0,0.0,0.0,0.0,0.0,0.10102126,0.0,0.0,0.0,-0.6180752,0.0,-0.008721005,-0.10102126,112.122894,0.1787543,0,1,0,1,0,0,0,0,0,1,1
123749646,123749646,0.0,0.0,123749646,0.0,0.0,0.098920286,0.0,0.0,0.0,0.0,0.0,0.100258045,0.0,0.0,0.0,-0.6180979,0.0,-0.008629082,-0.100258045,112.252396,0.17875987,0,1,0,1,0,0,0,0,0,1,1
123849686,123849686,0.0,0.0,123849686,0.0,0.0,0.0988317,0.0,0.0,0.0,0.0,0.0,0.099549904,0.0,0.0,0.0,-0.61814517,0.0,-0.008540545,-0.099549904,112.381805,0.17875698,0,1,0,1,0,0,0,0,0,1,1
123949931,123949931,0.0,0.0,123949931,0.0,0.0,0.09876469,0.0,0.0,0.0,0.0,0.0,0.09904281,0.0,0.0,0.0,-0.61811256,0.0,-0.008473554,-0.09904281,112.51155,0.1787719,0,1,0,1,0,0,0,0,0,1,1
124059793,124059793,0.0,0.0,124059793,0.0,0.0,0.09918465,0.0,0.0,0.0,0.0,0.0,0.09901956,0.0,0.0,0.0,-0.6179126,0.0,-0.008893391,-0.09901956,112.65383,0.17491171,0,1,0,1,0,0,0,0,0,1,1
124159832,124159832,0.0,0.0,124159832,0.0,0.0,0.099174194,0.0,0.0,0.0,0.0,0.0,0.09908022,0.0,0.0,0.0,-0.6176957,0.0,-0.008882939,-0.09908022,112.78346,0.1749115,0,1,0,1,0,0,0,0,0,1,1
124259985,124259985,0.0,0.0,124259985,0.0,0.0,0.09916546,0.0,0.0,0.0,0.0,0.0,0.09935089,0.0,0.0,0.0,-0.6174791,0.0,-0.008874208,-0.09935089,112.913315,0.17491478,0,1,0,1,0,0,0,0,0,1,1
124360125,124360125,0.0,0.0,124360125,0.0,0.0,0.09920889,0.0,0.0,0.0,0.0,0.0,0.09968052,0.0,0.0,0.0,-0.61717254,0.0,-0.008917598,-0.09968052,113.04321,0.1749173,0,1,0,1,0,0,0,0,0,1,1
124460214,124460214,0.0,0.0,124460214,0.0,0.0,0.09928742,0.0,0.0,0.0,0.0,0.0,0.10065595,0.0,0.0,0.0,-0.6170548,0.0,-0.008996087,-0.10065595,113.17312,0.17491807,0,1,0,1,0,0,0,0,0,1,1
124560195,124560195,0.0,0.0,124560195,0.0,0.0,0.09935016,0.0,0.0,0.0,0.0,0.0,0.10089551,0.0,0.0,0.0,-0.6172562,0.0,-0.00905881,-0.10089551,113.30296,0.17919925,0,1,0,1,0,0,0,0,0,1,1
124660249,124660249,0.0,0.0,124660249,0.0,0.0,0.09900858,0.0,0.0,0.0,0.0,0.0,0.10035002,0.0,0.0,0.0,-0.61713153,0.0,-0.008717338,-0.10035002,113.43297,0.17878397,0,1,0,1,0,0,0,0,0,1,1
124770526,124770526,0.0,0.0,124770526,0.0,0.0,0.099369936,0.0,0.0,0.0,0.0,0.0,0.09980615,0.0,0.0,0.0,-0.6170208,0.0,-0.009078651,-0.09980615,113.57634,0.17492276,0,1,0,1,0,0,0,0,0,1,1
124870540,124870540,0.0,0.0,124870540,0.0,0.0,0.0992475,0.0,0.0,0.0,0.0,0.0,0.09907898,0.0,0.0,0.0,-0.61700135,0.0,-0.008956214,-0.09907898,113.70645,0.17492121,0,1,0,1,0,0,0,0,0,1,1
124970571,124970571,0.0,0.0,124970571,0.0,0.0,0.09915358,0.0,0.0,0.0,0.0,0.0,0.098302126,0.0,0.0,0.0,-0.61688584,0.0,-0.008862299,-0.098302126,113.836655,0.17492063,0,1,0,1,0,0,0,0,0,1,1
125070623,125070623,0.0,0.0,125070623,0.0,0.0,0.09904669,0.0,0.0,0.0,0.0,0.0,0.09780839,0.0,0.0,0.0,-0.616942,0.0,-0.0087554045,-0.09780839,113.96695,0.17492066,0,1,0,1,0,0,0,0,0,1,1
125170742,125170742,0.0,0.0,125170742,0.0,0.0,0.099024594,0.0,0.0,0.0,0.0,0.0,0.09780957,0.0,0.0,0.0,-0.6165299,0.0,-0.008733269,-0.09780957,114.09741,0.17492285,0,1,0,1,0,0,0,0,0,1,1
125270960,125270960,0.0,0.0,125270960,0.0,0.0,0.099000156,0.0,0.0,0.0,0.0,0.0,0.09749541,0.0,0.0,0.0,-0.6165521,0.0,-0.008708731,-0.09749541,114.228065,0.17492774,0,1,0,1,0,0,0,0,0,1,1
125370985,125370985,0.0,0.0,125370985,0.0,0.0,0.09898737,0.0,0.0,0.0,0.0,0.0,0.09794286,0.0,0.0,0.0,-0.6167391,0.0,-0.008695908,-0.09794286,114.35854,0.17492624,0,1,0,1,0,0,0,0,0,1,1
125481027,125481027,0.0,0.0,125481027,0.0,0.0,0.09803285,0.0,0.0,0.0,0.0,0.0,0.09719078,0.0,0.0,0.0,-0.6166593,0.0,-0.007741592,-0.09719078,114.502174,0.17534111,0,1,0,1,0,0,0,0,0,1,1
125581240,125581240,0.0,0.0,125581240,0.0,0.0,0.09805009,0.0,0.0,0.0,0.0,0.0,0.09752912,0.0,0.0,0.0,-0.61663085,0.0,-0.007758835,-0.09752912,114.63305,0.17534271,0,1,0,1,0,0,0,0,0,1,1
125681293,125681293,0.0,0.0,125681293,0.0,0.0,0.09809922,0.0,0.0,0.0,0.0,0.0,0.09818602,0.0,0.0,0.0,-0.6165519,0.0,-0.0078079384,-0.09818602,114.763794,0.17533967,0,1,0,1,0,0,0,0,0,1,1
125781339,125781339,0.0,0.0,125781339,0.0,0.0,0.09964785,0.0,0.0,0.0,0.0,0.0,0.09920759,0.0,0.0,0.0,-0.61644834,0.0,-0.009356149,-0.09920759,114.8946,0.17495109,0,1,0,1,0,0,0,0,0,1,1
125881440,125881440,0.0,0.0,125881440,0.0,0.0,0.099286586,0.0,0.0,0.0,0.0,0.0,0.099140264,0.0,0.0,0.0,-0.6161446,0.0,-0.008994959,-0.099140264,115.02555,0.1749314,0,1,0,1,0,0,0,0,0,1,1
125981492,125981492,0.0,0.0,125981492,0.0,0.0,0.099185266,0.0,0.0,0.0,0.0,0.0,0.09880631,0.0,0.0,0.0,-0.61613953,0.0,-0.008893606,-0.09880631,115.15651,0.1749303,0,1,0,1,0,0,0,0,0,1,1
126081722,126081722,0.0,0.0,126081722,0.0,0.0,0.099143974,0.0,0.0,0.0,0.0,0.0,0.09879834,0.0,0.0,0.0,-0.6161747,0.0,-0.008852253,-0.09879834,115.28776,0.17493579,0,1,0,1,0,0,0,0,0,1,1
126191719,126191719,0.0,0.0,126191719,0.0,0.0,0.09966714,0.0,0.0,0.0,0.0,0.0,0.09930423,0.0,0.0,0.0,-0.6161622,0.0,-0.009375195,-0.09930423,115.4319,0.17495538,0,1,0,1,0,0,0,0,0,1,1
126291782,126291782,0.0,0.0,126291782,0.0,0.0,0.099279,0.0,0.0,0.0,0.0,0.0,0.09895163,0.0,0.0,0.0,-0.61605966,0.0,-0.008987159,-0.09895163,115.563095,0.17493433,0,1,0,1,0,0,0,0,0,1,1
126391833,126391833,0.0,0.0,126391833,0.0,0.0,0.099148005,0.0,0.0,0.0,0.0,0.0,0.09872605,0.0,0.0,0.0,-0.6157322,0.0,-0.008856232,-0.09872605,115.694336,0.17493324,0,1,0,1,0,0,0,0,0,1,1
126492123,126492123,0.0,0.0,126492123,0.0,0.0,0.09916082,0.0,0.0,0.0,0.0,0.0,0.09916547,0.0,0.0,0.0,-0.6156868,0.0,-0.008869088,-0.09916547,115.82598,0.17494075,0,1,0,1,0,0,0,0,0,1,1
126592122,126592122,0.0,0.0,126592122,0.0,0.0,0.09918291,0.0,0.0,0.0,0.0,0.0,0.09942929,0.0,0.0,0.0,-0.61581606,0.0,-0.008891163,-0.09942929,115.957306,0.17922305,0,1,0,1,0,0,0,0,0,1,1
126692167,126692167,0.0,0.0,126692167,0.0,0.0,0.09884617,0.0,0.0,0.0,0.0,0.0,0.09905559,0.0,0.0,0.0,-0.6158835,0.0,-0.008554441,-0.09905559,116.088776,0.17880554,0,1,0,1,0,0,0,0,0,1,1
126792218,126792218,0.0,0.0,126792218,0.0,0.0,0.09874129,0.0,0.0,0.0,0.0,0.0,0.09901549,0.0,0.0,0.0,-0.61577415,0.0,-0.008449618,-0.09901549,116.22034,0.17878342,0,1,0,1,0,0,0,0,0,1,1
126902262,126902262,0.0,0.0,126902262,0.0,0.0,0.0991862,0.0,0.0,0.0,0.0,0.0,0.09912165,0.0,0.0,0.0,-0.61568403,0.0,-0.008894389,-0.09912165,116.365105,0.1749369,0,1,0,1,0,0,0,0,0,1,1
127002401,127002401,0.0,0.0,127002401,0.0,0.0,0.09918933,0.0,0.0,0.0,0.0,0.0,0.09925325,0.0,0.0,0.0,-0.61555654,0.0,-0.008897493,-0.09925325,116.49692,0.1749396,0,1,0,1,0,0,0,0,0,1,1
127102559,127102559,0.0,0.0,127102559,0.0,0.0,0.09920312,0.0,0.0,0.0,0.0,0.0,0.09990895,0.0,0.0,0.0,-0.61527807,0.0,-0.008911251,-0.09990895,116.62883,0.17494252,0,1,0,1,0,0,0,0,0,1,1
127202544,127202544,0.0,0.0,127202544,0.0,0.0,0.09925675,0.0,0.0,0.0,0.0,0.0,0.10030913,0.0,0.0,0.0,-0.6153552,0.0,-0.008964847,-0.10030913,116.76058,0.17922376,0,1,0,1,0,0,0,0,0,1,1
127302583,127302583,0.0,0.0,127302583,0.0,0.0,0.09890364,0.0,0.0,0.0,0.0,0.0,0.09902726,0.0,0.0,0.0,-0.6154292,0.0,-0.008611784,-0.09902726,116.89249,0.17880686,0,1,0,1,0,0,0,0,0,1,1
127402625,127402625,0.0,0.0,127402625,0.0,0.0,0.098693244,0.0,0.0,0.0,0.0,0.0,0.09770397,0.0,0.0,0.0,-0.6152568,0.0,-0.008401177,-0.09770397,117.02447,0.1787849,0,1,0,1,0,0,0,0,0,1,1
127502824,127502824,0.0,0.0,127502824,0.0,0.0,0.09853725,0.0,0.0,0.0,0.0,0.0,0.09647197,0.0,0.0,0.0,-0.6149885,0.0,-0.008244853,-0.09647197,117.15673,0.17879592,0,1,0,1,0,0,0,0,0,1,1
127612902,127612902,0.0,0.0,127612902,0.0,0.0,0.09888644,0.0,0.0,0.0,0.0,0.0,0.096513316,0.0,0.0,0.0,-0.6149426,0.0,-0.00859366,-0.096513316,117.30211,0.1749452,0,1,0,1,0,0,0,0,0,1,1
127713019,127713019,0.0,0.0,127713019,0.0,0.0,0.09885335,0.0,0.0,0.0,0.0,0.0,0.09666585,0.0,0.0,0.0,-0.6147512,0.0,-0.008560349,-0.09666585,117.43442,0.17494693,0,1,0,1,0,0,0,0,0,1,1
127813186,127813186,0.0,0.0,127813186,0.0,0.0,0.09887742,0.0,0.0,0.0,0.0,0.0,0.09691368,0.0,0.0,0.0,-0.61474824,0.0,-0.008584207,-0.09691368,117.56686,0.17495042,0,1,0,1,0,0,0,0,0,1,1
127913287,127913287,0.0,0.0,127913287,0.0,0.0,0.09887382,0.0,0.0,0.0,0.0,0.0,0.096838325,0.0,0.0,0.0,-0.61448956,0.0,-0.008580392,-0.096838325,117.69928,0.17495155,0,1,0,1,0,0,0,0,0,1,1
128013343,128013343,0.0,0.0,128013343,0.0,0.0,0.098878466,0.0,0.0,0.0,0.0,0.0,0.096705586,0.0,0.0,0.0,-0.61439,0.0,-0.008584788,-0.096705586,117.831726,0.17495137,0,1,0,1,0,0,0,0,0,1,1
128113458,128113458,0.0,0.0,128113458,0.0,0.0,0.09885962,0.0,0.0,0.0,0.0,0.0,0.09637719,0.0,0.0,0.0,-0.6143598,0.0,-0.0085657,-0.09637719,117.964325,0.1749531,0,1,0,1,0,0,0,0,0,1,1
128213603,128213603,0.0,0.0,128213603,0.0,0.0,0.09880614,0.0,0.0,0.0,0.0,0.0,0.09580477,0.0,0.0,0.0,-0.6144245,0.0,-0.0085120415,-0.09580477,118.09704,0.17495559,0,1,0,1,0,0,0,0,0,1,1
128323683,128323683,0.0,0.0,128323683,0.0,0.0,0.097751334,0.0,0.0,0.0,0.0,0.0,0.09407376,0.0,0.0,0.0,-0.6145312,0.0,-0.007457294,-0.09407376,118.243004,0.1753713,0,1,0,1,0,0,0,0,0,1,1
128423737,128423737,0.0,0.0,128423737,0.0,0.0,0.0977076,0.0,0.0,0.0,0.0,0.0,0.09408341,0.0,0.0,0.0,-0.6144833,0.0,-0.007413346,-0.09408341,118.37575,0.17537107,0,1,0,1,0,0,0,0,0,1,1
128523777,128523777,0.0,0.0,128523777,0.0,0.0,0.09766862,0.0,0.0,0.0,0.0,0.0,0.09369658,0.0,0.0,0.0,-0.6145855,0.0,-0.0073741376,-0.09369658,118.508545,0.17537059,0,1,0,1,0,0,0,0,0,1,1
128623818,128623818,0.0,0.0,128623818,0.0,0.0,0.09766173,0.0,0.0,0.0,0.0,0.0,0.09385854,0.0,0.0,0.0,-0.614557,0.0,-0.0073669874,-0.09385854,118.64141,0.17537035,0,1,0,1,0,0,0,0,0,1,1
128723864,128723864,0.0,0.0,128723864,0.0,0.0,0.09768853,0.0,0.0,0.0,0.0,0.0,0.09443742,0.0,0.0,0.0,-0.6145212,0.0,-0.0073935413,-0.09443742,118.774376,0.1753627,0,1,0,1,0,0,0,0,0,1,1
128824133,128824133,0.0,0.0,128824133,0.0,0.0,0.09775701,0.0,0.0,0.0,0.0,0.0,0.0954978,0.0,0.0,0.0,-0.6145424,0.0,-0.007461849,-0.0954978,118.907684,0.17537116,0,1,0,1,0,0,0,0,0,1,1
128924168,128924168,0.0,0.0,128924168,0.0,0.0,0.099294946,0.0,0.0,0.0,0.0,0.0,0.09736489,0.0,0.0,0.0,-0.61448705,0.0,-0.008999313,-0.09736489,119.04079,0.1749817,0,1,0,1,0,0,0,0,0,1,1
129034219,129034219,0.0,0.0,129034219,0.0,0.0,0.09805039,0.0,0.0,0.0,0.0,0.0,0.09720454,0.0,0.0,0.0,-0.61417705,0.0,-0.007754897,-0.09720454,119.18729,0.17537583,0,1,0,1,0,0,0,0,0,1,1
129134262,129134262,0.0,0.0,129134262,0.0,0.0,0.09803819,0.0,0.0,0.0,0.0,0.0,0.09681243,0.0,0.0,0.0,-0.61402124,0.0,-0.00774253,-0.09681243,119.32053,0.17536607,0,1,0,1,0,0,0,0,0,1,1
129234473,129234473,0.0,0.0,129234473,0.0,0.0,0.09950685,0.0,0.0,0.0,0.0,0.0,0.09832243,0.0,0.0,0.0,-0.61389464,0.0,-0.009210712,-0.09832243,119.45409,0.17498562,0,1,0,1,0,0,0,0,0,1,1
129334511,129334511,0.0,0.0,129334511,0.0,0.0,0.09917417,0.0,0.0,0.0,0.0,0.0,0.09883917,0.0,0.0,0.0,-0.61384225,0.0,-0.00887806,-0.09883917,119.58747,0.17496377,0,1,0,1,0,0,0,0,0,1,1
129434563,129434563,0.0,0.0,129434563,0.0,0.0,0.09920076,0.0,0.0,0.0,0.0,0.0,0.10020064,0.0,0.0,0.0,-0.6140097,0.0,-0.008904547,-0.10020064,119.720955,0.17496297,0,1,0,1,0,0,0,0,0,1,1
129534636,129534636,0.0,0.0,129534636,0.0,0.0,0.09935253,0.0,0.0,0.0,0.0,0.0,0.10198725,0.0,0.0,0.0,-0.61380917,0.0,-0.009056185,-0.10198725,119.85454,0.17496374,0,1,0,1,0,0,0,0,0,1,1
129634755,129634755,0.0,0.0,129634755,0.0,0.0,0.09949194,0.0,0.0,0.0,0.0,0.0,0.102349296,0.0,0.0,0.0,-0.6138025,0.0,-0.00919555,-0.102349296,119.988266,0.17496559,0,1,0,1,0,0,0,0,0,1,1
129734883,129734883,0.0,0.0,129734883,0.0,0.0,0.09956484,0.0,0.0,0.0,0.0,0.0,0.10258757,0.0,0.0,0.0,-0.6137033,0.0,-0.009268536,-0.10258757,120.12206,0.17496756,0,1,0,1,0,0,0,0,0,1,1
129844986,129844986,0.0,0.0,129844986,0.0,0.0,0.09857071,0.0,0.0,0.0,0.0,0.0,0.10193251,0.0,0.0,0.0,-0.6134974,0.0,-0.008274705,-0.10193251,120.26929,0.17538449,0,1,0,1,0,0,0,0,0,1,1
129945147,129945147,0.0,0.0,129945147,0.0,0.0,0.0985627,0.0,0.0,0.0,0.0,0.0,0.10192487,0.0,0.0,0.0,-0.61364233,0.0,-0.008266737,-0.10192487,120.40329,0.17539193,0,1,0,1,0,0,0,0,0,1,1
130045276,130045276,0.0,0.0,130045276,0.0,0.0,0.09858962,0.0,0.0,0.0,0.0,0.0,0.10224055,0.0,0.0,0.0,-0.6135051,0.0,-0.008293705,-0.10224055,120.53733,0.17539017,0,1,0,1,0,0,0,0,0,1,1
130145288,130145288,0.0,0.0,130145288,0.0,0.0,0.098599285,0.0,0.0,0.0,0.0,0.0,0.10221395,0.0,0.0,0.0,-0.6133279,0.0,-0.008303449,-0.10221395,120.67128,0.17538717,0,1,0,1,0,0,0,0,0,1,1
130245333,130245333,0.0,0.0,130245333,0.0,0.0,0.09858864,0.0,0.0,0.0,0.0,0.0,0.101817004,0.0,0.0,0.0,-0.6132783,0.0,-0.008292836,-0.101817004,120.80535,0.17538701,0,1,0,1,0,0,0,0,0,1,1
130345440,130345440,0.0,0.0,130345440,0.0,0.0,0.09856014,0.0,0.0,0.0,0.0,0.0,0.10089397,0.0,0.0,0.0,-0.6133167,0.0,-0.00826435,-0.10089397,120.93958,0.17538005,0,1,0,1,0,0,0,0,0,1,1
130445568,130445568,0.0,0.0,130445568,0.0,0.0,0.100087516,0.0,0.0,0.0,0.0,0.0,0.102513894,0.0,0.0,0.0,-0.61320716,0.0,-0.009791401,-0.102513894,121.07391,0.17499642,0,1,0,1,0,0,0,0,0,1,1
130555664,130555664,0.0,0.0,130555664,0.0,0.0,0.09862902,0.0,0.0,0.0,0.0,0.0,0.10123812,0.0,0.0,0.0,-0.6130672,0.0,-0.008333244,-0.10123812,121.22171,0.17539175,0,1,0,1,0,0,0,0,0,1,1
130655704,130655704,0.0,0.0,130655704,0.0,0.0,0.09850149,0.0,0.0,0.0,0.0,0.0,0.10049187,0.0,0.0,0.0,-0.61293024,0.0,-0.008205795,-0.10049187,121.35608,0.17539011,0,1,0,1,0,0,0,0,0,1,1
130755757,130755757,0.0,0.0,130755757,0.0,0.0,0.098453045,0.0,0.0,0.0,0.0,0.0,0.10040896,0.0,0.0,0.0,-0.6128502,0.0,-0.008157383,-0.10040896,121.49054,0.17538348,0,1,0,1,0,0,0,0,0,1,1
130855793,130855793,0.0,0.0,130855793,0.0,0.0,0.09999556,0.0,0.0,0.0,0.0,0.0,0.10191755,0.0,0.0,0.0,-0.6127744,0.0,-0.009699551,-0.10191755,121.625046,0.17499568,0,1,0,1,0,0,0,0,0,1,1
130955845,130955845,0.0,0.0,130955845,0.0,0.0,0.099623136,0.0,0.0,0.0,0.0,0.0,0.10143477,0.0,0.0,0.0,-0.61256576,0.0,-0.009327222,-0.10143477,121.75965,0.17497483,0,1,0,1,0,0,0,0,0,1,1
131056021,131056021,0.0,0.0,131056021,0.0,0.0,0.09946619,0.0,0.0,0.0,0.0,0.0,0.10076391,0.0,0.0,0.0,-0.6124071,0.0,-0.009170337,-0.10076391,121.89451,0.17497797,0,1,0,1,0,0,0,0,0,1,1
131156240,131156240,0.0,0.0,131156240,0.0,0.0,0.09938902,0.0,0.0,0.0,0.0,0.0,0.100210324,0.0,0.0,0.0,-0.61260974,0.0,-0.00909319,-0.100210324,122.029495,0.17498298,0,1,0,1,0,0,0,0,0,1,1
131266173,131266173,0.0,0.0,131266173,0.0,0.0,0.09829029,0.0,0.0,0.0,0.0,0.0,0.098832875,0.0,0.0,0.0,-0.6127123,0.0,-0.007994701,-0.098832875,122.17764,0.1753889,0,1,0,1,0,0,0,0,0,1,1
131366212,131366212,0.0,0.0,131366212,0.0,0.0,0.099792264,0.0,0.0,0.0,0.0,0.0,0.100259624,0.0,0.0,0.0,-0.61275584,0.0,-0.009496331,-0.100259624,122.312546,0.17500004,0,1,0,1,0,0,0,0,0,1,1
131466270,131466270,0.0,0.0,131466270,0.0,0.0,0.09941186,0.0,0.0,0.0,0.0,0.0,0.10003404,0.0,0.0,0.0,-0.61290497,0.0,-0.009116002,-0.10003404,122.44754,0.17497924,0,1,0,1,0,0,0,0,0,1,1
131566534,131566534,0.0,0.0,131566534,0.0,0.0,0.09927742,0.0,0.0,0.0,0.0,0.0,0.09880814,0.0,0.0,0.0,-0.6125152,0.0,-0.008981596,-0.09880814,122.582886,0.17498505,0,1,0,1,0,0,0,0,0,1,1
131666869,131666869,0.0,0.0,131666869,0.0,0.0,0.09912952,0.0,0.0,0.0,0.0,0.0,0.097741455,0.0,0.0,0.0,-0.6124475,0.0,-0.008833722,-0.097741455,122.718414,0.17499337,0,1,0,1,0,0,0,0,0,1,1
131766578,131766578,0.0,0.0,131766578,0.0,0.0,0.09895554,0.0,0.0,0.0,0.0,0.0,0.097174205,0.0,0.0,0.0,-0.612491,0.0,-0.0086598145,-0.097174205,122.85317,0.17925358,0,1,0,1,0,0,0,0,0,1,1
131866617,131866617,0.0,0.0,131866617,0.0,0.0,0.098625384,0.0,0.0,0.0,0.0,0.0,0.09754049,0.0,0.0,0.0,-0.6124882,0.0,-0.008329716,-0.09754049,122.98844,0.17884804,0,1,0,1,0,0,0,0,0,1,1
131976773,131976773,0.0,0.0,131976773,0.0,0.0,0.09908195,0.0,0.0,0.0,0.0,0.0,0.0986968,0.0,0.0,0.0,-0.61240655,0.0,-0.008786211,-0.0986968,123.137474,0.17926873,0,1,0,1,0,0,0,0,0,1,1
132076922,132076922,0.0,0.0,132076922,0.0,0.0,0.098792404,0.0,0.0,0.0,0.0,0.0,0.09912195,0.0,0.0,0.0,-0.6123588,0.0,-0.008496751,-0.09912195,123.27305,0.17885989,0,1,0,1,0,0,0,0,0,1,1
132176940,132176940,0.0,0.0,132176940,0.0,0.0,0.09870661,0.0,0.0,0.0,0.0,0.0,0.09859021,0.0,0.0,0.0,-0.61234003,0.0,-0.008411054,-0.09859021,123.40852,0.17883244,0,1,0,1,0,0,0,0,0,1,1
132276979,132276979,0.0,0.0,132276979,0.0,0.0,0.09866051,0.0,0.0,0.0,0.0,0.0,0.098654844,0.0,0.0,0.0,-0.6123265,0.0,-0.008365027,-0.098654844,123.5441,0.17882967,0,1,0,1,0,0,0,0,0,1,1
132377121,132377121,0.0,0.0,132377121,0.0,0.0,0.098671034,0.0,0.0,0.0,0.0,0.0,0.09904191,0.0,0.0,0.0,-0.612283,0.0,-0.008375598,-0.09904191,123.67989,0.17883685,0,1,0,1,0,0,0,0,0,1,1
132477180,132477180,0.0,0.0,132477180,0.0,0.0,0.09869362,0.0,0.0,0.0,0.0,0.0,0.099097684,0.0,0.0,0.0,-0.612125,0.0,-0.008398214,-0.099097684,123.81565,0.17883825,0,1,0,1,0,0,0,0,0,1,1
132577269,132577269,0.0,0.0,132577269,0.0,0.0,0.0986699,0.0,0.0,0.0,0.0,0.0,0.098662116,0.0,0.0,0.0,-0.6120956,0.0,-0.008374547,-0.098662116,123.951515,0.17882936,0,1,0,1,0,0,0,0,0,1,1
132687320,132687320,0.0,0.0,132687320,0.0,0.0,0.09879014,0.0,0.0,0.0,0.0,0.0,0.098374456,0.0,0.0,0.0,-0.6117595,0.0,-0.008494784,-0.098374456,124.10099,0.17885624,0,1,0,1,0,0,0,0,0,1,1
132787365,132787365,0.0,0.0,132787365,0.0,0.0,0.09867694,0.0,0.0,0.0,0.0,0.0,0.09858854,0.0,0.0,0.0,-0.6116191,0.0,-0.008381673,-0.09858854,124.23695,0.17883381,0,1,0,1,0,0,0,0,0,1,1
132887445,132887445,0.0,0.0,132887445,0.0,0.0,0.09864232,0.0,0.0,0.0,0.0,0.0,0.09821468,0.0,0.0,0.0,-0.61176693,0.0,-0.008347132,-0.09821468,124.373055,0.1788349,0,1,0,1,0,0,0,0,0,1,1
132987613,132987613,0.0,0.0,132987613,0.0,0.0,0.09862553,0.0,0.0,0.0,0.0,0.0,0.098282576,0.0,0.0,0.0,-0.61161023,0.0,-0.008330429,-0.098282576,124.50934,0.17883755,0,1,0,1,0,0,0,0,0,1,1
133088026,133088026,0.0,0.0,133088026,0.0,0.0,0.09866474,0.0,0.0,0.0,0.0,0.0,0.09880996,0.0,0.0,0.0,-0.61140305,0.0,-0.008369691,-0.09880996,124.64604,0.17886476,0,1,0,1,0,0,0,0,0,1,1
133187808,133187808,0.0,0.0,133187808,0.0,0.0,0.09867467,0.0,0.0,0.0,0.0,0.0,0.099003345,0.0,0.0,0.0,-0.6112874,0.0,-0.008379696,-0.099003345,124.78195,0.17884174,0,1,0,1,0,0,0,0,0,1,1
133287845,133287845,0.0,0.0,133287845,0.0,0.0,0.09867473,0.0,0.0,0.0,0.0,0.0,0.09864401,0.0,0.0,0.0,-0.61102885,0.0,-0.008379832,-0.09864401,124.91829,0.17883855,0,1,0,1,0,0,0,0,0,1,1
133398030,133398030,0.0,0.0,133398030,0.0,0.0,0.099132456,0.0,0.0,0.0,0.0,0.0,0.09824197,0.0,0.0,0.0,-0.61105376,0.0,-0.0088375285,-0.09824197,125.06854,0.17499903,0,1,0,1,0,0,0,0,0,1,1
133498132,133498132,0.0,0.0,133498132,0.0,0.0,0.09906005,0.0,0.0,0.0,0.0,0.0,0.097849995,0.0,0.0,0.0,-0.6110957,0.0,-0.008765195,-0.097849995,125.205124,0.17500015,0,1,0,1,0,0,0,0,0,1,1
133598170,133598170,0.0,0.0,133598170,0.0,0.0,0.09898583,0.0,0.0,0.0,0.0,0.0,0.09719616,0.0,0.0,0.0,-0.6111111,0.0,-0.008691054,-0.09719616,125.34169,0.17499931,0,1,0,1,0,0,0,0,0,1,1
133698219,133698219,0.0,0.0,133698219,0.0,0.0,0.0989009,0.0,0.0,0.0,0.0,0.0,0.09643756,0.0,0.0,0.0,-0.6111954,0.0,-0.008606228,-0.09643756,125.47835,0.17499903,0,1,0,1,0,0,0,0,0,1,1
133798265,133798265,0.0,0.0,133798265,0.0,0.0,0.09882155,0.0,0.0,0.0,0.0,0.0,0.095950745,0.0,0.0,0.0,-0.6114371,0.0,-0.008527023,-0.095950745,125.615074,0.17499863,0,1,0,1,0,0,0,0,0,1,1
133898421,133898421,0.0,0.0,133898421,0.0,0.0,0.09876274,0.0,0.0,0.0,0.0,0.0,0.095416754,0.0,0.0,0.0,-0.61139745,0.0,-0.0084684035,-0.095416754,125.75203,0.17500159,0,1,0,1,0,0,0,0,0,1,1
133998592,133998592,0.0,0.0,133998592,0.0,0.0,0.09864612,0.0,0.0,0.0,0.0,0.0,0.0939538,0.0,0.0,0.0,-0.6111292,0.0,-0.008351989,-0.0939538,125.889084,0.1750046,0,1,0,1,0,0,0,0,0,1,1
134108643,134108643,0.0,0.0,134108643,0.0,0.0,0.09760184,0.0,0.0,0.0,0.0,0.0,0.09305416,0.0,0.0,0.0,-0.61115766,0.0,-0.007308152,-0.09305416,126.03974,0.17541899,0,1,0,1,0,0,0,0,0,1,1
134208792,134208792,0.0,0.0,134208792,0.0,0.0,0.09758285,0.0,0.0,0.0,0.0,0.0,0.09293445,0.0,0.0,0.0,-0.611107,0.0,-0.0072893985,-0.09293445,126.176926,0.17542294,0,1,0,1,0,0,0,0,0,1,1
134309250,134309250,0.0,0.0,134309250,0.0,0.0,0.09750505,0.0,0.0,0.0,0.0,0.0,0.091829985,0.0,0.0,0.0,-0.6110365,0.0,-0.0072118654,-0.091829985,126.314606,0.17545001,0,1,0,1,0,0,0,0,0,1,1
134408933,134408933,0.0,0.0,134408933,0.0,0.0,0.09741967,0.0,0.0,0.0,0.0,0.0,0.090959966,0.0,0.0,0.0,-0.61100465,0.0,-0.007126711,-0.090959966,126.451294,0.17542128,0,1,0,1,0,0,0,0,0,1,1
134508992,134508992,0.0,0.0,134508992,0.0,0.0,0.09739132,0.0,0.0,0.0,0.0,0.0,0.092117466,0.0,0.0,0.0,-0.61108065,0.0,-0.0070985495,-0.092117466,126.58858,0.17542093,0,1,0,1,0,0,0,0,0,1,1
134609045,134609045,0.0,0.0,134609045,0.0,0.0,0.09744811,0.0,0.0,0.0,0.0,0.0,0.09238121,0.0,0.0,0.0,-0.61112493,0.0,-0.0071555604,-0.09238121,126.72593,0.17542045,0,1,0,1,0,0,0,0,0,1,1
134709241,134709241,0.0,0.0,134709241,0.0,0.0,0.09748623,0.0,0.0,0.0,0.0,0.0,0.0926981,0.0,0.0,0.0,-0.61101526,0.0,-0.0071938816,-0.0926981,126.86355,0.17542456,0,1,0,1,0,0,0,0,0,1,1
134819354,134819354,0.0,0.0,134819354,0.0,0.0,0.096996844,0.0,0.0,0.0,0.0,0.0,0.09290722,0.0,0.0,0.0,-0.61095196,0.0,-0.0067048147,-0.09290722,127.01488,0.17584392,0,1,0,1,0,0,0,0,0,1,1
134919413,134919413,0.0,0.0,134919413,0.0,0.0,0.09701501,0.0,0.0,0.0,0.0,0.0,0.092837,0.0,0.0,0.0,-0.61093414,0.0,-0.006723173,-0.092837,127.152466,0.17584285,0,1,0,1,0,0,0,0,0,1,1
135019662,135019662,0.0,0.0,135019662,0.0,0.0,0.09701462,0.0,0.0,0.0,0.0,0.0,0.0924041,0.0,0.0,0.0,-0.61105263,0.0,-0.00672297,-0.0924041,127.2904,0.17585273,0,1,0,1,0,0,0,0,0,1,1
135119667,135119667,0.0,0.0,135119667,0.0,0.0,0.09697915,0.0,0.0,0.0,0.0,0.0,0.09189078,0.0,0.0,0.0,-0.61107224,0.0,-0.0066876817,-0.09189078,127.42808,0.17584611,0,1,0,1,0,0,0,0,0,1,1
135219720,135219720,0.0,0.0,135219720,0.0,0.0,0.09694435,0.0,0.0,0.0,0.0,0.0,0.091741964,0.0,0.0,0.0,-0.61121386,0.0,-0.0066530546,-0.091741964,127.565895,0.17584582,0,1,0,1,0,0,0,0,0,1,1
135319768,135319768,0.0,0.0,135319768,0.0,0.0,0.09692389,0.0,0.0,0.0,0.0,0.0,0.091879584,0.0,0.0,0.0,-0.61133343,0.0,-0.006632771,-0.091879584,127.70378,0.1758447,0,1,0,1,0,0,0,0,0,1,1
135419809,135419809,0.0,0.0,135419809,0.0,0.0,0.09692067,0.0,0.0,0.0,0.0,0.0,0.09127651,0.0,0.0,0.0,-0.6115636,0.0,-0.0066296873,-0.09127651,127.841736,0.17584392,0,1,0,1,0,0,0,0,0,1,1
135529995,135529995,0.0,0.0,135529995,0.0,0.0,0.09657243,0.0,0.0,0.0,0.0,0.0,0.09046697,0.0,0.0,0.0,-0.61158484,0.0,-0.00628163,-0.09046697,127.99376,0.17627425,0,1,0,1,0,0,0,0,0,1,1
135630158,135630158,0.0,0.0,135630158,0.0,0.0,0.09654766,0.0,0.0,0.0,0.0,0.0,0.090447776,0.0,0.0,0.0,-0.6116487,0.0,-0.0062569776,-0.090447776,128.13203,0.17627387,0,1,0,1,0,0,0,0,0,1,1
135730219,135730219,0.0,0.0,135730219,0.0,0.0,0.09654435,0.0,0.0,0.0,0.0,0.0,0.09066491,0.0,0.0,0.0,-0.611558,0.0,-0.0062537715,-0.09066491,128.27025,0.17627063,0,1,0,1,0,0,0,0,0,1,1
135830262,135830262,0.0,0.0,135830262,0.0,0.0,0.09652891,0.0,0.0,0.0,0.0,0.0,0.090280995,0.0,0.0,0.0,-0.611368,0.0,-0.006238434,-0.090280995,128.40851,0.17626978,0,1,0,1,0,0,0,0,0,1,1
135930412,135930412,0.0,0.0,135930412,0.0,0.0,0.09651439,0.0,0.0,0.0,0.0,0.0,0.09006445,0.0,0.0,0.0,-0.61153305,0.0,-0.006224024,-0.09006445,128.547,0.17627195,0,1,0,1,0,0,0,0,0,1,1
136030514,136030514,0.0,0.0,136030514,0.0,0.0,0.09647838,0.0,0.0,0.0,0.0,0.0,0.08971404,0.0,0.0,0.0,-0.61145395,0.0,-0.006188074,-0.08971404,128.6855,0.1762732,0,1,0,1,0,0,0,0,0,1,1
136130557,136130557,0.0,0.0,136130557,0.0,0.0,0.09648016,0.0,0.0,0.0,0.0,0.0,0.09024129,0.0,0.0,0.0,-0.6113987,0.0,-0.006189892,-0.09024129,128.824,0.17627172,0,1,0,1,0,0,0,0,0,1,1
136240617,136240617,0.0,0.0,136240617,0.0,0.0,0.09641567,0.0,0.0,0.0,0.0,0.0,0.08996206,0.0,0.0,0.0,-0.61151034,0.0,-0.0061255046,-0.08996206,128.97644,0.17669554,0,1,0,1,0,0,0,0,0,1,1
136340657,136340657,0.0,0.0,136340657,0.0,0.0,0.096367985,0.0,0.0,0.0,0.0,0.0,0.0889394,0.0,0.0,0.0,-0.6113951,0.0,-0.006077892,-0.0889394,129.1151,0.1766945,0,1,0,1,0,0,0,0,0,1,1
136440881,136440881,0.0,0.0,136440881,0.0,0.0,0.09631294,0.0,0.0,0.0,0.0,0.0,0.088591546,0.0,0.0,0.0,-0.6113681,0.0,-0.006022887,-0.088591546,129.25409,0.17670353,0,1,0,1,0,0,0,0,0,1,1
136540928,136540928,0.0,0.0,136540928,0.0,0.0,0.09627782,0.0,0.0,0.0,0.0,0.0,0.08840551,0.0,0.0,0.0,-0.61137736,0.0,-0.005987828,-0.08840551,129.3929,0.1766984,0,1,0,1,0,0,0,0,0,1,1
136640986,136640986,0.0,0.0,136640986,0.0,0.0,0.096268855,0.0,0.0,0.0,0.0,0.0,0.08866132,0.0,0.0,0.0,-0.6114496,0.0,-0.0059789065,-0.08866132,129.5318,0.17669849,0,1,0,1,0,0,0,0,0,1,1
136741033,136741033,0.0,0.0,136741033,0.0,0.0,0.09629214,0.0,0.0,0.0,0.0,0.0,0.08913592,0.0,0.0,0.0,-0.61147785,0.0,-0.006002231,-0.08913592,129.67078,0.17669757,0,1,0,1,0,0,0,0,0,1,1
136841252,136841252,0.0,0.0,136841252,0.0,0.0,0.09631631,0.0,0.0,0.0,0.0,0.0,0.08886811,0.0,0.0,0.0,-0.6113223,0.0,-0.0060264417,-0.08886811,129.81007,0.17669958,0,1,0,1,0,0,0,0,0,1,1
136951333,136951333,0.0,0.0,136951333,0.0,0.0,0.09633697,0.0,0.0,0.0,0.0,0.0,0.087907284,0.0,0.0,0.0,-0.61130416,0.0,-0.0060471115,-0.087907284,129.96315,0.17712891,0,1,0,1,0,0,0,0,0,1,1
137051426,137051426,0.0,0.0,137051426,0.0,0.0,0.096300185,0.0,0.0,0.0,0.0,0.0,0.08789429,0.0,0.0,0.0,-0.6114539,0.0,-0.006010355,-0.08789429,130.10242,0.1771318,0,1,0,1,0,0,0,0,0,1,1
137151546,137151546,0.0,0.0,137151546,0.0,0.0,0.09626777,0.0,0.0,0.0,0.0,0.0,0.08755202,0.0,0.0,0.0,-0.611462,0.0,-0.005977964,-0.08755202,130.2418,0.17713441,0,1,0,1,0,0,0,0,0,1,1
137251673,137251673,0.0,0.0,137251673,0.0,0.0,0.09622425,0.0,0.0,0.0,0.0,0.0,0.08672443,0.0,0.0,0.0,-0.6115582,0.0,-0.0059344517,-0.08672443,130.38127,0.17713608,0,1,0,1,0,0,0,0,0,1,1
137351713,137351713,0.0,0.0,137351713,0.0,0.0,0.09617133,0.0,0.0,0.0,0.0,0.0,0.086567804,0.0,0.0,0.0,-0.61160827,0.0,-0.0058815153,-0.086567804,130.5207,0.17713144,0,1,0,1,0,0,0,0,0,1,1
137451762,137451762,0.0,0.0,137451762,0.0,0.0,0.0961452,0.0,0.0,0.0,0.0,0.0,0.086408794,0.0,0.0,0.0,-0.61157215,0.0,-0.0058553545,-0.086408794,130.66022,0.17713101,0,1,0,1,0,0,0,0,0,1,1
137551802,137551802,0.0,0.0,137551802,0.0,0.0,0.09610293,0.0,0.0,0.0,0.0,0.0,0.0855826,0.0,0.0,0.0,-0.6115619,0.0,-0.005813077,-0.0855826,130.7998,0.17712942,0,1,0,1,0,0,0,0,0,1,1
137651859,137651859,0.0,0.0,137651859,0.0,0.0,0.096070185,0.0,0.0,0.0,0.0,0.0,0.08617445,0.0,0.0,0.0,-0.61172545,0.0,-0.005780271,-0.08617445,130.93948,0.17712148,0,1,0,1,0,0,0,0,0,1,1
137762106,137762106,0.0,0.0,137762106,0.0,0.0,0.09632778,0.0,0.0,0.0,0.0,0.0,0.08731678,0.0,0.0,0.0,-0.6117333,0.0,-0.0060378015,-0.08731678,131.09348,0.17756604,0,1,0,1,0,0,0,0,0,1,1
137862162,137862162,0.0,0.0,137862162,0.0,0.0,0.096364565,0.0,0.0,0.0,0.0,0.0,0.08746962,0.0,0.0,0.0,-0.611527,0.0,-0.0060745534,-0.08746962,131.2333,0.1775635,0,1,0,1,0,0,0,0,0,1,1
137962196,137962196,0.0,0.0,137962196,0.0,0.0,0.09641533,0.0,0.0,0.0,0.0,0.0,0.08808814,0.0,0.0,0.0,-0.61121094,0.0,-0.006125317,-0.08808814,131.37318,0.17756239,0,1,0,1,0,0,0,0,0,1,1
138062250,138062250,0.0,0.0,138062250,0.0,0.0,0.096438125,0.0,0.0,0.0,0.0,0.0,0.08775652,0.0,0.0,0.0,-0.611076,0.0,-0.006148079,-0.08775652,131.51318,0.17756249,0,1,0,1,0,0,0,0,0,1,1
138162568,138162568,0.0,0.0,138162568,0.0,0.0,0.0964722,0.0,0.0,0.0,0.0,0.0,0.08843353,0.0,0.0,0.0,-0.61092305,0.0,-0.006182129,-0.08843353,131.65363,0.17758174,0,1,0,1,0,0,0,0,0,1,1
138262509,138262509,0.0,0.0,138262509,0.0,0.0,0.09648509,0.0,0.0,0.0,0.0,0.0,0.08811358,0.0,0.0,0.0,-0.61095905,0.0,-0.006195049,-0.08811358,131.79361,0.17756638,0,1,0,1,0,0,0,0,0,1,1
138362549,138362549,0.0,0.0,138362549,0.0,0.0,0.09645244,0.0,0.0,0.0,0.0,0.0,0.0877108,0.0,0.0,0.0,-0.61086,0.0,-0.0061623794,-0.0877108,131.9338,0.1775611,0,1,0,1,0,0,0,0,0,1,1
138472636,138472636,0.0,0.0,138472636,0.0,0.0,0.096578896,0.0,0.0,0.0,0.0,0.0,0.08709541,0.0,0.0,0.0,-0.6106961,0.0,-0.006288811,-0.08709541,132.08818,0.17758892,0,1,0,1,0,0,0,0,0,1,1
138572676,138572676,0.0,0.0,138572676,0.0,0.0,0.096389025,0.0,0.0,0.0,0.0,0.0,0.08633877,0.0,0.0,0.0,-0.61102307,0.0,-0.0060989424,-0.08633877,132.22856,0.17756447,0,1,0,1,0,0,0,0,0,1,1
138672850,138672850,0.0,0.0,138672850,0.0,0.0,0.0962958,0.0,0.0,0.0,0.0,0.0,0.08591774,0.0,0.0,0.0,-0.6110432,0.0,-0.006005662,-0.08591774,132.36919,0.17756741,0,1,0,1,0,0,0,0,0,1,1
138772913,138772913,0.0,0.0,138772913,0.0,0.0,0.09626406,0.0,0.0,0.0,0.0,0.0,0.08620345,0.0,0.0,0.0,-0.6109069,0.0,-0.0059738667,-0.08620345,132.50975,0.17756784,0,1,0,1,0,0,0,0,0,1,1
138873576,138873576,0.0,0.0,138873576,0.0,0.0,0.0962921,0.0,0.0,0.0,0.0,0.0,0.086110815,0.0,0.0,0.0,-0.61094624,0.0,-0.0060018585,-0.086110815,132.65121,0.17761095,0,1,0,1,0,0,0,0,0,1,1
138973232,138973232,0.0,0.0,138973232,0.0,0.0,0.09626382,0.0,0.0,0.0,0.0,0.0,0.08616288,0.0,0.0,0.0,-0.61098516,0.0,-0.0059735193,-0.08616288,132.79135,0.17757083,0,1,0,1,0,0,0,0,0,1,1
139073272,139073272,0.0,0.0,139073272,0.0,0.0,0.096270934,0.0,0.0,0.0,0.0,0.0,0.08624962,0.0,0.0,0.0,-0.61083525,0.0,-0.0059806043,-0.08624962,132.93211,0.17716315,0,1,0,1,0,0,0,0,0,1,1
139183329,139183329,0.0,0.0,139183329,0.0,0.0,0.0963123,0.0,0.0,0.0,0.0,0.0,0.08615458,0.0,0.0,0.0,-0.6107985,0.0,-0.0060219024,-0.08615458,133.08705,0.17757094,0,1,0,1,0,0,0,0,0,1,1
139283635,139283635,0.0,0.0,139283635,0.0,0.0,0.09626149,0.0,0.0,0.0,0.0,0.0,0.08546068,0.0,0.0,0.0,-0.6108625,0.0,-0.0059710126,-0.08546068,133.22833,0.17758852,0,1,0,1,0,0,0,0,0,1,1
139383543,139383543,0.0,0.0,139383543,0.0,0.0,0.09621568,0.0,0.0,0.0,0.0,0.0,0.08546652,0.0,0.0,0.0,-0.61091185,0.0,-0.0059251315,-0.08546652,133.36916,0.17756815,0,1,0,1,0,0,0,0,0,1,1
139483646,139483646,0.0,0.0,139483646,0.0,0.0,0.096181914,0.0,0.0,0.0,0.0,0.0,0.08487174,0.0,0.0,0.0,-0.61091954,0.0,-0.0058913017,-0.08487174,133.51031,0.17716615,0,1,0,1,0,0,0,0,0,1,1
139583690,139583690,0.0,0.0,139583690,0.0,0.0,0.09603909,0.0,0.0,0.0,0.0,0.0,0.08502337,0.0,0.0,0.0,-0.6109979,0.0,-0.005748438,-0.08502337,133.65146,0.17714354,0,1,0,1,0,0,0,0,0,1,1
139683741,139683741,0.0,0.0,139683741,0.0,0.0,0.09601094,0.0,0.0,0.0,0.0,0.0,0.08505367,0.0,0.0,0.0,-0.6110067,0.0,-0.0057202126,-0.08505367,133.79271,0.17714222,0,1,0,1,0,0,0,0,0,1,1
139783779,139783779,0.0,0.0,139783779,0.0,0.0,0.09599933,0.0,0.0,0.0,0.0,0.0,0.08515844,0.0,0.0,0.0,-0.6108921,0.0,-0.005708521,-0.08515844,133.93402,0.17713743,0,1,0,1,0,0,0,0,0,1,1
139893825,139893825,0.0,0.0,139893825,0.0,0.0,0.09617548,0.0,0.0,0.0,0.0,0.0,0.0853202,0.0,0.0,0.0,-0.6106039,0.0,-0.0058845603,-0.0853202,134.08954,0.177163,0,1,0,1,0,0,0,0,0,1,1
139993945,139993945,0.0,0.0,139993945,0.0,0.0,0.096052766,0.0,0.0,0.0,0.0,0.0,0.08516874,0.0,0.0,0.0,-0.61061376,0.0,-0.005761823,-0.08516874,134.23112,0.17713472,0,1,0,1,0,0,0,0,0,1,1
140094031,140094031,0.0,0.0,140094031,0.0,0.0,0.09614828,0.0,0.0,0.0,0.0,0.0,0.08534585,0.0,0.0,0.0,-0.61050504,0.0,-0.0058572325,-0.08534585,134.37274,0.17673944,0,1,0,1,0,0,0,0,0,1,1
140194153,140194153,0.0,0.0,140194153,0.0,0.0,0.09600248,0.0,0.0,0.0,0.0,0.0,0.08506119,0.0,0.0,0.0,-0.6103277,0.0,-0.005711382,-0.08506119,134.51448,0.17671837,0,1,0,1,0,0,0,0,0,1,1
140294195,140294195,0.0,0.0,140294195,0.0,0.0,0.09592392,0.0,0.0,0.0,0.0,0.0,0.08439738,0.0,0.0,0.0,-0.61030734,0.0,-0.0056327507,-0.08439738,134.65619,0.1767164,0,1,0,1,0,0,0,0,0,1,1
140394236,140394236,0.0,0.0,140394236,0.0,0.0,0.09586494,0.0,0.0,0.0,0.0,0.0,0.08420292,0.0,0.0,0.0,-0.61045915,0.0,-0.0055736806,-0.08420292,134.79797,0.17671616,0,1,0,1,0,0,0,0,0,1,1
140494275,140494275,0.0,0.0,140494275,0.0,0.0,0.09586045,0.0,0.0,0.0,0.0,0.0,0.0846543,0.0,0.0,0.0,-0.61043835,0.0,-0.005569086,-0.0846543,134.93983,0.17671557,0,1,0,1,0,0,0,0,0,1,1
140604469,140604469,0.0,0.0,140604469,0.0,0.0,0.095944285,0.0,0.0,0.0,0.0,0.0,0.08458397,0.0,0.0,0.0,-0.6104228,0.0,-0.0056527853,-0.08458397,135.09619,0.17714262,0,1,0,1,0,0,0,0,0,1,1
140704545,140704545,0.0,0.0,140704545,0.0,0.0,0.09595981,0.0,0.0,0.0,0.0,0.0,0.08511497,0.0,0.0,0.0,-0.6103591,0.0,-0.0056682136,-0.08511497,135.23827,0.17714505,0,1,0,1,0,0,0,0,0,1,1
140804581,140804581,0.0,0.0,140804581,0.0,0.0,0.09613939,0.0,0.0,0.0,0.0,0.0,0.085900515,0.0,0.0,0.0,-0.61063117,0.0,-0.005847677,-0.085900515,135.38036,0.17674105,0,1,0,1,0,0,0,0,0,1,1
140904676,140904676,0.0,0.0,140904676,0.0,0.0,0.09601878,0.0,0.0,0.0,0.0,0.0,0.0853827,0.0,0.0,0.0,-0.61043286,0.0,-0.0057270494,-0.0853827,135.52261,0.1767166,0,1,0,1,0,0,0,0,0,1,1
141004925,141004925,0.0,0.0,141004925,0.0,0.0,0.095968634,0.0,0.0,0.0,0.0,0.0,0.085046396,0.0,0.0,0.0,-0.61036414,0.0,-0.0056768414,-0.085046396,135.66516,0.17672476,0,1,0,1,0,0,0,0,0,1,1
141104970,141104970,0.0,0.0,141104970,0.0,0.0,0.09623256,0.0,0.0,0.0,0.0,0.0,0.08497204,0.0,0.0,0.0,-0.6102751,0.0,-0.005940599,-0.08497204,135.80751,0.17632332,0,1,0,1,0,0,0,0,0,1,1
141205008,141205008,0.0,0.0,141205008,0.0,0.0,0.096043386,0.0,0.0,0.0,0.0,0.0,0.084859386,0.0,0.0,0.0,-0.6103533,0.0,-0.005751394,-0.084859386,135.94992,0.17629975,0,1,0,1,0,0,0,0,0,1,1
141315054,141315054,0.0,0.0,141315054,0.0,0.0,0.09589234,0.0,0.0,0.0,0.0,0.0,0.08384485,0.0,0.0,0.0,-0.61036557,0.0,-0.0056002713,-0.08384485,136.10667,0.17672253,0,1,0,1,0,0,0,0,0,1,1
141415320,141415320,0.0,0.0,141415320,0.0,0.0,0.09580446,0.0,0.0,0.0,0.0,0.0,0.08326011,0.0,0.0,0.0,-0.6104575,0.0,-0.005512267,-0.08326011,136.24957,0.1767263,0,1,0,1,0,0,0,0,0,1,1
141515300,141515300,0.0,0.0,141515300,0.0,0.0,0.09608708,0.0,0.0,0.0,0.0,0.0,0.08401714,0.0,0.0,0.0,-0.6103973,0.0,-0.005794717,-0.08401714,136.39215,0.17632362,0,1,0,1,0,0,0,0,0,1,1
141615342,141615342,0.0,0.0,141615342,0.0,0.0,0.09594633,0.0,0.0,0.0,0.0,0.0,0.08471477,0.0,0.0,0.0,-0.6104104,0.0,-0.0056538996,-0.08471477,136.53488,0.17630138,0,1,0,1,0,0,0,0,0,1,1
141715440,141715440,0.0,0.0,141715440,0.0,0.0,0.09595599,0.0,0.0,0.0,0.0,0.0,0.08486021,0.0,0.0,0.0,-0.6104099,0.0,-0.005663469,-0.08486021,136.6778,0.17630151,0,1,0,1,0,0,0,0,0,1,1
141815612,141815612,0.0,0.0,141815612,0.0,0.0,0.095974945,0.0,0.0,0.0,0.0,0.0,0.08513642,0.0,0.0,0.0,-0.6102112,0.0,-0.005682302,-0.08513642,136.82088,0.17630978,0,1,0,1,0,0,0,0,0,1,1
141915680,141915680,0.0,0.0,141915680,0.0,0.0,0.09600244,0.0,0.0,0.0,0.0,0.0,0.08550006,0.0,0.0,0.0,-0.6101076,0.0,-0.0057096956,-0.08550006,136.9639,0.17630531,0,1,0,1,0,0,0,0,0,1,1
142025717,142025717,0.0,0.0,142025717,0.0,0.0,0.09595538,0.0,0.0,0.0,0.0,0.0,0.08546743,0.0,0.0,0.0,-0.6101149,0.0,-0.005662559,-0.08546743,137.12125,0.17672776,0,1,0,1,0,0,0,0,0,1,1
142125759,142125759,0.0,0.0,142125759,0.0,0.0,0.09596554,0.0,0.0,0.0,0.0,0.0,0.08566162,0.0,0.0,0.0,-0.61010635,0.0,-0.0056726425,-0.08566162,137.26437,0.1767271,0,1,0,1,0,0,0,0,0,1,1
142225802,142225802,0.0,0.0,142225802,0.0,0.0,0.09597799,0.0,0.0,0.0,0.0,0.0,0.08580273,0.0,0.0,0.0,-0.61008567,0.0,-0.0056849974,-0.08580273,137.4076,0.1767263,0,1,0,1,0,0,0,0,0,1,1
142325850,142325850,0.0,0.0,142325850,0.0,0.0,0.09599029,0.0,0.0,0.0,0.0,0.0,0.08563843,0.0,0.0,0.0,-0.610135,0.0,-0.005697209,-0.08563843,137.5509,0.17672649,0,1,0,1,0,0,0,0,0,1,1
142426036,142426036,0.0,0.0,142426036,0.0,0.0,0.09598925,0.0,0.0,0.0,0.0,0.0,0.08555091,0.0,0.0,0.0,-0.6103889,0.0,-0.0056960937,-0.08555091,137.69449,0.17673077,0,1,0,1,0,0,0,0,0,1,1
142526159,142526159,0.0,0.0,142526159,0.0,0.0,0.095972046,0.0,0.0,0.0,0.0,0.0,0.08531505,0.0,0.0,0.0,-0.6105225,0.0,-0.005678819,-0.08531505,137.83806,0.176733,0,1,0,1,0,0,0,0,0,1,1
142626199,142626199,0.0,0.0,142626199,0.0,0.0,0.095934056,0.0,0.0,0.0,0.0,0.0,0.084696986,0.0,0.0,0.0,-0.6105686,0.0,-0.005640738,-0.084696986,137.9816,0.17673054,0,1,0,1,0,0,0,0,0,1,1
142736255,142736255,0.0,0.0,142736255,0.0,0.0,0.095953815,0.0,0.0,0.0,0.0,0.0,0.08436861,0.0,0.0,0.0,-0.6106059,0.0,-0.005660373,-0.08436861,138.13959,0.17715743,0,1,0,1,0,0,0,0,0,1,1
142836452,142836452,0.0,0.0,142836452,0.0,0.0,0.095936924,0.0,0.0,0.0,0.0,0.0,0.08419498,0.0,0.0,0.0,-0.61055017,0.0,-0.0056433682,-0.08419498,138.28351,0.1771679,0,1,0,1,0,0,0,0,0,1,1
142936739,142936739,0.0,0.0,142936739,0.0,0.0,0.09592966,0.0,0.0,0.0,0.0,0.0,0.084446006,0.0,0.0,0.0,-0.61065507,0.0,-0.0056360126,-0.084446006,138.42764,0.17717957,0,1,0,1,0,0,0,0,0,1,1
143036594,143036594,0.0,0.0,143036594,0.0,0.0,0.095909454,0.0,0.0,0.0,0.0,0.0,0.08406272,0.0,0.0,0.0,-0.61081785,0.0,-0.0056156907,-0.08406272,138.57121,0.17716114,0,1,0,1,0,0,0,0,0,1,1
143136634,143136634,0.0,0.0,143136634,0.0,0.0,0.09587753,0.0,0.0,0.0,0.0,0.0,0.08362013,0.0,0.0,0.0,-0.6110201,0.0,-0.0055836365,-0.08362013,138.71515,0.17716019,0,1,0,1,0,0,0,0,0,1,1
143236771,143236771,0.0,0.0,143236771,0.0,0.0,0.09586011,0.0,0.0,0.0,0.0,0.0,0.08375734,0.0,0.0,0.0,-0.61072487,0.0,-0.0055661094,-0.08375734,138.85931,0.17716251,0,1,0,1,0,0,0,0,0,1,1
143336906,143336906,0.0,0.0,143336906,0.0,0.0,0.095874004,0.0,0.0,0.0,0.0,0.0,0.084150165,0.0,0.0,0.0,-0.6109373,0.0,-0.005579852,-0.084150165,139.00354,0.17716357,0,1,0,1,0,0,0,0,0,1,1
143447027,143447027,0.0,0.0,143447027,0.0,0.0,0.09609985,0.0,0.0,0.0,0.0,0.0,0.08486313,0.0,0.0,0.0,-0.6110221,0.0,-0.005805543,-0.08486313,139.16223,0.17759453,0,1,0,1,0,0,0,0,0,1,1
143547195,143547195,0.0,0.0,143547195,0.0,0.0,0.09612912,0.0,0.0,0.0,0.0,0.0,0.08484574,0.0,0.0,0.0,-0.6111373,0.0,-0.0058346842,-0.08484574,139.30669,0.17760308,0,1,0,1,0,0,0,0,0,1,1
143647297,143647297,0.0,0.0,143647297,0.0,0.0,0.09611844,0.0,0.0,0.0,0.0,0.0,0.08462974,0.0,0.0,0.0,-0.61099315,0.0,-0.0058239023,-0.08462974,139.4511,0.17759995,0,1,0,1,0,0,0,0,0,1,1
143747341,143747341,0.0,0.0,143747341,0.0,0.0,0.09611346,0.0,0.0,0.0,0.0,0.0,0.08470557,0.0,0.0,0.0,-0.6110403,0.0,-0.0058188145,-0.08470557,139.59554,0.17759778,0,1,0,1,0,0,0,0,0,1,1
143847545,143847545,0.0,0.0,143847545,0.0,0.0,0.09612546,0.0,0.0,0.0,0.0,0.0,0.084609546,0.0,0.0,0.0,-0.6110249,0.0,-0.0058306875,-0.084609546,139.74026,0.1776085,0,1,0,1,0,0,0,0,0,1,1
143947665,143947665,0.0,0.0,143947665,0.0,0.0,0.096123025,0.0,0.0,0.0,0.0,0.0,0.08463359,0.0,0.0,0.0,-0.6109743,0.0,-0.005828152,-0.08463359,139.88495,0.17760687,0,1,0,1,0,0,0,0,0,1,1
144047704,144047704,0.0,0.0,144047704,0.0,0.0,0.09610692,0.0,0.0,0.0,0.0,0.0,0.08455388,0.0,0.0,0.0,-0.6108908,0.0,-0.0058119223,-0.08455388,140.0296,0.17760146,0,1,0,1,0,0,0,0,0,1,1
144157744,144157744,0.0,0.0,144157744,0.0,0.0,0.09638021,0.0,0.0,0.0,0.0,0.0,0.08507308,0.0,0.0,0.0,-0.6107574,0.0,-0.0060850335,-0.08507308,140.18883,0.17803244,0,1,0,1,0,0,0,0,0,1,1
144257789,144257789,0.0,0.0,144257789,0.0,0.0,0.09637507,0.0,0.0,0.0,0.0,0.0,0.08494202,0.0,0.0,0.0,-0.6108011,0.0,-0.0060797697,-0.08494202,140.33365,0.1780314,0,1,0,1,0,0,0,0,0,1,1
144357834,144357834,0.0,0.0,144357834,0.0,0.0,0.09641505,0.0,0.0,0.0,0.0,0.0,0.085673004,0.0,0.0,0.0,-0.61079454,0.0,-0.0061196308,-0.085673004,140.47856,0.17803133,0,1,0,1,0,0,0,0,0,1,1
144457947,144457947,0.0,0.0,144457947,0.0,0.0,0.09645185,0.0,0.0,0.0,0.0,0.0,0.08579804,0.0,0.0,0.0,-0.6106407,0.0,-0.006156322,-0.08579804,140.62364,0.17803504,0,1,0,1,0,0,0,0,0,1,1
144558165,144558165,0.0,0.0,144558165,0.0,0.0,0.09648515,0.0,0.0,0.0,0.0,0.0,0.08619517,0.0,0.0,0.0,-0.61070997,0.0,-0.0061895214,-0.08619517,140.76897,0.17804123,0,1,0,1,0,0,0,0,0,1,1
144658214,144658214,0.0,0.0,144658214,0.0,0.0,0.0964971,0.0,0.0,0.0,0.0,0.0,0.08612076,0.0,0.0,0.0,-0.61043197,0.0,-0.0062013776,-0.08612076,140.91412,0.17803642,0,1,0,1,0,0,0,0,0,1,1
144758254,144758254,0.0,0.0,144758254,0.0,0.0,0.09649042,0.0,0.0,0.0,0.0,0.0,0.08573366,0.0,0.0,0.0,-0.6105283,0.0,-0.006194599,-0.08573366,141.05934,0.17803447,0,1,0,1,0,0,0,0,0,1,1
144858408,144858408,0.0,0.0,144858408,0.0,0.0,0.096472666,0.0,0.0,0.0,0.0,0.0,0.08551397,0.0,0.0,0.0,-0.610653,0.0,-0.006176744,-0.08551397,141.2048,0.17803964,0,1,0,1,0,0,0,0,0,1,1
144968525,144968525,0.0,0.0,144968525,0.0,0.0,0.09675467,0.0,0.0,0.0,0.0,0.0,0.08516425,0.0,0.0,0.0,-0.61073375,0.0,-0.006458575,-0.08516425,141.36482,0.17847566,0,1,0,1,0,0,0,0,0,1,1
145068573,145068573,0.0,0.0,145068573,0.0,0.0,0.0967097,0.0,0.0,0.0,0.0,0.0,0.08526723,0.0,0.0,0.0,-0.61084557,0.0,-0.0064134924,-0.08526723,141.51031,0.17847231,0,1,0,1,0,0,0,0,0,1,1
145168615,145168615,0.0,0.0,145168615,0.0,0.0,0.096687205,0.0,0.0,0.0,0.0,0.0,0.084769875,0.0,0.0,0.0,-0.6107734,0.0,-0.006390865,-0.084769875,141.65585,0.17847152,0,1,0,1,0,0,0,0,0,1,1
145268658,145268658,0.0,0.0,145268658,0.0,0.0,0.09665093,0.0,0.0,0.0,0.0,0.0,0.084442206,0.0,0.0,0.0,-0.61079454,0.0,-0.0063544656,-0.084442206,141.8015,0.1784709,0,1,0,1,0,0,0,0,0,1,1
145368878,145368878,0.0,0.0,145368878,0.0,0.0,0.09660646,0.0,0.0,0.0,0.0,0.0,0.08377315,0.0,0.0,0.0,-0.61098367,0.0,-0.006309875,-0.08377315,141.94746,0.17848304,0,1,0,1,0,0,0,0,0,1,1
