timestamp,timestamp_sample,control[0],control[1],control[2],control[3],control[4],control[5],control[6],control[7]
112574774,112574307,-0.04677824,-0.09784628,-0.04372884,0.0,0.0,0.0,0.0,-1.0
112651636,112650307,-0.04691897,-0.09766439,-0.043740626,0.0,0.0,0.0,0.0,-1.0
112674781,112674307,-0.046547785,-0.09796397,-0.04360246,0.0,0.0,0.0,0.0,-1.0
112694781,112694306,-0.046893865,-0.09816965,-0.043700706,0.0,0.0,0.0,0.0,-1.0
112715597,112715108,-0.046416767,-0.09786694,-0.043713532,0.0,0.0,0.0,0.0,-1.0
112735582,112735108,-0.04683504,-0.09781811,-0.04362195,0.0,0.0,0.0,0.0,-1.0
112755601,112755108,-0.04645195,-0.0978184,-0.043675933,0.0,0.0,0.0,0.0,-1.0
112779603,112779108,-0.046811238,-0.09832601,-0.043791384,0.0,0.0,0.0,0.0,-1.0
112799575,112799108,-0.046497654,-0.09755713,-0.043793537,0.0,0.0,0.0,0.0,-1.0
112819588,112819108,-0.0465198,-0.098299205,-0.043913644,0.0,0.0,0.0,0.0,-1.0
112841607,112839907,-0.046583906,-0.09809769,-0.043754347,0.0,0.0,0.0,0.0,-1.0
112864389,112863915,-0.046157025,-0.097681455,-0.04392271,0.0,0.0,0.0,0.0,-1.0
112884374,112883900,-0.04645215,-0.09808844,-0.043963604,0.0,0.0,0.0,0.0,-1.0
112904369,112903907,-0.046513893,-0.09732643,-0.04393332,0.0,0.0,0.0,0.0,-1.0
112924435,112923901,-0.04662163,-0.0978838,-0.04385173,0.0,0.0,0.0,0.0,-1.0
112948358,112947908,-0.046659734,-0.09745521,-0.043955576,0.0,0.0,0.0,0.0,-1.0
112969205,112968707,-0.0468707,-0.09797806,-0.04377411,0.0,0.0,0.0,0.0,-1.0
112989187,112988707,-0.045972124,-0.097930565,-0.04385719,0.0,0.0,0.0,0.0,-1.0
113009219,113008707,-0.046777226,-0.0980729,-0.0440016,0.0,0.0,0.0,0.0,-1.0
113029385,113028707,-0.04642821,-0.09793492,-0.043829463,0.0,0.0,0.0,0.0,-1.0
113053196,113052706,-0.046570543,-0.09758012,-0.044097405,0.0,0.0,0.0,0.0,-1.0
113073197,113072707,-0.04674716,-0.098704554,-0.043817934,0.0,0.0,0.0,0.0,-1.0
113093188,113092707,-0.046370104,-0.09762499,-0.044129837,0.0,0.0,0.0,0.0,-1.0
113113975,113113507,-0.046830777,-0.09747946,-0.044062395,0.0,0.0,0.0,0.0,-1.0
113133988,113133507,-0.046373263,-0.0978443,-0.043912705,0.0,0.0,0.0,0.0,-1.0
113158063,113157552,-0.04618868,-0.09787245,-0.04414631,0.0,0.0,0.0,0.0,-1.0
113177991,113177507,-0.04614235,-0.09763563,-0.044128675,0.0,0.0,0.0,0.0,-1.0
113197995,113197506,-0.04666191,-0.098244384,-0.044104654,0.0,0.0,0.0,0.0,-1.0
113218004,113217507,-0.046492323,-0.09842306,-0.044134114,0.0,0.0,0.0,0.0,-1.0
113238792,113238307,-0.04659559,-0.097658254,-0.043972842,0.0,0.0,0.0,0.0,-1.0
113262801,113262307,-0.046623506,-0.09807467,-0.04394935,0.0,0.0,0.0,0.0,-1.0
113282796,113282307,-0.046575863,-0.097813316,-0.04402296,0.0,0.0,0.0,0.0,-1.0
113302782,113302307,-0.046534,-0.09766895,-0.04401013,0.0,0.0,0.0,0.0,-1.0
113322777,113322307,-0.046458375,-0.09815169,-0.043834563,0.0,0.0,0.0,0.0,-1.0
113346779,113346307,-0.046328973,-0.09794248,-0.043913465,0.0,0.0,0.0,0.0,-1.0
113366775,113366306,-0.04653832,-0.09813239,-0.04408055,0.0,0.0,0.0,0.0,-1.0
113387543,113387108,-0.046240017,-0.097677596,-0.04409426,0.0,0.0,0.0,0.0,-1.0
113407544,113407108,-0.046693426,-0.09815247,-0.044127785,0.0,0.0,0.0,0.0,-1.0
113427545,113427108,-0.0462108,-0.09763613,-0.04410528,0.0,0.0,0.0,0.0,-1.0
113451885,113451109,-0.04671116,-0.097734444,-0.04389581,0.0,0.0,0.0,0.0,-1.0
113472001,113471108,-0.04642634,-0.09787343,-0.043955952,0.0,0.0,0.0,0.0,-1.0
113492198,113491108,-0.046396375,-0.09774731,-0.043894824,0.0,0.0,0.0,0.0,-1.0
113512500,113511907,-0.046357345,-0.09802383,-0.043878745,0.0,0.0,0.0,0.0,-1.0
113536422,113535917,-0.04644407,-0.0979683,-0.044092968,0.0,0.0,0.0,0.0,-1.0
113556377,113555900,-0.046622656,-0.098152116,-0.044049174,0.0,0.0,0.0,0.0,-1.0
113576376,113575906,-0.046564657,-0.09782562,-0.04421584,0.0,0.0,0.0,0.0,-1.0
113596483,113595901,-0.04639294,-0.09793984,-0.044193096,0.0,0.0,0.0,0.0,-1.0
113620395,113619909,-0.046582203,-0.097694136,-0.04425116,0.0,0.0,0.0,0.0,-1.0
113636367,113635901,-0.046538904,-0.097973876,-0.04417049,0.0,0.0,0.0,0.0,-1.0
113662256,113660707,-0.046597593,-0.09782804,-0.044394758,0.0,0.0,0.0,0.0,-1.0
113682234,113680710,-0.046240248,-0.09807722,-0.0442588,0.0,0.0,0.0,0.0,-1.0
113702711,113700707,-0.046495073,-0.0978724,-0.044172462,0.0,0.0,0.0,0.0,-1.0
113725219,113724706,-0.04643135,-0.09749736,-0.044364765,0.0,0.0,0.0,0.0,-1.0
113745192,113744707,-0.045721162,-0.097307615,-0.04425175,0.0,0.0,0.0,0.0,-1.0
113765191,113764707,-0.046502348,-0.09778265,-0.044369,0.0,0.0,0.0,0.0,-1.0
113785972,113785507,-0.046237703,-0.09799918,-0.044494964,0.0,0.0,0.0,0.0,-1.0
113805974,113805506,-0.046362612,-0.098337136,-0.04437406,0.0,0.0,0.0,0.0,-1.0
113829993,113829554,-0.046644688,-0.09802237,-0.044327993,0.0,0.0,0.0,0.0,-1.0
113849955,113849507,-0.04628196,-0.097771816,-0.044427693,0.0,0.0,0.0,0.0,-1.0
113869945,113869510,-0.04642557,-0.097925104,-0.04456662,0.0,0.0,0.0,0.0,-1.0
113889948,113889506,-0.046462014,-0.09769306,-0.044543345,0.0,0.0,0.0,0.0,-1.0
113910784,113910307,-0.04654107,-0.09849678,-0.044478234,0.0,0.0,0.0,0.0,-1.0
113934801,113934306,-0.04642917,-0.09760889,-0.04450632,0.0,0.0,0.0,0.0,-1.0
113954771,113954307,-0.046216745,-0.0980395,-0.044286057,0.0,0.0,0.0,0.0,-1.0
113974771,113974307,-0.046769436,-0.09823241,-0.044454478,0.0,0.0,0.0,0.0,-1.0
113994826,113994307,-0.0462959,-0.09786359,-0.044422474,0.0,0.0,0.0,0.0,-1.0
114018827,114018307,-0.046602137,-0.09810895,-0.044414964,0.0,0.0,0.0,0.0,-1.0
114038794,114038307,-0.04641891,-0.09765918,-0.044384982,0.0,0.0,0.0,0.0,-1.0
114059606,114059108,-0.04609971,-0.09779836,-0.04455049,0.0,0.0,0.0,0.0,-1.0
114079593,114079108,-0.046417236,-0.097995386,-0.044340413,0.0,0.0,0.0,0.0,-1.0
114099588,114099108,-0.04662091,-0.09766096,-0.04452904,0.0,0.0,0.0,0.0,-1.0
114123594,114123110,-0.046488434,-0.09827246,-0.04449817,0.0,0.0,0.0,0.0,-1.0
114143585,114143108,-0.046302844,-0.097691804,-0.044541497,0.0,0.0,0.0,0.0,-1.0
114163576,114163112,-0.045851503,-0.09784355,-0.044433724,0.0,0.0,0.0,0.0,-1.0
114184509,114183907,-0.046802975,-0.09798459,-0.044417173,0.0,0.0,0.0,0.0,-1.0
114208389,114207906,-0.046142858,-0.097813025,-0.044637494,0.0,0.0,0.0,0.0,-1.0
114228376,114227901,-0.046537306,-0.09800423,-0.04454381,0.0,0.0,0.0,0.0,-1.0
114248385,114247906,-0.04628562,-0.097401775,-0.044546597,0.0,0.0,0.0,0.0,-1.0
114268549,114267901,-0.046431128,-0.09769756,-0.044527348,0.0,0.0,0.0,0.0,-1.0
114288345,114287907,-0.0463445,-0.09799171,-0.044564705,0.0,0.0,0.0,0.0,-1.0
114312891,114311907,-0.046020385,-0.098201275,-0.044655304,0.0,0.0,0.0,0.0,-1.0
114333214,114332711,-0.04683646,-0.09788988,-0.044595238,0.0,0.0,0.0,0.0,-1.0
114353209,114352710,-0.046085186,-0.09772048,-0.04442527,0.0,0.0,0.0,0.0,-1.0
114373418,114372707,-0.0463538,-0.09772573,-0.044308368,0.0,0.0,0.0,0.0,-1.0
114397209,114396709,-0.04624743,-0.09743118,-0.04457755,0.0,0.0,0.0,0.0,-1.0
114417207,114416707,-0.046567503,-0.09804443,-0.044696968,0.0,0.0,0.0,0.0,-1.0
114437183,114436707,-0.04621383,-0.0979836,-0.04440796,0.0,0.0,0.0,0.0,-1.0
114457972,114457507,-0.04612766,-0.09811147,-0.04463526,0.0,0.0,0.0,0.0,-1.0
114477978,114477507,-0.045905806,-0.09755546,-0.04467341,0.0,0.0,0.0,0.0,-1.0
114497968,114497507,-0.046620004,-0.09777017,-0.04450413,0.0,0.0,0.0,0.0,-1.0
114523257,114521521,-0.046543576,-0.09772578,-0.044565868,0.0,0.0,0.0,0.0,-1.0
114543193,114541529,-0.046151657,-0.09770223,-0.044486564,0.0,0.0,0.0,0.0,-1.0
114563376,114561537,-0.04636008,-0.09744076,-0.04454456,0.0,0.0,0.0,0.0,-1.0
114583406,114581545,-0.046016607,-0.09793246,-0.044638257,0.0,0.0,0.0,0.0,-1.0
114606811,114606307,-0.044590764,-0.099373564,-0.04457938,0.0,0.0,0.0,0.0,-1.0
114626793,114626307,-0.045575585,-0.098386675,-0.044729244,0.0,0.0,0.0,0.0,-1.0
114646791,114646307,-0.046411894,-0.097840235,-0.04475404,0.0,0.0,0.0,0.0,-1.0
114666797,114666307,-0.0470358,-0.09755581,-0.04461405,0.0,0.0,0.0,0.0,-1.0
114690794,114690307,-0.046376884,-0.0977775,-0.04485795,0.0,0.0,0.0,0.0,-1.0
114710766,114710307,-0.046650052,-0.09792529,-0.044462353,0.0,0.0,0.0,0.0,-1.0
114731546,114731108,-0.046314176,-0.09835177,-0.044577103,0.0,0.0,0.0,0.0,-1.0
114751573,114751120,-0.04646089,-0.09714046,-0.04458946,0.0,0.0,0.0,0.0,-1.0
114771551,114771108,-0.04590117,-0.09823868,-0.04468896,0.0,0.0,0.0,0.0,-1.0
114795572,114795108,-0.04639951,-0.09757037,-0.04462208,0.0,0.0,0.0,0.0,-1.0
114815548,114815108,-0.04583709,-0.09784061,-0.044704076,0.0,0.0,0.0,0.0,-1.0
114835597,114835108,-0.046452217,-0.0980743,-0.04458862,0.0,0.0,0.0,0.0,-1.0
114856607,114855907,-0.052984733,-0.091700934,-0.044022445,0.0,0.0,0.0,0.0,-1.0
114880409,114879913,-0.11100507,0.111814484,-0.031737488,0.0,0.0,0.0,0.0,-1.0
114900413,114899900,-0.032573286,-0.06020371,-0.00080516044,0.0,0.0,0.0,0.0,-1.0
114920402,114919906,-0.030556891,-0.0821396,0.00912562,0.0,0.0,0.0,0.0,-1.0
114940541,114939904,-0.05418184,-0.08150381,0.022591133,0.0,0.0,0.0,0.0,-1.0
114964388,114963900,-0.045028847,-0.090176426,-0.020203779,0.0,0.0,0.0,0.0,-1.0
114984377,114983907,-0.056207538,-0.086986564,-0.026792264,0.0,0.0,0.0,0.0,-1.0
115005182,115004707,-0.058780096,-0.0860889,-0.025572866,0.0,0.0,0.0,0.0,-1.0
115025184,115024707,-0.048665106,-0.083113514,-0.0014522106,0.0,0.0,0.0,0.0,-1.0
115045371,115044706,-0.030351872,-0.08224211,0.035055768,0.0,0.0,0.0,0.0,-1.0
115069190,115068706,-0.06461749,-0.081420965,0.031039953,0.0,0.0,0.0,0.0,-1.0
115089189,115088706,-0.03894077,-0.089238256,0.015305618,0.0,0.0,0.0,0.0,-1.0
115109215,115108708,-0.08113916,-0.08751183,-0.02763359,0.0,0.0,0.0,0.0,-1.0
115129945,115129507,-0.09026469,-0.09090796,-0.059447,0.0,0.0,0.0,0.0,-1.0
115149981,115149506,-0.071693145,0.007466208,-0.10847491,0.0,0.0,0.0,0.0,-1.0
115174003,115173546,0.025031362,-0.061989974,-0.09941715,0.0,0.0,0.0,0.0,-1.0
115193971,115193516,-0.0015702546,0.0034564044,-0.0898987,0.0,0.0,0.0,0.0,-1.0
115213961,115213507,0.015551732,-0.059381522,-0.08983404,0.0,0.0,0.0,0.0,-1.0
115233948,115233507,-0.041771203,0.007999484,-0.061776917,0.0,0.0,0.0,0.0,-1.0
115258235,115257506,-0.12818086,-0.17861952,-0.07582926,0.0,0.0,0.0,0.0,-1.0
115278792,115278307,-0.14881176,-0.15144077,-0.08786875,0.0,0.0,0.0,0.0,-1.0
115298771,115298307,-0.1910827,-0.20547856,-0.17620592,0.0,0.0,0.0,0.0,-1.0
115318797,115318306,-0.07448226,0.16386256,-0.22973835,0.0,0.0,0.0,0.0,-1.0
115338796,115338307,0.03667306,0.033685822,-0.17553495,0.0,0.0,0.0,0.0,-1.0
115358768,115358307,0.096935704,0.05149348,-0.17808747,0.0,0.0,0.0,0.0,-1.0
115383855,115382320,0.12280916,0.07887183,-0.17974351,0.0,0.0,0.0,0.0,-1.0
115403860,115403108,0.03906358,0.050223894,-0.14498426,0.0,0.0,0.0,0.0,-1.0
115424062,115423108,0.06280554,0.09875044,-0.124003224,0.0,0.0,0.0,0.0,-1.0
115443843,115443108,0.09503229,0.097092405,-0.12996489,0.0,0.0,0.0,0.0,-1.0
115467620,115467116,0.07212636,0.10518692,-0.14425667,0.0,0.0,0.0,0.0,-1.0
115487559,115487108,-0.038230196,0.12352088,-0.16315877,0.0,0.0,0.0,0.0,-1.0
115507591,115507108,-0.11887557,0.12677364,-0.20738482,0.0,0.0,0.0,0.0,-1.0
115527604,115527108,-0.0872039,0.16940989,-0.23391591,0.0,0.0,0.0,0.0,-1.0
115552394,115551907,-0.19527096,0.18083471,-0.19600296,0.0,0.0,0.0,0.0,-1.0
115576378,115575907,-0.20376416,0.12219789,-0.20081596,0.0,0.0,0.0,0.0,-1.0
115596396,115595900,-0.27194273,0.061134502,-0.20358042,0.0,0.0,0.0,0.0,-1.0
115616411,115615906,-0.2776028,0.07002102,-0.2564281,0.0,0.0,0.0,0.0,-1.0
115636375,115635901,-0.31814638,0.09589611,-0.29349366,0.0,0.0,0.0,0.0,-1.0
115657165,115656707,-0.31724876,0.13501738,-0.32158396,0.0,0.0,0.0,0.0,-1.0
115681178,115680707,-0.45057338,0.09103973,-0.3331558,0.0,0.0,0.0,0.0,-1.0
115701193,115700706,-0.46135077,0.0940606,-0.34884357,0.0,0.0,0.0,0.0,-1.0
115721193,115720707,-0.42587844,0.031210102,-0.30454177,0.0,0.0,0.0,0.0,-1.0
115741242,115740707,-0.48398158,0.0096941255,-0.29178175,0.0,0.0,0.0,0.0,-1.0
115765195,115764708,-0.3446766,0.14283516,-0.2892989,0.0,0.0,0.0,0.0,-1.0
115785202,115784707,-0.37376833,0.00037403777,-0.27204973,0.0,0.0,0.0,0.0,-1.0
115805975,115805507,-0.3542324,0.06650733,-0.27648422,0.0,0.0,0.0,0.0,-1.0
115825973,115825507,-0.33591965,0.013379529,-0.24936748,0.0,0.0,0.0,0.0,-1.0
115849998,115849507,-0.42113498,-0.04555539,-0.23430204,0.0,0.0,0.0,0.0,-1.0
115869965,115869507,-0.28309804,-0.019326711,-0.2033379,0.0,0.0,0.0,0.0,-1.0
115889969,115889506,-0.21547884,-0.050798174,-0.16290115,0.0,0.0,0.0,0.0,-1.0
115909978,115909516,-0.14122047,-0.076331735,-0.14192753,0.0,0.0,0.0,0.0,-1.0
115929967,115929507,-0.07094195,-0.093685664,-0.09304985,0.0,0.0,0.0,0.0,-1.0
115954842,115954307,0.006216403,-0.051434286,-0.014708328,0.0,0.0,0.0,0.0,-1.0
115974792,115974307,0.07280652,-0.14396152,0.042809416,0.0,0.0,0.0,0.0,-1.0
115994804,115994307,0.12021638,-0.12017496,0.052804735,0.0,0.0,0.0,0.0,-1.0
116015143,116014306,0.09302213,-0.12693343,0.04165789,0.0,0.0,0.0,0.0,-1.0
116038772,116038306,0.14290209,-0.12377566,0.077567436,0.0,0.0,0.0,0.0,-1.0
116058784,116058307,0.18560253,-0.1701557,0.0984542,0.0,0.0,0.0,0.0,-1.0
116079544,116079108,0.19721434,-0.14885125,0.13382502,0.0,0.0,0.0,0.0,-1.0
116099568,116099109,0.20011935,-0.11509128,0.14990143,0.0,0.0,0.0,0.0,-1.0
116119728,116119108,0.2806225,-0.1558095,0.16788922,0.0,0.0,0.0,0.0,-1.0
116139541,116139108,0.33470297,-0.17164487,0.15721999,0.0,0.0,0.0,0.0,-1.0
116164404,116163108,0.28687915,-0.1120926,0.14230189,0.0,0.0,0.0,0.0,-1.0
116184564,116183108,0.3039168,-0.140791,0.12150415,0.0,0.0,0.0,0.0,-1.0
116204620,116203108,0.30635995,-0.07320653,0.1429656,0.0,0.0,0.0,0.0,-1.0
116224613,116223907,0.24667834,-0.039330833,0.1273167,0.0,0.0,0.0,0.0,-1.0
116248459,116247947,0.3126747,-0.0049077533,0.0962131,0.0,0.0,0.0,0.0,-1.0
116268388,116267901,0.33821884,-0.043185893,0.10938277,0.0,0.0,0.0,0.0,-1.0
116288417,116287907,0.36441448,-0.018156003,0.111789964,0.0,0.0,0.0,0.0,-1.0
116308393,116307901,0.3378977,0.026352756,0.094033636,0.0,0.0,0.0,0.0,-1.0
116332388,116331902,0.2574108,0.066731475,0.05964453,0.0,0.0,0.0,0.0,-1.0
116354263,116352707,0.26980668,0.1282551,0.032520004,0.0,0.0,0.0,0.0,-1.0
116374239,116372707,0.22065894,0.16094291,0.035262465,0.0,0.0,0.0,0.0,-1.0
116393185,116392707,0.19888297,0.13439466,0.008900901,0.0,0.0,0.0,0.0,-1.0
116413199,116412706,0.14136855,0.17670596,-0.034632392,0.0,0.0,0.0,0.0,-1.0
116437186,116436707,0.041567743,0.21197018,-0.092656605,0.0,0.0,0.0,0.0,-1.0
116457178,116456709,0.07598436,0.09049781,-0.11948597,0.0,0.0,0.0,0.0,-1.0
116477985,116477507,0.061011653,0.15066223,-0.16261585,0.0,0.0,0.0,0.0,-1.0
116497960,116497517,-0.047294177,0.22711359,-0.20111676,0.0,0.0,0.0,0.0,-1.0
116522002,116521507,-0.12682492,0.19295491,-0.2247478,0.0,0.0,0.0,0.0,-1.0
116541957,116541507,-0.10802704,0.19293523,-0.23409913,0.0,0.0,0.0,0.0,-1.0
116561968,116561507,-0.108258545,0.122537054,-0.21514581,0.0,0.0,0.0,0.0,-1.0
116581978,116581507,-0.17496122,0.109977484,-0.20774339,0.0,0.0,0.0,0.0,-1.0
116605956,116605507,-0.23822014,0.1699383,-0.2501664,0.0,0.0,0.0,0.0,-1.0
116626785,116626307,-0.3207798,0.15672885,-0.2882659,0.0,0.0,0.0,0.0,-1.0
116646772,116646307,-0.26374483,0.13116157,-0.28151327,0.0,0.0,0.0,0.0,-1.0
116666768,116666307,-0.2085711,0.14204527,-0.25936314,0.0,0.0,0.0,0.0,-1.0
116686968,116686306,-0.384445,0.09868057,-0.28320342,0.0,0.0,0.0,0.0,-1.0
116710786,116710306,-0.5106593,0.09994195,-0.30222183,0.0,0.0,0.0,0.0,-1.0
116730768,116730308,-0.51087093,0.085284784,-0.3262554,0.0,0.0,0.0,0.0,-1.0
116751613,116751107,-0.32557428,0.14066613,-0.3135777,0.0,0.0,0.0,0.0,-1.0
116771577,116771108,-0.35607642,0.09492498,-0.30270573,0.0,0.0,0.0,0.0,-1.0
116791789,116791108,-0.4612045,0.04910832,-0.3240163,0.0,0.0,0.0,0.0,-1.0
116815610,116815109,-0.39313728,0.0766638,-0.29275283,0.0,0.0,0.0,0.0,-1.0
116835595,116835108,-0.3685657,0.035187185,-0.2335143,0.0,0.0,0.0,0.0,-1.0
116855602,116855114,-0.33133036,-0.011855619,-0.13035257,0.0,0.0,0.0,0.0,-1.0
116875779,116875108,-0.22490257,-0.019459948,-0.06198391,0.0,0.0,0.0,0.0,-1.0
116896415,116895906,-0.04327075,-0.02079454,-0.024355222,0.0,0.0,0.0,0.0,-1.0
116920427,116919940,0.041078657,-0.033850208,-0.019758737,0.0,0.0,0.0,0.0,-1.0
116940376,116939900,0.08403119,-0.015331546,0.026787376,0.0,0.0,0.0,0.0,-1.0
116960405,116959906,0.13209309,0.016396651,0.0690436,0.0,0.0,0.0,0.0,-1.0
116980390,116979908,0.18885446,-0.05623019,0.12857871,0.0,0.0,0.0,0.0,-1.0
117001169,117000707,0.27068186,-0.09825676,0.1759479,0.0,0.0,0.0,0.0,-1.0
117025331,117024718,0.31779647,-0.12735663,0.22448657,0.0,0.0,0.0,0.0,-1.0
117045302,117044715,0.34686857,-0.14258318,0.22844489,0.0,0.0,0.0,0.0,-1.0
117065539,117064708,0.38411948,-0.062367477,0.27034053,0.0,0.0,0.0,0.0,-1.0
117085283,117084714,0.2710542,-0.030008972,0.2634854,0.0,0.0,0.0,0.0,-1.0
117109183,117108707,0.34998342,-0.11592696,0.25622663,0.0,0.0,0.0,0.0,-1.0
117129167,117128708,0.33796638,-0.13204269,0.25330582,0.0,0.0,0.0,0.0,-1.0
117149206,117148707,0.34209827,-0.1504009,0.21162835,0.0,0.0,0.0,0.0,-1.0
117170066,117169507,0.45387423,-0.14167073,0.23211785,0.0,0.0,0.0,0.0,-1.0
117195329,117193507,0.43384057,-0.15339524,0.2623403,0.0,0.0,0.0,0.0,-1.0
117217981,117217507,0.41224268,-0.14254126,0.27226302,0.0,0.0,0.0,0.0,-1.0
117237974,117237507,0.3863373,-0.120471455,0.2603869,0.0,0.0,0.0,0.0,-1.0
117257974,117257507,0.34573275,-0.04966238,0.23805037,0.0,0.0,0.0,0.0,-1.0
117277986,117277507,0.30293417,0.0013625771,0.22531453,0.0,0.0,0.0,0.0,-1.0
117298770,117298307,0.3376385,-0.06874218,0.20067404,0.0,0.0,0.0,0.0,-1.0
117322798,117322307,0.3929299,-0.07166531,0.2043875,0.0,0.0,0.0,0.0,-1.0
117342794,117342313,0.37837526,-0.012205612,0.1715616,0.0,0.0,0.0,0.0,-1.0
117362795,117362307,0.2356237,0.06496986,0.09533246,0.0,0.0,0.0,0.0,-1.0
117382800,117382307,0.105071485,0.1174157,0.018579543,0.0,0.0,0.0,0.0,-1.0
117406792,117406307,-0.04387542,0.107961565,-0.100946926,0.0,0.0,0.0,0.0,-1.0
117427577,117427108,-0.05284988,0.09868397,-0.18410145,0.0,0.0,0.0,0.0,-1.0
117447552,117447108,-0.1975179,0.09855112,-0.24475777,0.0,0.0,0.0,0.0,-1.0
117467567,117467115,-0.09936023,0.08453287,-0.3106713,0.0,0.0,0.0,0.0,-1.0
117487541,117487108,-0.18967119,0.09507742,-0.2836438,0.0,0.0,0.0,0.0,-1.0
117511554,117511108,-0.2675245,0.12070117,-0.31056067,0.0,0.0,0.0,0.0,-1.0
117531546,117531110,-0.20421818,0.14025877,-0.2589248,0.0,0.0,0.0,0.0,-1.0
117551549,117551108,-0.19392577,0.01325459,-0.22010608,0.0,0.0,0.0,0.0,-1.0
117572500,117571901,-0.21503484,0.07511594,-0.23001151,0.0,0.0,0.0,0.0,-1.0
117596414,117595900,-0.14297238,0.06454174,-0.20884697,0.0,0.0,0.0,0.0,-1.0
117616404,117615907,-0.19217028,0.0031834096,-0.16802832,0.0,0.0,0.0,0.0,-1.0
117636407,117635900,-0.24916543,0.028646044,-0.15080778,0.0,0.0,0.0,0.0,-1.0
117656491,117655907,-0.19250123,0.03866781,-0.11672659,0.0,0.0,0.0,0.0,-1.0
117680412,117679934,-0.17160352,-0.010186071,-0.061966605,0.0,0.0,0.0,0.0,-1.0
117701252,117700747,-0.19463456,-0.067677036,-0.029303664,0.0,0.0,0.0,0.0,-1.0
117721201,117720707,-0.1886006,-0.10954236,-0.036371924,0.0,0.0,0.0,0.0,-1.0
117741241,117740713,-0.06720652,-0.08793851,0.024422819,0.0,0.0,0.0,0.0,-1.0
117761450,117760706,-0.105296984,0.014706641,0.0002976358,0.0,0.0,0.0,0.0,-1.0
117781180,117780707,-0.010554291,-0.044491697,0.055263687,0.0,0.0,0.0,0.0,-1.0
117806011,117804707,0.020158235,0.09545957,0.07241027,0.0,0.0,0.0,0.0,-1.0
117825929,117824707,-0.06373833,-0.25481367,0.09055257,0.0,0.0,0.0,0.0,-1.0
117846103,117845507,0.03162301,0.023582071,0.13341875,0.0,0.0,0.0,0.0,-1.0
117865992,117865507,0.08996001,-0.033344775,0.09199657,0.0,0.0,0.0,0.0,-1.0
117890047,117889552,-0.039937157,-0.26149243,0.10448847,0.0,0.0,0.0,0.0,-1.0
117909997,117909508,-0.042017065,-0.0327555,0.11578258,0.0,0.0,0.0,0.0,-1.0
117929984,117929508,-0.0405043,-0.054063965,0.060528822,0.0,0.0,0.0,0.0,-1.0
117949996,117949511,-0.04358024,-0.14669102,0.0870071,0.0,0.0,0.0,0.0,-1.0
117970795,117970307,-0.03176522,-0.103867754,0.09712324,0.0,0.0,0.0,0.0,-1.0
117990787,117990307,-0.11849995,-0.17656209,0.06870156,0.0,0.0,0.0,0.0,-1.0
118016231,118014307,0.07411397,0.052884072,0.058447327,0.0,0.0,0.0,0.0,-1.0
118036111,118034307,-0.11232762,-0.15908101,0.05221343,0.0,0.0,0.0,0.0,-1.0
118056362,118054306,-0.07728347,-0.1282161,0.041023713,0.0,0.0,0.0,0.0,-1.0
118078786,118078307,-0.0013217926,-0.092876025,0.031708118,0.0,0.0,0.0,0.0,-1.0
118099616,118099108,-0.04424315,-0.12845357,0.040806048,0.0,0.0,0.0,0.0,-1.0
118119544,118119108,-0.09186646,-0.113020524,0.035675224,0.0,0.0,0.0,0.0,-1.0
118139540,118139108,-0.10576114,-0.07199639,0.030117875,0.0,0.0,0.0,0.0,-1.0
118159540,118159108,-0.39350277,-0.09345346,0.02512068,0.0,0.0,0.0,0.0,-1.0
118183599,118183108,0.2011423,0.17927995,-0.051133048,0.0,0.0,0.0,0.0,-1.0
118203605,118203110,-0.16370864,-0.39470744,-0.050975718,0.0,0.0,0.0,0.0,-1.0
118223598,118223108,-0.022626631,0.034797773,-0.018877644,0.0,0.0,0.0,0.0,-1.0
118244565,118243901,-0.017459141,-0.13078773,-0.029012902,0.0,0.0,0.0,0.0,-1.0
118268393,118267900,-0.045375295,-0.1250684,0.0038368502,0.0,0.0,0.0,0.0,-1.0
118288388,118287906,-0.051008426,-0.08245218,-0.02687564,0.0,0.0,0.0,0.0,-1.0
118308368,118307900,-0.11027455,0.009013988,-0.12791976,0.0,0.0,0.0,0.0,-1.0
118328540,118327907,0.0045148954,-0.15329543,-0.13141192,0.0,0.0,0.0,0.0,-1.0
118352379,118351907,-0.0026334648,-0.16705537,-0.01781702,0.0,0.0,0.0,0.0,-1.0
118373147,118372706,-0.0061235,-0.1335427,-0.009560012,0.0,0.0,0.0,0.0,-1.0
118393147,118392707,-0.052290767,-0.0883024,-0.01068613,0.0,0.0,0.0,0.0,-1.0
118413147,118412707,-0.08247146,-0.056840777,-0.015872933,0.0,0.0,0.0,0.0,-1.0
118433375,118432706,-0.08753393,-0.050699525,-0.01986915,0.0,0.0,0.0,0.0,-1.0
118457182,118456707,-0.06916224,-0.07159519,-0.020823047,0.0,0.0,0.0,0.0,-1.0
118477194,118476709,-0.049413048,-0.09309459,-0.019343123,0.0,0.0,0.0,0.0,-1.0
118497168,118496707,-0.03231322,-0.11286843,-0.0166387,0.0,0.0,0.0,0.0,-1.0
118517989,118517507,-0.021553338,-0.12444919,-0.013893403,0.0,0.0,0.0,0.0,-1.0
118537995,118537507,-0.024872439,-0.12079821,-0.012633507,0.0,0.0,0.0,0.0,-1.0
118562006,118561545,-0.03713416,-0.10673584,-0.012904725,0.0,0.0,0.0,0.0,-1.0
118581987,118581506,-0.052378684,-0.08957626,-0.014671164,0.0,0.0,0.0,0.0,-1.0
118601975,118601508,-0.06351638,-0.07767025,-0.016377227,0.0,0.0,0.0,0.0,-1.0
118621987,118621507,-0.061939843,-0.07925555,-0.017907813,0.0,0.0,0.0,0.0,-1.0
118642745,118642307,-0.054292835,-0.08847298,-0.017922333,0.0,0.0,0.0,0.0,-1.0
118666829,118666307,-0.043079756,-0.0998843,-0.016745867,0.0,0.0,0.0,0.0,-1.0
118686792,118686316,-0.036723293,-0.107801646,-0.0156016005,0.0,0.0,0.0,0.0,-1.0
118706907,118706307,-0.034939434,-0.10933535,-0.014757096,0.0,0.0,0.0,0.0,-1.0
118727194,118726307,-0.03825707,-0.105914906,-0.014561339,0.0,0.0,0.0,0.0,-1.0
118750804,118750307,-0.045163743,-0.09688433,-0.0151831955,0.0,0.0,0.0,0.0,-1.0
118770776,118770307,-0.052270826,-0.09024598,-0.016033417,0.0,0.0,0.0,0.0,-1.0
118791605,118791108,-0.05440552,-0.08781809,-0.01671957,0.0,0.0,0.0,0.0,-1.0
118811557,118811108,-0.050762642,-0.091630965,-0.0170255,0.0,0.0,0.0,0.0,-1.0
118831564,118831108,-0.046375006,-0.09608702,-0.016730204,0.0,0.0,0.0,0.0,-1.0
118851557,118851108,-0.042539146,-0.10123985,-0.016342556,0.0,0.0,0.0,0.0,-1.0
118876674,118875122,-0.041047536,-0.1025949,-0.015743254,0.0,0.0,0.0,0.0,-1.0
118896803,118895108,-0.040824525,-0.10270293,-0.015601081,0.0,0.0,0.0,0.0,-1.0
118916967,118915901,-0.043832287,-0.0993644,-0.015578779,0.0,0.0,0.0,0.0,-1.0
118940401,118939901,-0.048517678,-0.09360524,-0.016232923,0.0,0.0,0.0,0.0,-1.0
118960380,118959907,-0.05009145,-0.09265664,-0.016748218,0.0,0.0,0.0,0.0,-1.0
118980388,118979915,-0.048509337,-0.09400145,-0.016797133,0.0,0.0,0.0,0.0,-1.0
119000493,118999907,-0.045161486,-0.0976524,-0.01660574,0.0,0.0,0.0,0.0,-1.0
119024431,119023906,-0.043162107,-0.100153625,-0.016525296,0.0,0.0,0.0,0.0,-1.0
119045246,119044747,-0.0423737,-0.10070357,-0.016190846,0.0,0.0,0.0,0.0,-1.0
119069187,119068707,-0.043269094,-0.099946305,-0.016157007,0.0,0.0,0.0,0.0,-1.0
119089184,119088707,-0.045330487,-0.09694965,-0.016071279,0.0,0.0,0.0,0.0,-1.0
119109199,119108717,-0.047914155,-0.09490566,-0.016509933,0.0,0.0,0.0,0.0,-1.0
119129177,119128707,-0.04709514,-0.095205925,-0.016637607,0.0,0.0,0.0,0.0,-1.0
119153220,119152707,-0.046267368,-0.09677152,-0.016592342,0.0,0.0,0.0,0.0,-1.0
119173215,119172706,-0.044831835,-0.098678775,-0.016537203,0.0,0.0,0.0,0.0,-1.0
119193985,119193507,-0.04361454,-0.0998134,-0.016366614,0.0,0.0,0.0,0.0,-1.0
119214025,119213507,-0.04340843,-0.09976199,-0.016281595,0.0,0.0,0.0,0.0,-1.0
119238003,119237507,-0.044438466,-0.09837126,-0.01619671,0.0,0.0,0.0,0.0,-1.0
119258000,119257507,-0.04569837,-0.09702191,-0.016463144,0.0,0.0,0.0,0.0,-1.0
119277998,119277507,-0.046346955,-0.09630307,-0.016527934,0.0,0.0,0.0,0.0,-1.0
119298062,119297507,-0.04583997,-0.09692353,-0.01657692,0.0,0.0,0.0,0.0,-1.0
119318990,119318306,-0.045279417,-0.097356305,-0.016697971,0.0,0.0,0.0,0.0,-1.0
119342753,119342306,-0.044134364,-0.099066965,-0.016634244,0.0,0.0,0.0,0.0,-1.0
119362774,119362307,-0.043706294,-0.099147044,-0.016727468,0.0,0.0,0.0,0.0,-1.0
119382782,119382306,-0.044165734,-0.09884169,-0.016506312,0.0,0.0,0.0,0.0,-1.0
119403150,119402307,-0.04491201,-0.09785722,-0.016465774,0.0,0.0,0.0,0.0,-1.0
119422776,119422307,-0.04522171,-0.09800895,-0.016598623,0.0,0.0,0.0,0.0,-1.0
119447318,119446307,-0.044900965,-0.09727331,-0.01679988,0.0,0.0,0.0,0.0,-1.0
119467610,119467113,-0.044719387,-0.098219745,-0.016936725,0.0,0.0,0.0,0.0,-1.0
119487669,119487111,-0.04452649,-0.09849135,-0.016940923,0.0,0.0,0.0,0.0,-1.0
119508034,119507108,-0.04412939,-0.09850902,-0.016710972,0.0,0.0,0.0,0.0,-1.0
119531601,119531115,-0.044991877,-0.09835642,-0.016834088,0.0,0.0,0.0,0.0,-1.0
119551593,119551108,-0.04450361,-0.09801309,-0.016721666,0.0,0.0,0.0,0.0,-1.0
119571593,119571108,-0.044823654,-0.09820279,-0.016892595,0.0,0.0,0.0,0.0,-1.0
119592405,119591906,-0.045114543,-0.09768661,-0.016967392,0.0,0.0,0.0,0.0,-1.0
119612392,119611901,-0.04456575,-0.098120585,-0.016849572,0.0,0.0,0.0,0.0,-1.0
119632364,119631907,-0.04465004,-0.09854491,-0.016807845,0.0,0.0,0.0,0.0,-1.0
119657434,119655912,-0.044188414,-0.09887774,-0.01695698,0.0,0.0,0.0,0.0,-1.0
119677545,119675901,-0.044551168,-0.09862122,-0.017054705,0.0,0.0,0.0,0.0,-1.0
119697701,119695907,-0.044447113,-0.09825451,-0.016942637,0.0,0.0,0.0,0.0,-1.0
119720444,119719952,-0.044603713,-0.098524675,-0.017141327,0.0,0.0,0.0,0.0,-1.0
119741177,119740709,-0.045203235,-0.09837443,-0.0170136,0.0,0.0,0.0,0.0,-1.0
119761146,119760707,-0.043960232,-0.09843464,-0.01719889,0.0,0.0,0.0,0.0,-1.0
119781158,119780707,-0.044562224,-0.09829787,-0.017228056,0.0,0.0,0.0,0.0,-1.0
119801148,119800707,-0.044388756,-0.09894097,-0.01745814,0.0,0.0,0.0,0.0,-1.0
119825172,119824707,-0.04440609,-0.09861508,-0.017266454,0.0,0.0,0.0,0.0,-1.0
119845165,119844707,-0.044694558,-0.09857883,-0.017479558,0.0,0.0,0.0,0.0,-1.0
119865997,119865507,-0.044403456,-0.09831817,-0.01724947,0.0,0.0,0.0,0.0,-1.0
119886036,119885507,-0.04459728,-0.09858755,-0.017168798,0.0,0.0,0.0,0.0,-1.0
119910002,119909506,-0.044351343,-0.098410964,-0.01722523,0.0,0.0,0.0,0.0,-1.0
119929989,119929507,-0.044571426,-0.09880239,-0.017335113,0.0,0.0,0.0,0.0,-1.0
119949976,119949507,-0.044560585,-0.09871661,-0.017340183,0.0,0.0,0.0,0.0,-1.0
119970011,119969507,-0.04449602,-0.09853975,-0.017108642,0.0,0.0,0.0,0.0,-1.0
119989983,119989514,-0.044397563,-0.098618776,-0.017403414,0.0,0.0,0.0,0.0,-1.0
120014757,120014307,-0.044460017,-0.09894291,-0.01716665,0.0,0.0,0.0,0.0,-1.0
120034791,120034307,-0.04437244,-0.098867275,-0.017119696,0.0,0.0,0.0,0.0,-1.0
120054790,120054307,-0.044204712,-0.09864768,-0.01722007,0.0,0.0,0.0,0.0,-1.0
120074996,120074307,-0.044372495,-0.099054635,-0.01747069,0.0,0.0,0.0,0.0,-1.0
120098796,120098306,-0.04438192,-0.0988428,-0.017081471,0.0,0.0,0.0,0.0,-1.0
120118794,120118307,-0.044519946,-0.0987582,-0.017055422,0.0,0.0,0.0,0.0,-1.0
120139569,120139108,-0.04418338,-0.09873011,-0.017153583,0.0,0.0,0.0,0.0,-1.0
120159602,120159107,-0.04468159,-0.09892803,-0.017138412,0.0,0.0,0.0,0.0,-1.0
120179814,120179108,-0.04413799,-0.098589726,-0.017176626,0.0,0.0,0.0,0.0,-1.0
120203542,120203108,-0.04419647,-0.098776795,-0.01720309,0.0,0.0,0.0,0.0,-1.0
120223551,120223117,-0.044145685,-0.09898446,-0.017343445,0.0,0.0,0.0,0.0,-1.0
120243542,120243108,-0.044421587,-0.09911704,-0.017561521,0.0,0.0,0.0,0.0,-1.0
120263799,120263108,-0.044836346,-0.098405994,-0.017302908,0.0,0.0,0.0,0.0,-1.0
120284384,120283911,-0.044261776,-0.098794155,-0.017156413,0.0,0.0,0.0,0.0,-1.0
120308465,120307955,-0.04404006,-0.09897237,-0.017046379,0.0,0.0,0.0,0.0,-1.0
120328407,120327914,-0.044363968,-0.098505296,-0.017244477,0.0,0.0,0.0,0.0,-1.0
120348409,120347901,-0.04414108,-0.0992857,-0.017458927,0.0,0.0,0.0,0.0,-1.0
120368394,120367907,-0.044128533,-0.09858774,-0.017355824,0.0,0.0,0.0,0.0,-1.0
120392426,120391906,-0.044302817,-0.09871282,-0.01737488,0.0,0.0,0.0,0.0,-1.0
120413213,120412706,-0.043945916,-0.09872786,-0.017392626,0.0,0.0,0.0,0.0,-1.0
120433213,120432707,-0.04409446,-0.099231586,-0.017548097,0.0,0.0,0.0,0.0,-1.0
120453213,120452707,-0.044647373,-0.098765075,-0.017510474,0.0,0.0,0.0,0.0,-1.0
120473227,120472706,-0.043691564,-0.09942391,-0.017343763,0.0,0.0,0.0,0.0,-1.0
120493217,120492707,-0.044238854,-0.09862334,-0.017359352,0.0,0.0,0.0,0.0,-1.0
120518239,120516707,-0.044061214,-0.09918926,-0.017529037,0.0,0.0,0.0,0.0,-1.0
120538538,120537507,-0.044408113,-0.098905735,-0.017476667,0.0,0.0,0.0,0.0,-1.0
120558810,120557507,-0.04432885,-0.09895357,-0.017674027,0.0,0.0,0.0,0.0,-1.0
120582001,120581507,-0.043865733,-0.09926559,-0.017570237,0.0,0.0,0.0,0.0,-1.0
120602004,120601507,-0.04448949,-0.09907366,-0.017582387,0.0,0.0,0.0,0.0,-1.0
120622004,120621506,-0.043733794,-0.0996441,-0.017670935,0.0,0.0,0.0,0.0,-1.0
120642149,120641507,-0.04416584,-0.09858642,-0.01760498,0.0,0.0,0.0,0.0,-1.0
120663000,120662307,-0.04396805,-0.098913394,-0.017580153,0.0,0.0,0.0,0.0,-1.0
120686768,120686306,-0.044486355,-0.09907851,-0.0176626,0.0,0.0,0.0,0.0,-1.0
120706769,120706307,-0.043939155,-0.09895527,-0.017587762,0.0,0.0,0.0,0.0,-1.0
120726769,120726307,-0.04432583,-0.0988579,-0.017505608,0.0,0.0,0.0,0.0,-1.0
120748086,120746307,-0.044091698,-0.09896925,-0.01748233,0.0,0.0,0.0,0.0,-1.0
120770773,120770306,-0.04409244,-0.099116586,-0.017556364,0.0,0.0,0.0,0.0,-1.0
120791168,120790306,-0.044211183,-0.098985486,-0.01763521,0.0,0.0,0.0,0.0,-1.0
120811589,120811108,-0.044231318,-0.09890512,-0.017699154,0.0,0.0,0.0,0.0,-1.0
120831541,120831108,-0.04408819,-0.09929165,-0.017741669,0.0,0.0,0.0,0.0,-1.0
120851743,120851108,-0.04433484,-0.09903071,-0.017632503,0.0,0.0,0.0,0.0,-1.0
120875606,120875108,-0.044174474,-0.099238575,-0.017661579,0.0,0.0,0.0,0.0,-1.0
120895595,120895108,-0.043976158,-0.098889485,-0.017713867,0.0,0.0,0.0,0.0,-1.0
120915607,120915108,-0.044356514,-0.099271804,-0.017690463,0.0,0.0,0.0,0.0,-1.0
120935784,120935108,-0.043924283,-0.098713025,-0.01793028,0.0,0.0,0.0,0.0,-1.0
120956387,120955900,-0.04449221,-0.098988146,-0.018061595,0.0,0.0,0.0,0.0,-1.0
120980468,120979944,-0.04375229,-0.09892736,-0.017810376,0.0,0.0,0.0,0.0,-1.0
121000409,120999908,-0.044039633,-0.09861397,-0.017992353,0.0,0.0,0.0,0.0,-1.0
121020365,121019901,-0.04438118,-0.099329785,-0.017975114,0.0,0.0,0.0,0.0,-1.0
121040408,121039907,-0.043714643,-0.09920843,-0.01797397,0.0,0.0,0.0,0.0,-1.0
121064462,121063965,-0.04412586,-0.09959672,-0.017889878,0.0,0.0,0.0,0.0,-1.0
121085157,121084707,-0.044009604,-0.0992931,-0.018167084,0.0,0.0,0.0,0.0,-1.0
121105145,121104707,-0.04378407,-0.09895827,-0.01791648,0.0,0.0,0.0,0.0,-1.0
121125145,121124707,-0.04377973,-0.099079214,-0.01819532,0.0,0.0,0.0,0.0,-1.0
121145161,121144706,-0.044016935,-0.09921359,-0.018388238,0.0,0.0,0.0,0.0,-1.0
121169171,121168709,-0.04397893,-0.09953185,-0.018277934,0.0,0.0,0.0,0.0,-1.0
121189241,121188708,-0.043760676,-0.098657735,-0.018354837,0.0,0.0,0.0,0.0,-1.0
121209211,121208707,-0.043855026,-0.099463016,-0.018240867,0.0,0.0,0.0,0.0,-1.0
121229991,121229507,-0.044149883,-0.09927943,-0.01824348,0.0,0.0,0.0,0.0,-1.0
121254005,121253507,-0.043497283,-0.099025264,-0.018320976,0.0,0.0,0.0,0.0,-1.0
121274000,121273507,-0.04404971,-0.09977315,-0.018319951,0.0,0.0,0.0,0.0,-1.0
121294380,121293506,-0.044193644,-0.09909363,-0.01831907,0.0,0.0,0.0,0.0,-1.0
121314045,121313507,-0.043958515,-0.098859504,-0.01841489,0.0,0.0,0.0,0.0,-1.0
121334009,121333506,-0.043971613,-0.099203676,-0.018363748,0.0,0.0,0.0,0.0,-1.0
121359376,121358307,-0.04405395,-0.09904639,-0.018367035,0.0,0.0,0.0,0.0,-1.0
121382814,121382317,-0.043760993,-0.09991522,-0.01834324,0.0,0.0,0.0,0.0,-1.0
121402791,121402307,-0.044073388,-0.099357896,-0.018333238,0.0,0.0,0.0,0.0,-1.0
121422752,121422307,-0.04370529,-0.09868041,-0.018252673,0.0,0.0,0.0,0.0,-1.0
121442770,121442307,-0.044282887,-0.09923905,-0.01827806,0.0,0.0,0.0,0.0,-1.0
121466844,121466307,-0.044070557,-0.09955312,-0.018297281,0.0,0.0,0.0,0.0,-1.0
121487612,121487108,-0.043813955,-0.09926178,-0.018353073,0.0,0.0,0.0,0.0,-1.0
121507575,121507108,-0.044058934,-0.09903333,-0.018246066,0.0,0.0,0.0,0.0,-1.0
121527567,121527108,-0.04414753,-0.09944553,-0.018327571,0.0,0.0,0.0,0.0,-1.0
121547571,121547108,-0.04394459,-0.09936447,-0.018347505,0.0,0.0,0.0,0.0,-1.0
121571583,121571108,-0.044412393,-0.09932318,-0.01845317,0.0,0.0,0.0,0.0,-1.0
121591587,121591108,-0.043900795,-0.09975723,-0.018725647,0.0,0.0,0.0,0.0,-1.0
121611572,121611108,-0.044069298,-0.099039994,-0.018581873,0.0,0.0,0.0,0.0,-1.0
121632516,121631918,-0.04341505,-0.09918155,-0.018704223,0.0,0.0,0.0,0.0,-1.0
121656403,121655907,-0.04411159,-0.09888707,-0.018449286,0.0,0.0,0.0,0.0,-1.0
121676402,121675901,-0.04377528,-0.09967023,-0.018725283,0.0,0.0,0.0,0.0,-1.0
121696382,121695907,-0.04382374,-0.09957653,-0.018659692,0.0,0.0,0.0,0.0,-1.0
121716569,121715901,-0.04408317,-0.0994615,-0.01842248,0.0,0.0,0.0,0.0,-1.0
121740396,121739900,-0.043964557,-0.099292465,-0.018440416,0.0,0.0,0.0,0.0,-1.0
121761224,121760754,-0.04355211,-0.099301554,-0.01848386,0.0,0.0,0.0,0.0,-1.0
121781199,121780707,-0.044471223,-0.099569164,-0.018405303,0.0,0.0,0.0,0.0,-1.0
121801199,121800707,-0.043211848,-0.099678054,-0.018626185,0.0,0.0,0.0,0.0,-1.0
121821388,121820706,-0.044347387,-0.09917458,-0.018580971,0.0,0.0,0.0,0.0,-1.0
121845210,121844706,-0.043589912,-0.09935618,-0.018574528,0.0,0.0,0.0,0.0,-1.0
121865180,121864707,-0.04383295,-0.0991871,-0.018730944,0.0,0.0,0.0,0.0,-1.0
121885174,121884707,-0.044079237,-0.09943502,-0.018718528,0.0,0.0,0.0,0.0,-1.0
121905975,121905507,-0.044062484,-0.09959601,-0.018778877,0.0,0.0,0.0,0.0,-1.0
121925975,121925507,-0.043890666,-0.09933779,-0.0188046,0.0,0.0,0.0,0.0,-1.0
121950032,121949541,-0.04393668,-0.0991869,-0.018727971,0.0,0.0,0.0,0.0,-1.0
121969978,121969507,-0.04390322,-0.09976069,-0.018935192,0.0,0.0,0.0,0.0,-1.0
121990157,121989507,-0.044126358,-0.09958911,-0.018841604,0.0,0.0,0.0,0.0,-1.0
122009999,122009512,-0.04377528,-0.09957839,-0.018934034,0.0,0.0,0.0,0.0,-1.0
122030763,122030307,-0.044082433,-0.09946251,-0.01899581,0.0,0.0,0.0,0.0,-1.0
122054750,122054307,-0.043913543,-0.09959532,-0.0189452,0.0,0.0,0.0,0.0,-1.0
122074758,122074309,-0.043669663,-0.099826396,-0.019015402,0.0,0.0,0.0,0.0,-1.0
122094763,122094307,-0.044046946,-0.09950483,-0.019029161,0.0,0.0,0.0,0.0,-1.0
122114771,122114307,-0.044297192,-0.09947714,-0.019093242,0.0,0.0,0.0,0.0,-1.0
122134759,122134307,-0.043797605,-0.0994303,-0.019088654,0.0,0.0,0.0,0.0,-1.0
122159881,122158307,-0.044215117,-0.099553525,-0.019147573,0.0,0.0,0.0,0.0,-1.0
122179830,122179108,-0.044238783,-0.0990656,-0.019212088,0.0,0.0,0.0,0.0,-1.0
122200109,122199108,-0.043563526,-0.09960317,-0.019287033,0.0,0.0,0.0,0.0,-1.0
122219869,122219108,-0.04407997,-0.09920281,-0.019165436,0.0,0.0,0.0,0.0,-1.0
122243611,122243108,-0.043582145,-0.099596016,-0.019338626,0.0,0.0,0.0,0.0,-1.0
122263622,122263108,-0.044261567,-0.09930117,-0.019322913,0.0,0.0,0.0,0.0,-1.0
122284387,122283901,-0.04390287,-0.099613994,-0.019363364,0.0,0.0,0.0,0.0,-1.0
122304506,122303907,-0.04393905,-0.09957038,-0.019392332,0.0,0.0,0.0,0.0,-1.0
122328431,122327915,-0.043808844,-0.09930576,-0.019317944,0.0,0.0,0.0,0.0,-1.0
122348376,122347901,-0.044160817,-0.0993721,-0.019440286,0.0,0.0,0.0,0.0,-1.0
122368397,122367907,-0.043899283,-0.099305294,-0.019297268,0.0,0.0,0.0,0.0,-1.0
122388495,122387901,-0.0437526,-0.09976747,-0.019538838,0.0,0.0,0.0,0.0,-1.0
122412381,122411901,-0.044104077,-0.09946788,-0.019409435,0.0,0.0,0.0,0.0,-1.0
122432377,122431907,-0.04372798,-0.09964831,-0.019428715,0.0,0.0,0.0,0.0,-1.0
122453187,122452707,-0.04375888,-0.09938942,-0.019530913,0.0,0.0,0.0,0.0,-1.0
122473174,122472707,-0.043757934,-0.09956898,-0.019610453,0.0,0.0,0.0,0.0,-1.0
122493334,122492706,-0.043806605,-0.099109255,-0.019359715,0.0,0.0,0.0,0.0,-1.0
122517168,122516706,-0.04391367,-0.099484384,-0.019684352,0.0,0.0,0.0,0.0,-1.0
122537211,122536710,-0.04374455,-0.0995014,-0.019788807,0.0,0.0,0.0,0.0,-1.0
122557148,122556707,-0.043559562,-0.099451125,-0.019892944,0.0,0.0,0.0,0.0,-1.0
122577974,122577507,-0.04376532,-0.09909414,-0.019824037,0.0,0.0,0.0,0.0,-1.0
122597982,122597507,-0.043985937,-0.09985405,-0.019854223,0.0,0.0,0.0,0.0,-1.0
122622010,122621528,-0.044167265,-0.09957493,-0.020007554,0.0,0.0,0.0,0.0,-1.0
122641994,122641507,-0.04363033,-0.09898319,-0.019998467,0.0,0.0,0.0,0.0,-1.0
122662001,122661506,-0.043910116,-0.09978379,-0.020058181,0.0,0.0,0.0,0.0,-1.0
122682189,122681507,-0.04392587,-0.09939457,-0.019972567,0.0,0.0,0.0,0.0,-1.0
122705977,122705517,-0.04384348,-0.09908577,-0.020083655,0.0,0.0,0.0,0.0,-1.0
122726800,122726312,-0.043838747,-0.09993973,-0.019909564,0.0,0.0,0.0,0.0,-1.0
122746795,122746307,-0.043877553,-0.0995534,-0.01995293,0.0,0.0,0.0,0.0,-1.0
122766792,122766306,-0.043842774,-0.099554464,-0.01997284,0.0,0.0,0.0,0.0,-1.0
122786797,122786307,-0.04393182,-0.09961572,-0.020008488,0.0,0.0,0.0,0.0,-1.0
122810816,122810306,-0.04344615,-0.09915412,-0.01999537,0.0,0.0,0.0,0.0,-1.0
122830841,122830307,-0.044038754,-0.09993113,-0.02012686,0.0,0.0,0.0,0.0,-1.0
122851597,122851109,-0.04385017,-0.09903319,-0.020141046,0.0,0.0,0.0,0.0,-1.0
122871577,122871108,-0.044038273,-0.09976717,-0.020105198,0.0,0.0,0.0,0.0,-1.0
122891593,122891108,-0.04398842,-0.099375874,-0.01995638,0.0,0.0,0.0,0.0,-1.0
122915585,122915108,-0.04380211,-0.099579394,-0.020036435,0.0,0.0,0.0,0.0,-1.0
122935604,122935108,-0.04385334,-0.09955661,-0.019971728,0.0,0.0,0.0,0.0,-1.0
122955622,122955108,-0.04367016,-0.099279605,-0.020039093,0.0,0.0,0.0,0.0,-1.0
122975585,122975108,-0.04413626,-0.09973196,-0.01994869,0.0,0.0,0.0,0.0,-1.0
122996385,122995901,-0.04370753,-0.09948586,-0.020284185,0.0,0.0,0.0,0.0,-1.0
123020564,123019901,-0.043966074,-0.09987746,-0.020149436,0.0,0.0,0.0,0.0,-1.0
123040767,123039907,-0.04375324,-0.09961646,-0.020359894,0.0,0.0,0.0,0.0,-1.0
123060805,123059901,-0.04370173,-0.09921312,-0.020070672,0.0,0.0,0.0,0.0,-1.0
123084404,123083901,-0.04408173,-0.09878305,-0.020306623,0.0,0.0,0.0,0.0,-1.0
123104406,123103906,-0.04373695,-0.10028376,-0.020474194,0.0,0.0,0.0,0.0,-1.0
123125192,123124707,-0.04386362,-0.09897174,-0.020276165,0.0,0.0,0.0,0.0,-1.0
123145192,123144707,-0.043807905,-0.09992511,-0.020291561,0.0,0.0,0.0,0.0,-1.0
123165397,123164706,-0.043972872,-0.099905096,-0.020188116,0.0,0.0,0.0,0.0,-1.0
123189203,123188706,-0.04353417,-0.099908106,-0.0203367,0.0,0.0,0.0,0.0,-1.0
123209221,123208706,-0.043960158,-0.0998074,-0.020208338,0.0,0.0,0.0,0.0,-1.0
123229216,123228707,-0.043554574,-0.09929096,-0.020234931,0.0,0.0,0.0,0.0,-1.0
123250792,123248706,-0.04373788,-0.09965092,-0.020172657,0.0,0.0,0.0,0.0,-1.0
123271189,123269507,-0.04371385,-0.09977335,-0.02027687,0.0,0.0,0.0,0.0,-1.0
123293995,123293529,-0.0439891,-0.09924238,-0.020189637,0.0,0.0,0.0,0.0,-1.0
123314006,123313515,-0.04363727,-0.100112535,-0.020240515,0.0,0.0,0.0,0.0,-1.0
123333995,123333506,-0.043613613,-0.099529155,-0.020269984,0.0,0.0,0.0,0.0,-1.0
123354004,123353507,-0.044357087,-0.099656194,-0.020223785,0.0,0.0,0.0,0.0,-1.0
123378050,123377546,-0.04392163,-0.09978487,-0.02018921,0.0,0.0,0.0,0.0,-1.0
123398800,123398310,-0.043570194,-0.09894085,-0.020315483,0.0,0.0,0.0,0.0,-1.0
123418773,123418307,-0.044020005,-0.09991896,-0.020164756,0.0,0.0,0.0,0.0,-1.0
123438811,123438311,-0.04384597,-0.099667035,-0.0202203,0.0,0.0,0.0,0.0,-1.0
123458773,123458307,-0.043873087,-0.0996736,-0.020227438,0.0,0.0,0.0,0.0,-1.0
123482776,123482307,-0.043420963,-0.099991255,-0.020397682,0.0,0.0,0.0,0.0,-1.0
123502780,123502310,-0.043666385,-0.09942688,-0.020330425,0.0,0.0,0.0,0.0,-1.0
123523603,123523108,-0.044071883,-0.099768035,-0.020261757,0.0,0.0,0.0,0.0,-1.0
123543592,123543109,-0.043657813,-0.09973016,-0.020235239,0.0,0.0,0.0,0.0,-1.0
123563598,123563108,-0.043342996,-0.09993599,-0.020380845,0.0,0.0,0.0,0.0,-1.0
123587589,123587108,-0.043886896,-0.099610835,-0.020310517,0.0,0.0,0.0,0.0,-1.0
123607595,123607108,-0.044238973,-0.09960735,-0.020402713,0.0,0.0,0.0,0.0,-1.0
123627583,123627108,-0.04359167,-0.09999126,-0.02036028,0.0,0.0,0.0,0.0,-1.0
123647590,123647108,-0.043890458,-0.09940852,-0.02037242,0.0,0.0,0.0,0.0,-1.0
123672402,123671907,-0.043764923,-0.09990596,-0.02043415,0.0,0.0,0.0,0.0,-1.0
123692405,123691909,-0.043385416,-0.099945776,-0.020503378,0.0,0.0,0.0,0.0,-1.0
123712408,123711907,-0.04388575,-0.09953085,-0.020315718,0.0,0.0,0.0,0.0,-1.0
123732509,123731901,-0.043843605,-0.0995546,-0.020540318,0.0,0.0,0.0,0.0,-1.0
123756445,123755940,-0.043599017,-0.099936254,-0.020335725,0.0,0.0,0.0,0.0,-1.0
123776409,123775907,-0.04381831,-0.09984092,-0.02042653,0.0,0.0,0.0,0.0,-1.0
123797201,123796707,-0.0436992,-0.099607065,-0.020465197,0.0,0.0,0.0,0.0,-1.0
123817199,123816707,-0.043865714,-0.09978646,-0.020230904,0.0,0.0,0.0,0.0,-1.0
123837418,123836706,-0.043547805,-0.099554345,-0.020538585,0.0,0.0,0.0,0.0,-1.0
123857210,123856706,-0.04373108,-0.09975302,-0.020395102,0.0,0.0,0.0,0.0,-1.0
123881295,123880707,-0.043414272,-0.09979826,-0.020333597,0.0,0.0,0.0,0.0,-1.0
123901556,123900707,-0.04404885,-0.09968345,-0.020507598,0.0,0.0,0.0,0.0,-1.0
123921569,123920707,-0.04365413,-0.099735774,-0.020400366,0.0,0.0,0.0,0.0,-1.0
123941990,123941507,-0.043466236,-0.099869154,-0.020497603,0.0,0.0,0.0,0.0,-1.0
123966045,123965555,-0.043512244,-0.099429436,-0.020582724,0.0,0.0,0.0,0.0,-1.0
123985985,123985507,-0.04386843,-0.099550165,-0.020577574,0.0,0.0,0.0,0.0,-1.0
124005987,124005507,-0.043754708,-0.09952049,-0.020572226,0.0,0.0,0.0,0.0,-1.0
124025997,124025506,-0.04389399,-0.09957858,-0.020449072,0.0,0.0,0.0,0.0,-1.0
124051056,124049507,-0.044000894,-0.099888586,-0.020501414,0.0,0.0,0.0,0.0,-1.0
124066783,124066307,-0.04379301,-0.099867694,-0.020565942,0.0,0.0,0.0,0.0,-1.0
124091541,124090307,-0.04362639,-0.099683225,-0.020703197,0.0,0.0,0.0,0.0,-1.0
124111750,124110307,-0.044067796,-0.09959451,-0.02059122,0.0,0.0,0.0,0.0,-1.0
124131755,124130307,-0.043422937,-0.09980682,-0.020621,0.0,0.0,0.0,0.0,-1.0
124154800,124154307,-0.043931913,-0.099670246,-0.02068134,0.0,0.0,0.0,0.0,-1.0
124174770,124174307,-0.043737594,-0.099734806,-0.020864537,0.0,0.0,0.0,0.0,-1.0
124194783,124194307,-0.04371233,-0.09973788,-0.020728996,0.0,0.0,0.0,0.0,-1.0
124215580,124215108,-0.043457434,-0.09963665,-0.020735523,0.0,0.0,0.0,0.0,-1.0
124235567,124235108,-0.0437907,-0.09981657,-0.02075728,0.0,0.0,0.0,0.0,-1.0
124259600,124259108,-0.04387904,-0.09957521,-0.021075763,0.0,0.0,0.0,0.0,-1.0
124279594,124279110,-0.043951884,-0.10028368,-0.021202406,0.0,0.0,0.0,0.0,-1.0
124299586,124299108,-0.04359861,-0.09934672,-0.021087013,0.0,0.0,0.0,0.0,-1.0
124319601,124319108,-0.04369079,-0.0995457,-0.021021403,0.0,0.0,0.0,0.0,-1.0
124344356,124343907,-0.043647427,-0.099951595,-0.02112174,0.0,0.0,0.0,0.0,-1.0
124364379,124363925,-0.04348533,-0.09943889,-0.021167686,0.0,0.0,0.0,0.0,-1.0
124384380,124383917,-0.04331672,-0.10013847,-0.02117603,0.0,0.0,0.0,0.0,-1.0
124404492,124403901,-0.043470073,-0.09936099,-0.021368349,0.0,0.0,0.0,0.0,-1.0
124428358,124427900,-0.043261893,-0.0997326,-0.02119362,0.0,0.0,0.0,0.0,-1.0
124448379,124447907,-0.04358125,-0.09981603,-0.021342091,0.0,0.0,0.0,0.0,-1.0
124468382,124467900,-0.043648235,-0.100158975,-0.021142857,0.0,0.0,0.0,0.0,-1.0
124489208,124488707,-0.043624815,-0.09938425,-0.021132832,0.0,0.0,0.0,0.0,-1.0
124509389,124508707,-0.043930594,-0.099918336,-0.02114973,0.0,0.0,0.0,0.0,-1.0
124533205,124532706,-0.04375853,-0.09966235,-0.021302817,0.0,0.0,0.0,0.0,-1.0
124553213,124552706,-0.04361223,-0.09988695,-0.021033136,0.0,0.0,0.0,0.0,-1.0
124573216,124572706,-0.043507755,-0.09937166,-0.020994155,0.0,0.0,0.0,0.0,-1.0
124593400,124592706,-0.043861214,-0.09998191,-0.021199401,0.0,0.0,0.0,0.0,-1.0
124613986,124613506,-0.043493144,-0.09978614,-0.021219203,0.0,0.0,0.0,0.0,-1.0
124638007,124637521,-0.043479044,-0.09991703,-0.021315664,0.0,0.0,0.0,0.0,-1.0
124658014,124657507,-0.04382647,-0.09961616,-0.021178689,0.0,0.0,0.0,0.0,-1.0
124677992,124677506,-0.043775804,-0.099826455,-0.021325167,0.0,0.0,0.0,0.0,-1.0
124697991,124697506,-0.043782763,-0.0996447,-0.021327185,0.0,0.0,0.0,0.0,-1.0
124721993,124721507,-0.043668963,-0.09980803,-0.021307914,0.0,0.0,0.0,0.0,-1.0
124742014,124741507,-0.04348811,-0.09989669,-0.021316709,0.0,0.0,0.0,0.0,-1.0
124762740,124762307,-0.043765403,-0.099660255,-0.021289742,0.0,0.0,0.0,0.0,-1.0
124782743,124782307,-0.043613072,-0.09979698,-0.021420276,0.0,0.0,0.0,0.0,-1.0
124802747,124802307,-0.043936156,-0.10037898,-0.021258933,0.0,0.0,0.0,0.0,-1.0
124826796,124826307,-0.04366602,-0.099664845,-0.021271996,0.0,0.0,0.0,0.0,-1.0
124846761,124846307,-0.043743663,-0.09970388,-0.02125663,0.0,0.0,0.0,0.0,-1.0
124866738,124866307,-0.04338361,-0.09983497,-0.02127468,0.0,0.0,0.0,0.0,-1.0
124887581,124887108,-0.043504115,-0.09972278,-0.02144955,0.0,0.0,0.0,0.0,-1.0
124907584,124907108,-0.043647923,-0.09986863,-0.021235459,0.0,0.0,0.0,0.0,-1.0
124932343,124931108,-0.043888245,-0.099749506,-0.021335317,0.0,0.0,0.0,0.0,-1.0
124952327,124951108,-0.043582264,-0.09993051,-0.02134378,0.0,0.0,0.0,0.0,-1.0
124972810,124971108,-0.043435875,-0.0999321,-0.021438476,0.0,0.0,0.0,0.0,-1.0
124992533,124991108,-0.04363859,-0.09977622,-0.021428391,0.0,0.0,0.0,0.0,-1.0
125015544,125015108,-0.043898527,-0.09981892,-0.021388834,0.0,0.0,0.0,0.0,-1.0
125036378,125035908,-0.04390041,-0.09977379,-0.021448191,0.0,0.0,0.0,0.0,-1.0
125056395,125055906,-0.043558314,-0.09989587,-0.021321775,0.0,0.0,0.0,0.0,-1.0
125076501,125075901,-0.043551542,-0.10012753,-0.021500103,0.0,0.0,0.0,0.0,-1.0
125100411,125099907,-0.043497093,-0.09981163,-0.021314709,0.0,0.0,0.0,0.0,-1.0
125120403,125119907,-0.04349913,-0.10010571,-0.02147105,0.0,0.0,0.0,0.0,-1.0
125140394,125139901,-0.043717295,-0.09972771,-0.021628976,0.0,0.0,0.0,0.0,-1.0
125162359,125160726,-0.04365961,-0.100048296,-0.021939516,0.0,0.0,0.0,0.0,-1.0
125182774,125180736,-0.043369725,-0.10014996,-0.021802435,0.0,0.0,0.0,0.0,-1.0
125205207,125204706,-0.043217804,-0.09979353,-0.021695068,0.0,0.0,0.0,0.0,-1.0
125225207,125224706,-0.043388326,-0.09974137,-0.021664212,0.0,0.0,0.0,0.0,-1.0
125245207,125244706,-0.043959316,-0.0999682,-0.02164573,0.0,0.0,0.0,0.0,-1.0
125265349,125264707,-0.043376304,-0.10002065,-0.02169932,0.0,0.0,0.0,0.0,-1.0
125289151,125288706,-0.04372176,-0.09945001,-0.021602547,0.0,0.0,0.0,0.0,-1.0
125310004,125309539,-0.04329386,-0.099746056,-0.021729665,0.0,0.0,0.0,0.0,-1.0
125329975,125329507,-0.04337061,-0.1000552,-0.021458363,0.0,0.0,0.0,0.0,-1.0
125349971,125349507,-0.043783832,-0.09998919,-0.021491969,0.0,0.0,0.0,0.0,-1.0
125369960,125369506,-0.043293104,-0.09992691,-0.021491423,0.0,0.0,0.0,0.0,-1.0
125394012,125393526,-0.04373789,-0.09975604,-0.021616664,0.0,0.0,0.0,0.0,-1.0
125413998,125413506,-0.043652777,-0.10004479,-0.021546403,0.0,0.0,0.0,0.0,-1.0
125434790,125434307,-0.04319795,-0.09994597,-0.02158945,0.0,0.0,0.0,0.0,-1.0
125454804,125454317,-0.043622218,-0.09980432,-0.021449922,0.0,0.0,0.0,0.0,-1.0
125474814,125474307,-0.043684036,-0.099905334,-0.021707706,0.0,0.0,0.0,0.0,-1.0
125498800,125498307,-0.043390024,-0.10012702,-0.021478632,0.0,0.0,0.0,0.0,-1.0
125518775,125518307,-0.043696936,-0.09966513,-0.021490362,0.0,0.0,0.0,0.0,-1.0
125538799,125538307,-0.043168694,-0.09982409,-0.021450078,0.0,0.0,0.0,0.0,-1.0
125558799,125558306,-0.043438114,-0.09981645,-0.021566408,0.0,0.0,0.0,0.0,-1.0
125579594,125579108,-0.04365393,-0.1000042,-0.021488072,0.0,0.0,0.0,0.0,-1.0
125603587,125603108,-0.043357793,-0.09969471,-0.021387434,0.0,0.0,0.0,0.0,-1.0
125623614,125623122,-0.04365809,-0.10001124,-0.021699164,0.0,0.0,0.0,0.0,-1.0
125643607,125643108,-0.04357755,-0.09967095,-0.021689212,0.0,0.0,0.0,0.0,-1.0
125663587,125663107,-0.04349642,-0.09988946,-0.021765245,0.0,0.0,0.0,0.0,-1.0
125687601,125687109,-0.043663926,-0.09935893,-0.021558778,0.0,0.0,0.0,0.0,-1.0
125708371,125707900,-0.043122172,-0.100084506,-0.02160751,0.0,0.0,0.0,0.0,-1.0
125728366,125727907,-0.04360697,-0.10004869,-0.021575427,0.0,0.0,0.0,0.0,-1.0
125748470,125747901,-0.04304018,-0.09982036,-0.021738123,0.0,0.0,0.0,0.0,-1.0
125768416,125767953,-0.043839388,-0.099487655,-0.021617567,0.0,0.0,0.0,0.0,-1.0
125793051,125791907,-0.043332964,-0.09983348,-0.021867927,0.0,0.0,0.0,0.0,-1.0
125813030,125811900,-0.043526523,-0.099875815,-0.02191518,0.0,0.0,0.0,0.0,-1.0
125833313,125831907,-0.04339313,-0.099451944,-0.021843204,0.0,0.0,0.0,0.0,-1.0
125853399,125852707,-0.04312382,-0.100123614,-0.022175696,0.0,0.0,0.0,0.0,-1.0
125877203,125876706,-0.04387126,-0.099993885,-0.022215856,0.0,0.0,0.0,0.0,-1.0
125897164,125896709,-0.043288153,-0.100374475,-0.021881778,0.0,0.0,0.0,0.0,-1.0
125917180,125916706,-0.043478586,-0.09975567,-0.022220537,0.0,0.0,0.0,0.0,-1.0
125937374,125936706,-0.04341554,-0.09992841,-0.021963147,0.0,0.0,0.0,0.0,-1.0
125961202,125960706,-0.043846242,-0.09993408,-0.022168657,0.0,0.0,0.0,0.0,-1.0
125977976,125977507,-0.043307096,-0.0999468,-0.021971367,0.0,0.0,0.0,0.0,-1.0
126003276,126001507,-0.0434941,-0.099926375,-0.021994233,0.0,0.0,0.0,0.0,-1.0
126023231,126021507,-0.043504592,-0.099991,-0.021957485,0.0,0.0,0.0,0.0,-1.0
126043423,126041507,-0.043285817,-0.09995538,-0.022013806,0.0,0.0,0.0,0.0,-1.0
126066047,126065556,-0.044094253,-0.10004488,-0.021887023,0.0,0.0,0.0,0.0,-1.0
126085984,126085506,-0.043262575,-0.09968418,-0.022144258,0.0,0.0,0.0,0.0,-1.0
126105983,126105507,-0.043101285,-0.10034826,-0.021991532,0.0,0.0,0.0,0.0,-1.0
126126761,126126307,-0.043907616,-0.09953622,-0.021866614,0.0,0.0,0.0,0.0,-1.0
126146759,126146307,-0.042913437,-0.0998872,-0.022165371,0.0,0.0,0.0,0.0,-1.0
126170801,126170307,-0.043802276,-0.10006034,-0.022126136,0.0,0.0,0.0,0.0,-1.0
126190753,126190307,-0.04331993,-0.10032688,-0.022079835,0.0,0.0,0.0,0.0,-1.0
126210745,126210307,-0.04340587,-0.09991444,-0.022142122,0.0,0.0,0.0,0.0,-1.0
126230745,126230307,-0.04337903,-0.09977008,-0.022123981,0.0,0.0,0.0,0.0,-1.0
126251589,126251108,-0.04336227,-0.09984291,-0.022075506,0.0,0.0,0.0,0.0,-1.0
126275599,126275108,-0.04347365,-0.10051501,-0.021988774,0.0,0.0,0.0,0.0,-1.0
126295608,126295108,-0.043211088,-0.09991418,-0.022106616,0.0,0.0,0.0,0.0,-1.0
126315617,126315111,-0.04337353,-0.09976727,-0.02208968,0.0,0.0,0.0,0.0,-1.0
126335584,126335108,-0.04364813,-0.10020948,-0.022195881,0.0,0.0,0.0,0.0,-1.0
126359600,126359108,-0.043462757,-0.09941082,-0.022317832,0.0,0.0,0.0,0.0,-1.0
126380420,126379901,-0.043283537,-0.099971205,-0.022287447,0.0,0.0,0.0,0.0,-1.0
126400407,126399906,-0.04339995,-0.10035645,-0.02227485,0.0,0.0,0.0,0.0,-1.0
126420511,126419901,-0.043371335,-0.09977054,-0.022369618,0.0,0.0,0.0,0.0,-1.0
126444386,126443900,-0.043833636,-0.10039386,-0.02261295,0.0,0.0,0.0,0.0,-1.0
126464401,126463907,-0.0434645,-0.09965628,-0.0224917,0.0,0.0,0.0,0.0,-1.0
126484388,126483911,-0.043239336,-0.10015328,-0.02233304,0.0,0.0,0.0,0.0,-1.0
126504470,126503907,-0.043227192,-0.09994004,-0.022287574,0.0,0.0,0.0,0.0,-1.0
126525357,126524707,-0.043713223,-0.09993924,-0.02241127,0.0,0.0,0.0,0.0,-1.0
126549205,126548707,-0.043187298,-0.100031406,-0.022310302,0.0,0.0,0.0,0.0,-1.0
126569210,126568706,-0.043463644,-0.09996007,-0.02243417,0.0,0.0,0.0,0.0,-1.0
126589195,126588707,-0.04358748,-0.10006551,-0.022360032,0.0,0.0,0.0,0.0,-1.0
126609358,126608707,-0.043421797,-0.10035095,-0.022252528,0.0,0.0,0.0,0.0,-1.0
126629163,126628707,-0.043060966,-0.09974554,-0.02233372,0.0,0.0,0.0,0.0,-1.0
126653982,126653507,-0.04344637,-0.100217685,-0.022294724,0.0,0.0,0.0,0.0,-1.0
126674000,126673514,-0.043468546,-0.10023694,-0.022164792,0.0,0.0,0.0,0.0,-1.0
126694042,126693507,-0.043514535,-0.100263126,-0.022118675,0.0,0.0,0.0,0.0,-1.0
126714203,126713507,-0.043349415,-0.10017792,-0.02220582,0.0,0.0,0.0,0.0,-1.0
126738044,126737552,-0.04356412,-0.10017111,-0.022171913,0.0,0.0,0.0,0.0,-1.0
126757966,126757507,-0.043411337,-0.10040788,-0.022303509,0.0,0.0,0.0,0.0,-1.0
126777974,126777507,-0.043324664,-0.10000443,-0.022410562,0.0,0.0,0.0,0.0,-1.0
126798779,126798317,-0.043141678,-0.10029399,-0.0223816,0.0,0.0,0.0,0.0,-1.0
126818772,126818307,-0.043729894,-0.09988978,-0.02227888,0.0,0.0,0.0,0.0,-1.0
126846778,126846306,-0.04321011,-0.1000139,-0.022456033,0.0,0.0,0.0,0.0,-1.0
126866769,126866306,-0.044137526,-0.10061851,-0.022351786,0.0,0.0,0.0,0.0,-1.0
126886779,126886307,-0.04330743,-0.09957441,-0.02238719,0.0,0.0,0.0,0.0,-1.0
126907012,126906307,-0.043731224,-0.100226566,-0.022335913,0.0,0.0,0.0,0.0,-1.0
126927770,126927108,-0.043557532,-0.10033361,-0.022475021,0.0,0.0,0.0,0.0,-1.0
126951597,126951107,-0.04351578,-0.09986389,-0.022317778,0.0,0.0,0.0,0.0,-1.0
126971583,126971108,-0.04323233,-0.100086704,-0.022228627,0.0,0.0,0.0,0.0,-1.0
126991571,126991108,-0.043388832,-0.100163296,-0.02243144,0.0,0.0,0.0,0.0,-1.0
127011822,127011108,-0.043284036,-0.10000956,-0.02267777,0.0,0.0,0.0,0.0,-1.0
127035616,127035108,-0.043310214,-0.10002921,-0.022798467,0.0,0.0,0.0,0.0,-1.0
127055600,127055108,-0.04381255,-0.10011135,-0.022510272,0.0,0.0,0.0,0.0,-1.0
127076377,127075900,-0.04335713,-0.10032925,-0.02286612,0.0,0.0,0.0,0.0,-1.0
127096371,127095907,-0.04306342,-0.100214384,-0.0226307,0.0,0.0,0.0,0.0,-1.0
127116387,127115900,-0.04353933,-0.099640764,-0.02273201,0.0,0.0,0.0,0.0,-1.0
127140356,127139901,-0.043387227,-0.10037694,-0.022577485,0.0,0.0,0.0,0.0,-1.0
127160345,127159907,-0.043369442,-0.09999976,-0.02247303,0.0,0.0,0.0,0.0,-1.0
127180385,127179900,-0.04324738,-0.10004367,-0.022504559,0.0,0.0,0.0,0.0,-1.0
127201179,127200707,-0.04335943,-0.10055324,-0.022691378,0.0,0.0,0.0,0.0,-1.0
127221180,127220706,-0.043232445,-0.09987707,-0.0226811,0.0,0.0,0.0,0.0,-1.0
127245188,127244707,-0.04371149,-0.09997494,-0.022720737,0.0,0.0,0.0,0.0,-1.0
127265178,127264707,-0.04354075,-0.10036319,-0.022765039,0.0,0.0,0.0,0.0,-1.0
127285178,127284707,-0.042459916,-0.100143254,-0.022564294,0.0,0.0,0.0,0.0,-1.0
127305177,127304707,-0.043517973,-0.099841766,-0.022596765,0.0,0.0,0.0,0.0,-1.0
127329561,127328707,-0.04320541,-0.10038568,-0.022742001,0.0,0.0,0.0,0.0,-1.0
127350003,127349507,-0.04356415,-0.100392826,-0.022829233,0.0,0.0,0.0,0.0,-1.0
127369987,127369507,-0.042900085,-0.100085,-0.022791253,0.0,0.0,0.0,0.0,-1.0
127390139,127389507,-0.0438237,-0.100178264,-0.022749959,0.0,0.0,0.0,0.0,-1.0
127410033,127409546,-0.042732913,-0.0998174,-0.022855481,0.0,0.0,0.0,0.0,-1.0
127434262,127433507,-0.043362457,-0.10004713,-0.022793518,0.0,0.0,0.0,0.0,-1.0
127454378,127453507,-0.04327187,-0.099764645,-0.022916323,0.0,0.0,0.0,0.0,-1.0
127474741,127474307,-0.043214846,-0.10035124,-0.02281528,0.0,0.0,0.0,0.0,-1.0
127495035,127494306,-0.04325669,-0.09991216,-0.022953013,0.0,0.0,0.0,0.0,-1.0
127518742,127518307,-0.0433812,-0.10018254,-0.022840867,0.0,0.0,0.0,0.0,-1.0
127538745,127538307,-0.043280043,-0.10001095,-0.022728791,0.0,0.0,0.0,0.0,-1.0
127558743,127558307,-0.043085866,-0.10038508,-0.022725912,0.0,0.0,0.0,0.0,-1.0
127578985,127578313,-0.043303553,-0.09993182,-0.022933923,0.0,0.0,0.0,0.0,-1.0
127602759,127602307,-0.04285722,-0.10044524,-0.022850133,0.0,0.0,0.0,0.0,-1.0
127619585,127619108,-0.043652434,-0.09968491,-0.022926992,0.0,0.0,0.0,0.0,-1.0
127644658,127643142,-0.043367755,-0.100250065,-0.0228672,0.0,0.0,0.0,0.0,-1.0
127664645,127663141,-0.04323992,-0.099894084,-0.02300578,0.0,0.0,0.0,0.0,-1.0
127684960,127683126,-0.043494277,-0.10017947,-0.023283862,0.0,0.0,0.0,0.0,-1.0
127707604,127707135,-0.04316877,-0.10083335,-0.02316377,0.0,0.0,0.0,0.0,-1.0
127727567,127727108,-0.043349862,-0.10016966,-0.023126567,0.0,0.0,0.0,0.0,-1.0
127748385,127747900,-0.042765494,-0.10074238,-0.023134332,0.0,0.0,0.0,0.0,-1.0
127768378,127767907,-0.043549847,-0.100010954,-0.022962574,0.0,0.0,0.0,0.0,-1.0
127788378,127787901,-0.04294138,-0.10051587,-0.023066266,0.0,0.0,0.0,0.0,-1.0
127812405,127811900,-0.043596886,-0.10002837,-0.022996878,0.0,0.0,0.0,0.0,-1.0
127832659,127831907,-0.043247327,-0.09984633,-0.023361152,0.0,0.0,0.0,0.0,-1.0
127852380,127851900,-0.043166824,-0.10031524,-0.023251204,0.0,0.0,0.0,0.0,-1.0
127872408,127871906,-0.04355846,-0.100094125,-0.023150278,0.0,0.0,0.0,0.0,-1.0
127893185,127892706,-0.04304931,-0.10030696,-0.023370853,0.0,0.0,0.0,0.0,-1.0
127917224,127916706,-0.043042682,-0.10008568,-0.023362715,0.0,0.0,0.0,0.0,-1.0
127937209,127936707,-0.043157455,-0.09996036,-0.023299243,0.0,0.0,0.0,0.0,-1.0
127957218,127956708,-0.04296974,-0.100052886,-0.023328638,0.0,0.0,0.0,0.0,-1.0
127977182,127976706,-0.04330287,-0.100247815,-0.023344673,0.0,0.0,0.0,0.0,-1.0
128001214,128000707,-0.04321257,-0.10014374,-0.02340754,0.0,0.0,0.0,0.0,-1.0
128021975,128021507,-0.04310897,-0.10056412,-0.023518797,0.0,0.0,0.0,0.0,-1.0
128041991,128041507,-0.043397598,-0.1002134,-0.023384543,0.0,0.0,0.0,0.0,-1.0
128062057,128061507,-0.043029215,-0.10038399,-0.023170939,0.0,0.0,0.0,0.0,-1.0
128085982,128085507,-0.043143764,-0.100421436,-0.023554143,0.0,0.0,0.0,0.0,-1.0
128105968,128105507,-0.04327841,-0.099888414,-0.023489868,0.0,0.0,0.0,0.0,-1.0
128125968,128125507,-0.043495543,-0.10041057,-0.023497052,0.0,0.0,0.0,0.0,-1.0
128146025,128145507,-0.04316828,-0.10035584,-0.023224449,0.0,0.0,0.0,0.0,-1.0
128167008,128166307,-0.04327053,-0.100542806,-0.023456804,0.0,0.0,0.0,0.0,-1.0
128190817,128190306,-0.04305751,-0.100179985,-0.023390967,0.0,0.0,0.0,0.0,-1.0
128210793,128210307,-0.04338239,-0.10031348,-0.023363128,0.0,0.0,0.0,0.0,-1.0
128230794,128230307,-0.04333263,-0.099917546,-0.02326196,0.0,0.0,0.0,0.0,-1.0
128251030,128250307,-0.043473467,-0.100032404,-0.02333636,0.0,0.0,0.0,0.0,-1.0
128270795,128270307,-0.043158285,-0.10003256,-0.023238769,0.0,0.0,0.0,0.0,-1.0
128295608,128295108,-0.043192994,-0.10070882,-0.02316225,0.0,0.0,0.0,0.0,-1.0
128315579,128315115,-0.043813724,-0.099876024,-0.02322215,0.0,0.0,0.0,0.0,-1.0
128335869,128335109,-0.04299971,-0.10046041,-0.02331007,0.0,0.0,0.0,0.0,-1.0
128355787,128355108,-0.04351747,-0.1000187,-0.02336205,0.0,0.0,0.0,0.0,-1.0
128379580,128379108,-0.04303417,-0.10034716,-0.02326609,0.0,0.0,0.0,0.0,-1.0
128399580,128399108,-0.043159887,-0.09995644,-0.023345286,0.0,0.0,0.0,0.0,-1.0
128419568,128419109,-0.04290513,-0.100036085,-0.023195324,0.0,0.0,0.0,0.0,-1.0
128440350,128439907,-0.043131527,-0.100709215,-0.023396162,0.0,0.0,0.0,0.0,-1.0
128460389,128459935,-0.04317878,-0.10051166,-0.023158086,0.0,0.0,0.0,0.0,-1.0
128480353,128479907,-0.043718524,-0.10034046,-0.023314392,0.0,0.0,0.0,0.0,-1.0
128505610,128503907,-0.042790323,-0.100426026,-0.023137009,0.0,0.0,0.0,0.0,-1.0
128525419,128523901,-0.043508247,-0.10019905,-0.023321977,0.0,0.0,0.0,0.0,-1.0
128545769,128543924,-0.043148637,-0.1006316,-0.023290804,0.0,0.0,0.0,0.0,-1.0
128565464,128564707,-0.04338194,-0.10031135,-0.023077106,0.0,0.0,0.0,0.0,-1.0
128589197,128588707,-0.042925555,-0.10044119,-0.023343205,0.0,0.0,0.0,0.0,-1.0
128609069,128608707,-0.043421146,-0.10009095,-0.02332518,0.0,0.0,0.0,0.0,-1.0
128629207,128628707,-0.043682076,-0.10006641,-0.023230648,0.0,0.0,0.0,0.0,-1.0
128649208,128648706,-0.042511303,-0.10057603,-0.023205869,0.0,0.0,0.0,0.0,-1.0
128673182,128672707,-0.043175567,-0.100697055,-0.023486232,0.0,0.0,0.0,0.0,-1.0
128693174,128692707,-0.043094847,-0.10053814,-0.023340857,0.0,0.0,0.0,0.0,-1.0
128713990,128713507,-0.04375801,-0.10047137,-0.02338219,0.0,0.0,0.0,0.0,-1.0
128734034,128733510,-0.043090206,-0.10047387,-0.023215761,0.0,0.0,0.0,0.0,-1.0
