timestamp,states[0],states[1],states[2],states[3],states[4],states[5],states[6],states[7],states[8],states[9],states[10],states[11],states[12],states[13],states[14],states[15],states[16],states[17],states[18],states[19],states[20],states[21],states[22],states[23],states[24],states[25],states[26],states[27],states[28],states[29],states[30],states[31],n_states,vibe[0],vibe[1],vibe[2],covariances[0],covariances[1],covariances[2],covariances[3],covariances[4],covariances[5],covariances[6],covariances[7],covariances[8],covariances[9],covariances[10],covariances[11],covariances[12],covariances[13],covariances[14],covariances[15],covariances[16],covariances[17],covariances[18],covariances[19],covariances[20],covariances[21],covariances[22],covariances[23],covariances[24],covariances[25],covariances[26],covariances[27],pos_horiz_accuracy,pos_vert_accuracy,mag_test_ratio,vel_test_ratio,pos_test_ratio,hgt_test_ratio,tas_test_ratio,hagl_test_ratio,gps_check_fail_flags,control_mode_flags,filter_fault_flags,innovation_check_flags,solution_status_flags,nan_flags,health_flags,timeout_flags
112689688,0.0,0.0,0.099579744,0.0,0.0,0.10549213,0.0,0.0,0.045762423,0.0903238,0.0,0.0,0.0,0.0,0.0,0.0,0.0,0.0,0.0,0.0,0.0,0.0,0.0,0.0,0.0,0.0,0.0,0.0,0.0,0.0,0.0,0.0,10.0,0.0,0.0,0.0,2403.1208,7275.498,0.031691376,0.23364289,1.7224311,0.015308931,9.133786e-05,0.00010008376,8.205337e-05,0.20337614,0.0,0.0,0.0,0.0,0.0,0.0,0.0,0.0,0.0,0.0,0.0,0.0,0.0,0.0,0.0,0.0,0.0,0.0,0.0,0.0,0.0,0.0,0.0,0.0,0.0,0.0,0,0,0,0,0,0,0,1
112739714,0.0,0.0,0.095884845,0.0,0.0,0.10197852,0.0,0.0,0.045809645,0.09032272,0.0,0.0,0.0,0.0,0.0,0.0,0.0,0.0,0.0,0.0,0.0,0.0,0.0,0.0,0.0,0.0,0.0,0.0,0.0,0.0,0.0,0.0,10.0,0.0,0.0,0.0,2405.3293,7285.268,0.030926038,0.23360664,1.7235398,0.014810287,9.136247e-05,0.00010012401,8.2045124e-05,0.20337622,0.0,0.0,0.0,0.0,0.0,0.0,0.0,0.0,0.0,0.0,0.0,0.0,0.0,0.0,0.0,0.0,0.0,0.0,0.0,0.0,0.0,0.0,0.0,0.0,0.0,0.0,0,0,0,0,0,0,0,1
112789731,0.0,0.0,0.099359356,0.0,0.0,0.1053692,0.0,0.0,0.045813754,0.090323575,0.0,0.0,0.0,0.0,0.0,0.0,0.0,0.0,0.0,0.0,0.0,0.0,0.0,0.0,0.0,0.0,0.0,0.0,0.0,0.0,0.0,0.0,10.0,0.0,0.0,0.0,2407.5383,7295.047,0.031680558,0.23363857,1.7246488,0.015304893,9.1393835e-05,0.000100164776,8.209198e-05,0.2033763,0.0,0.0,0.0,0.0,0.0,0.0,0.0,0.0,0.0,0.0,0.0,0.0,0.0,0.0,0.0,0.0,0.0,0.0,0.0,0.0,0.0,0.0,0.0,0.0,0.0,0.0,0,0,0,0,0,0,0,1
112849764,0.0,0.0,0.09653223,0.0,0.0,0.10344936,0.0,0.0,0.045860965,0.090322785,0.0,0.0,0.0,0.0,0.0,0.0,0.0,0.0,0.0,0.0,0.0,0.0,0.0,0.0,0.0,0.0,0.0,0.0,0.0,0.0,0.0,0.0,10.0,0.0,0.0,0.0,2410.1912,7306.797,0.031069648,0.23360868,1.7259808,0.01490904,9.1424685e-05,0.000100213176,8.209328e-05,0.20337638,0.0,0.0,0.0,0.0,0.0,0.0,0.0,0.0,0.0,0.0,0.0,0.0,0.0,0.0,0.0,0.0,0.0,0.0,0.0,0.0,0.0,0.0,0.0,0.0,0.0,0.0,0,0,0,0,0,0,0,1
112899785,0.0,0.0,0.10004368,0.0,0.0,0.106115535,0.0,0.0,0.045865156,0.09032364,0.0,0.0,0.0,0.0,0.0,0.0,0.0,0.0,0.0,0.0,0.0,0.0,0.0,0.0,0.0,0.0,0.0,0.0,0.0,0.0,0.0,0.0,10.0,0.0,0.0,0.0,2412.4026,7316.5977,0.03183113,0.23364188,1.7270912,0.01540267,9.14561e-05,0.00010025396,8.214006e-05,0.20337646,0.0,0.0,0.0,0.0,0.0,0.0,0.0,0.0,0.0,0.0,0.0,0.0,0.0,0.0,0.0,0.0,0.0,0.0,0.0,0.0,0.0,0.0,0.0,0.0,0.0,0.0,0,0,0,0,0,0,0,1
112949804,0.0,0.0,0.09653109,0.0,0.0,0.10373862,0.0,0.0,0.045911465,0.090322636,0.0,0.0,0.0,0.0,0.0,0.0,0.0,0.0,0.0,0.0,0.0,0.0,0.0,0.0,0.0,0.0,0.0,0.0,0.0,0.0,0.0,0.0,10.0,0.0,0.0,0.0,2414.615,7326.407,0.031065673,0.23360495,1.728202,0.01490865,9.1480615e-05,0.00010029418,8.213198e-05,0.20337653,0.0,0.0,0.0,0.0,0.0,0.0,0.0,0.0,0.0,0.0,0.0,0.0,0.0,0.0,0.0,0.0,0.0,0.0,0.0,0.0,0.0,0.0,0.0,0.0,0.0,0.0,0,0,0,0,0,0,0,1
112999832,0.0,0.0,0.10006919,0.0,0.0,0.106599696,0.0,0.0,0.045915656,0.09032349,0.0,0.0,0.0,0.0,0.0,0.0,0.0,0.0,0.0,0.0,0.0,0.0,0.0,0.0,0.0,0.0,0.0,0.0,0.0,0.0,0.0,0.0,10.0,0.0,0.0,0.0,2416.8289,7336.2285,0.03182732,0.23363838,1.7293137,0.015402374,9.151203e-05,0.00010033496,8.217877e-05,0.2033766,0.0,0.0,0.0,0.0,0.0,0.0,0.0,0.0,0.0,0.0,0.0,0.0,0.0,0.0,0.0,0.0,0.0,0.0,0.0,0.0,0.0,0.0,0.0,0.0,0.0,0.0,0,0,0,0,0,0,0,1
113059931,0.0,0.0,0.09724596,0.0,0.0,0.10398143,0.0,0.0,0.04596291,0.0903226,0.0,0.0,0.0,0.0,0.0,0.0,0.0,0.0,0.0,0.0,0.0,0.0,0.0,0.0,0.0,0.0,0.0,0.0,0.0,0.0,0.0,0.0,10.0,0.0,0.0,0.0,2419.4897,7348.04,0.031213235,0.23360857,1.7306498,0.015008138,9.1542846e-05,0.0001003834,8.2180086e-05,0.2033767,0.0,0.0,0.0,0.0,0.0,0.0,0.0,0.0,0.0,0.0,0.0,0.0,0.0,0.0,0.0,0.0,0.0,0.0,0.0,0.0,0.0,0.0,0.0,0.0,0.0,0.0,0,0,0,0,0,0,0,1
113110039,0.0,0.0,0.100775816,0.0,0.0,0.10706737,0.0,0.0,0.045967188,0.090323456,0.0,0.0,0.0,0.0,0.0,0.0,0.0,0.0,0.0,0.0,0.0,0.0,0.0,0.0,0.0,0.0,0.0,0.0,0.0,0.0,0.0,0.0,10.0,0.0,0.0,0.0,2421.7092,7357.8984,0.03198387,0.23364407,1.7317646,0.015501647,9.1574395e-05,0.000100424266,8.222687e-05,0.20337677,0.0,0.0,0.0,0.0,0.0,0.0,0.0,0.0,0.0,0.0,0.0,0.0,0.0,0.0,0.0,0.0,0.0,0.0,0.0,0.0,0.0,0.0,0.0,0.0,0.0,0.0,0,0,0,0,0,0,0,1
113160043,0.0,0.0,0.09722849,0.0,0.0,0.10389941,0.0,0.0,0.0460136,0.09032239,0.0,0.0,0.0,0.0,0.0,0.0,0.0,0.0,0.0,0.0,0.0,0.0,0.0,0.0,0.0,0.0,0.0,0.0,0.0,0.0,0.0,0.0,10.0,0.0,0.0,0.0,2423.925,7367.7466,0.031208448,0.23360585,1.7328774,0.015006621,9.1598755e-05,0.00010046444,8.221864e-05,0.20337684,0.0,0.0,0.0,0.0,0.0,0.0,0.0,0.0,0.0,0.0,0.0,0.0,0.0,0.0,0.0,0.0,0.0,0.0,0.0,0.0,0.0,0.0,0.0,0.0,0.0,0.0,0,0,0,0,0,0,0,1
113210156,0.0,0.0,0.10077027,0.0,0.0,0.107073866,0.0,0.0,0.04601788,0.09032325,0.0,0.0,0.0,0.0,0.0,0.0,0.0,0.0,0.0,0.0,0.0,0.0,0.0,0.0,0.0,0.0,0.0,0.0,0.0,0.0,0.0,0.0,10.0,0.0,0.0,0.0,2426.1472,7377.6255,0.031979103,0.23364148,1.7339933,0.015500209,9.1630296e-05,0.00010050531,8.226543e-05,0.20337692,0.0,0.0,0.0,0.0,0.0,0.0,0.0,0.0,0.0,0.0,0.0,0.0,0.0,0.0,0.0,0.0,0.0,0.0,0.0,0.0,0.0,0.0,0.0,0.0,0.0,0.0,0,0,0,0,0,0,0,1
113270187,0.0,0.0,0.09795465,0.0,0.0,0.10494557,0.0,0.0,0.04606509,0.090322316,0.0,0.0,0.0,0.0,0.0,0.0,0.0,0.0,0.0,0.0,0.0,0.0,0.0,0.0,0.0,0.0,0.0,0.0,0.0,0.0,0.0,0.0,10.0,0.0,0.0,0.0,2428.8103,7389.473,0.031357825,0.23361018,1.7353306,0.01510603,9.1660935e-05,0.000100553654,8.226664e-05,0.20337701,0.0,0.0,0.0,0.0,0.0,0.0,0.0,0.0,0.0,0.0,0.0,0.0,0.0,0.0,0.0,0.0,0.0,0.0,0.0,0.0,0.0,0.0,0.0,0.0,0.0,0.0,0,0,0,0,0,0,0,1
113320207,0.0,0.0,0.0944574,0.0,0.0,0.10213258,0.0,0.0,0.04611189,0.09032121,0.0,0.0,0.0,0.0,0.0,0.0,0.0,0.0,0.0,0.0,0.0,0.0,0.0,0.0,0.0,0.0,0.0,0.0,0.0,0.0,0.0,0.0,10.0,0.0,0.0,0.0,2431.0303,7399.355,0.030613715,0.23357667,1.7364454,0.0146089755,9.168556e-05,0.00010059388,8.2258135e-05,0.20337708,0.0,0.0,0.0,0.0,0.0,0.0,0.0,0.0,0.0,0.0,0.0,0.0,0.0,0.0,0.0,0.0,0.0,0.0,0.0,0.0,0.0,0.0,0.0,0.0,0.0,0.0,0,0,0,0,0,0,0,1
113370235,0.0,0.0,0.097961046,0.0,0.0,0.10516912,0.0,0.0,0.046115853,0.09032206,0.0,0.0,0.0,0.0,0.0,0.0,0.0,0.0,0.0,0.0,0.0,0.0,0.0,0.0,0.0,0.0,0.0,0.0,0.0,0.0,0.0,0.0,10.0,0.0,0.0,0.0,2433.2515,7409.249,0.031354573,0.23360723,1.7375611,0.01510584,9.171673e-05,0.000100634614,8.2305145e-05,0.20337716,0.0,0.0,0.0,0.0,0.0,0.0,0.0,0.0,0.0,0.0,0.0,0.0,0.0,0.0,0.0,0.0,0.0,0.0,0.0,0.0,0.0,0.0,0.0,0.0,0.0,0.0,0,0,0,0,0,0,0,1
113420255,0.0,0.0,0.094466515,0.0,0.0,0.10257128,0.0,0.0,0.046162765,0.09032095,0.0,0.0,0.0,0.0,0.0,0.0,0.0,0.0,0.0,0.0,0.0,0.0,0.0,0.0,0.0,0.0,0.0,0.0,0.0,0.0,0.0,0.0,10.0,0.0,0.0,0.0,2435.4734,7419.151,0.030610647,0.23357382,1.7386771,0.0146088125,9.174132e-05,0.00010067484,8.229659e-05,0.20337723,0.0,0.0,0.0,0.0,0.0,0.0,0.0,0.0,0.0,0.0,0.0,0.0,0.0,0.0,0.0,0.0,0.0,0.0,0.0,0.0,0.0,0.0,0.0,0.0,0.0,0.0,0,0,0,0,0,0,0,1
113480360,0.0,0.0,0.09872135,0.0,0.0,0.10598115,0.0,0.0,0.046167575,0.09032197,0.0,0.0,0.0,0.0,0.0,0.0,0.0,0.0,0.0,0.0,0.0,0.0,0.0,0.0,0.0,0.0,0.0,0.0,0.0,0.0,0.0,0.0,10.0,0.0,0.0,0.0,2438.1448,7431.062,0.031505685,0.23361205,1.740019,0.015205207,9.177881e-05,0.00010072378,8.235302e-05,0.20337732,0.0,0.0,0.0,0.0,0.0,0.0,0.0,0.0,0.0,0.0,0.0,0.0,0.0,0.0,0.0,0.0,0.0,0.0,0.0,0.0,0.0,0.0,0.0,0.0,0.0,0.0,0,0,0,0,0,0,0,1
113530480,0.0,0.0,0.09519501,0.0,0.0,0.10301384,0.0,0.0,0.04621471,0.09032085,0.0,0.0,0.0,0.0,0.0,0.0,0.0,0.0,0.0,0.0,0.0,0.0,0.0,0.0,0.0,0.0,0.0,0.0,0.0,0.0,0.0,0.0,10.0,0.0,0.0,0.0,2440.3735,7441.0054,0.030755296,0.23357856,1.7411386,0.0147088375,9.180341e-05,0.00010076409,8.234451e-05,0.2033774,0.0,0.0,0.0,0.0,0.0,0.0,0.0,0.0,0.0,0.0,0.0,0.0,0.0,0.0,0.0,0.0,0.0,0.0,0.0,0.0,0.0,0.0,0.0,0.0,0.0,0.0,0,0,0,0,0,0,0,1
113580497,0.0,0.0,0.09871032,0.0,0.0,0.10547575,0.0,0.0,0.04621876,0.090321705,0.0,0.0,0.0,0.0,0.0,0.0,0.0,0.0,0.0,0.0,0.0,0.0,0.0,0.0,0.0,0.0,0.0,0.0,0.0,0.0,0.0,0.0,10.0,0.0,0.0,0.0,2442.5984,7450.938,0.031502817,0.23361024,1.7422564,0.015204595,9.18346e-05,0.000100804806,8.239142e-05,0.20337747,0.0,0.0,0.0,0.0,0.0,0.0,0.0,0.0,0.0,0.0,0.0,0.0,0.0,0.0,0.0,0.0,0.0,0.0,0.0,0.0,0.0,0.0,0.0,0.0,0.0,0.0,0,0,0,0,0,0,0,1
113630528,0.0,0.0,0.09515378,0.0,0.0,0.102505386,0.0,0.0,0.046265874,0.09032059,0.0,0.0,0.0,0.0,0.0,0.0,0.0,0.0,0.0,0.0,0.0,0.0,0.0,0.0,0.0,0.0,0.0,0.0,0.0,0.0,0.0,0.0,10.0,0.0,0.0,0.0,2444.8252,7460.8833,0.030748485,0.23357582,1.743375,0.014705996,9.1859074e-05,0.00010084501,8.2382685e-05,0.20337754,0.0,0.0,0.0,0.0,0.0,0.0,0.0,0.0,0.0,0.0,0.0,0.0,0.0,0.0,0.0,0.0,0.0,0.0,0.0,0.0,0.0,0.0,0.0,0.0,0.0,0.0,0,0,0,0,0,0,0,1
113680582,0.0,0.0,0.09865204,0.0,0.0,0.10496115,0.0,0.0,0.046269923,0.090321444,0.0,0.0,0.0,0.0,0.0,0.0,0.0,0.0,0.0,0.0,0.0,0.0,0.0,0.0,0.0,0.0,0.0,0.0,0.0,0.0,0.0,0.0,10.0,0.0,0.0,0.0,2447.0542,7470.8438,0.0314968,0.23360799,1.7444946,0.015202186,9.1890295e-05,0.00010088576,8.242964e-05,0.20337762,0.0,0.0,0.0,0.0,0.0,0.0,0.0,0.0,0.0,0.0,0.0,0.0,0.0,0.0,0.0,0.0,0.0,0.0,0.0,0.0,0.0,0.0,0.0,0.0,0.0,0.0,0,0,0,0,0,0,0,1
113740606,0.0,0.0,0.09526596,0.0,0.0,0.10181593,0.0,0.0,0.04632084,0.09032034,0.0,0.0,0.0,0.0,0.0,0.0,0.0,0.0,0.0,0.0,0.0,0.0,0.0,0.0,0.0,0.0,0.0,0.0,0.0,0.0,0.0,0.0,10.0,0.0,0.0,0.0,2449.7283,7482.801,0.030756922,0.23357414,1.745838,0.014712013,9.1920374e-05,0.00010093405,8.242514e-05,0.20337771,0.0,0.0,0.0,0.0,0.0,0.0,0.0,0.0,0.0,0.0,0.0,0.0,0.0,0.0,0.0,0.0,0.0,0.0,0.0,0.0,0.0,0.0,0.0,0.0,0.0,0.0,0,0,0,0,0,0,0,1
113790627,0.0,0.0,0.09873474,0.0,0.0,0.10431735,0.0,0.0,0.046324898,0.0903212,0.0,0.0,0.0,0.0,0.0,0.0,0.0,0.0,0.0,0.0,0.0,0.0,0.0,0.0,0.0,0.0,0.0,0.0,0.0,0.0,0.0,0.0,10.0,0.0,0.0,0.0,2451.958,7492.776,0.031504847,0.23360613,1.7469583,0.0152078,9.195154e-05,0.00010097476,8.247204e-05,0.20337778,0.0,0.0,0.0,0.0,0.0,0.0,0.0,0.0,0.0,0.0,0.0,0.0,0.0,0.0,0.0,0.0,0.0,0.0,0.0,0.0,0.0,0.0,0.0,0.0,0.0,0.0,0,0,0,0,0,0,0,1
113840654,0.0,0.0,0.09515622,0.0,0.0,0.10199465,0.0,0.0,0.046371862,0.09032009,0.0,0.0,0.0,0.0,0.0,0.0,0.0,0.0,0.0,0.0,0.0,0.0,0.0,0.0,0.0,0.0,0.0,0.0,0.0,0.0,0.0,0.0,10.0,0.0,0.0,0.0,2454.189,7502.762,0.030747145,0.23357144,1.7480791,0.014708291,9.197593e-05,0.00010101495,8.246316e-05,0.20337786,0.0,0.0,0.0,0.0,0.0,0.0,0.0,0.0,0.0,0.0,0.0,0.0,0.0,0.0,0.0,0.0,0.0,0.0,0.0,0.0,0.0,0.0,0.0,0.0,0.0,0.0,0,0,0,0,0,0,0,1
113890746,0.0,0.0,0.09864181,0.0,0.0,0.104877084,0.0,0.0,0.046375915,0.090320945,0.0,0.0,0.0,0.0,0.0,0.0,0.0,0.0,0.0,0.0,0.0,0.0,0.0,0.0,0.0,0.0,0.0,0.0,0.0,0.0,0.0,0.0,10.0,0.0,0.0,0.0,2456.424,7512.7715,0.031496674,0.23360421,1.7492019,0.015204884,9.2007154e-05,0.00010105572,8.251013e-05,0.20337793,0.0,0.0,0.0,0.0,0.0,0.0,0.0,0.0,0.0,0.0,0.0,0.0,0.0,0.0,0.0,0.0,0.0,0.0,0.0,0.0,0.0,0.0,0.0,0.0,0.0,0.0,0,0,0,0,0,0,0,1
113950862,0.0,0.0,0.09582731,0.0,0.0,0.10272305,0.0,0.0,0.046423417,0.09032001,0.0,0.0,0.0,0.0,0.0,0.0,0.0,0.0,0.0,0.0,0.0,0.0,0.0,0.0,0.0,0.0,0.0,0.0,0.0,0.0,0.0,0.0,10.0,0.0,0.0,0.0,2459.1072,7524.796,0.030892717,0.23357677,1.7505502,0.01480796,9.2037844e-05,0.00010110414,8.251079e-05,0.20337802,0.0,0.0,0.0,0.0,0.0,0.0,0.0,0.0,0.0,0.0,0.0,0.0,0.0,0.0,0.0,0.0,0.0,0.0,0.0,0.0,0.0,0.0,0.0,0.0,0.0,0.0,0,0,0,0,0,0,0,1
114000924,0.0,0.0,0.099336006,0.0,0.0,0.10526162,0.0,0.0,0.04642755,0.09032087,0.0,0.0,0.0,0.0,0.0,0.0,0.0,0.0,0.0,0.0,0.0,0.0,0.0,0.0,0.0,0.0,0.0,0.0,0.0,0.0,0.0,0.0,10.0,0.0,0.0,0.0,2461.343,7534.821,0.03164838,0.23361033,1.7516735,0.015303212,9.206907e-05,0.000101144884,8.255765e-05,0.2033781,0.0,0.0,0.0,0.0,0.0,0.0,0.0,0.0,0.0,0.0,0.0,0.0,0.0,0.0,0.0,0.0,0.0,0.0,0.0,0.0,0.0,0.0,0.0,0.0,0.0,0.0,0,0,0,0,0,0,0,1
114051024,0.0,0.0,0.09582679,0.0,0.0,0.102471046,0.0,0.0,0.04647411,0.09031977,0.0,0.0,0.0,0.0,0.0,0.0,0.0,0.0,0.0,0.0,0.0,0.0,0.0,0.0,0.0,0.0,0.0,0.0,0.0,0.0,0.0,0.0,10.0,0.0,0.0,0.0,2463.5815,7544.8633,0.03089313,0.23357594,1.7527982,0.014809118,9.2093476e-05,0.00010118513,8.2549e-05,0.20337817,0.0,0.0,0.0,0.0,0.0,0.0,0.0,0.0,0.0,0.0,0.0,0.0,0.0,0.0,0.0,0.0,0.0,0.0,0.0,0.0,0.0,0.0,0.0,0.0,0.0,0.0,0,0,0,0,0,0,0,1
114100985,0.0,0.0,0.09932369,0.0,0.0,0.1057558,0.0,0.0,0.04647825,0.090320624,0.0,0.0,0.0,0.0,0.0,0.0,0.0,0.0,0.0,0.0,0.0,0.0,0.0,0.0,0.0,0.0,0.0,0.0,0.0,0.0,0.0,0.0,10.0,0.0,0.0,0.0,2465.815,7554.888,0.031646285,0.23360847,1.7539206,0.015303308,9.21246e-05,0.00010122576,8.259576e-05,0.20337825,0.0,0.0,0.0,0.0,0.0,0.0,0.0,0.0,0.0,0.0,0.0,0.0,0.0,0.0,0.0,0.0,0.0,0.0,0.0,0.0,0.0,0.0,0.0,0.0,0.0,0.0,0,0,0,0,0,0,0,1
114161022,0.0,0.0,0.09653285,0.0,0.0,0.103676684,0.0,0.0,0.04652565,0.09031969,0.0,0.0,0.0,0.0,0.0,0.0,0.0,0.0,0.0,0.0,0.0,0.0,0.0,0.0,0.0,0.0,0.0,0.0,0.0,0.0,0.0,0.0,10.0,0.0,0.0,0.0,2468.5002,7566.9478,0.031037623,0.23357967,1.7552696,0.014907794,9.21551e-05,0.00010127406,8.259637e-05,0.20337833,0.0,0.0,0.0,0.0,0.0,0.0,0.0,0.0,0.0,0.0,0.0,0.0,0.0,0.0,0.0,0.0,0.0,0.0,0.0,0.0,0.0,0.0,0.0,0.0,0.0,0.0,0,0,0,0,0,0,0,1
114211046,0.0,0.0,0.100050695,0.0,0.0,0.10638798,0.0,0.0,0.04652987,0.09032055,0.0,0.0,0.0,0.0,0.0,0.0,0.0,0.0,0.0,0.0,0.0,0.0,0.0,0.0,0.0,0.0,0.0,0.0,0.0,0.0,0.0,0.0,10.0,0.0,0.0,0.0,2470.7385,7577.007,0.031799294,0.23361406,1.7563945,0.015401618,9.218633e-05,0.00010131477,8.264311e-05,0.20337841,0.0,0.0,0.0,0.0,0.0,0.0,0.0,0.0,0.0,0.0,0.0,0.0,0.0,0.0,0.0,0.0,0.0,0.0,0.0,0.0,0.0,0.0,0.0,0.0,0.0,0.0,0,0,0,0,0,0,0,1
114261152,0.0,0.0,0.09653703,0.0,0.0,0.10298842,0.0,0.0,0.046576496,0.09031945,0.0,0.0,0.0,0.0,0.0,0.0,0.0,0.0,0.0,0.0,0.0,0.0,0.0,0.0,0.0,0.0,0.0,0.0,0.0,0.0,0.0,0.0,10.0,0.0,0.0,0.0,2472.9817,7587.092,0.031037701,0.23357877,1.7575217,0.014908644,9.221062e-05,0.00010135498,8.263444e-05,0.20337848,0.0,0.0,0.0,0.0,0.0,0.0,0.0,0.0,0.0,0.0,0.0,0.0,0.0,0.0,0.0,0.0,0.0,0.0,0.0,0.0,0.0,0.0,0.0,0.0,0.0,0.0,0,0,0,0,0,0,0,1
114311236,0.0,0.0,0.1000131,0.0,0.0,0.10492244,0.0,0.0,0.046580717,0.090320304,0.0,0.0,0.0,0.0,0.0,0.0,0.0,0.0,0.0,0.0,0.0,0.0,0.0,0.0,0.0,0.0,0.0,0.0,0.0,0.0,0.0,0.0,10.0,0.0,0.0,0.0,2475.2246,7597.1826,0.03180104,0.23361385,1.7586491,0.015403098,9.224189e-05,0.00010139573,8.268123e-05,0.20337856,0.0,0.0,0.0,0.0,0.0,0.0,0.0,0.0,0.0,0.0,0.0,0.0,0.0,0.0,0.0,0.0,0.0,0.0,0.0,0.0,0.0,0.0,0.0,0.0,0.0,0.0,0,0,0,0,0,0,0,1
114371315,0.0,0.0,0.097152315,0.0,0.0,0.10254743,0.0,0.0,0.046627972,0.090319425,0.0,0.0,0.0,0.0,0.0,0.0,0.0,0.0,0.0,0.0,0.0,0.0,0.0,0.0,0.0,0.0,0.0,0.0,0.0,0.0,0.0,0.0,10.0,0.0,0.0,0.0,2477.9167,7609.3003,0.031185364,0.2335846,1.7600021,0.015007096,9.227232e-05,0.00010144405,8.2681756e-05,0.20337865,0.0,0.0,0.0,0.0,0.0,0.0,0.0,0.0,0.0,0.0,0.0,0.0,0.0,0.0,0.0,0.0,0.0,0.0,0.0,0.0,0.0,0.0,0.0,0.0,0.0,0.0,0,0,0,0,0,0,0,1
114421335,0.0,0.0,0.10060179,0.0,0.0,0.10521303,0.0,0.0,0.046632275,0.09032028,0.0,0.0,0.0,0.0,0.0,0.0,0.0,0.0,0.0,0.0,0.0,0.0,0.0,0.0,0.0,0.0,0.0,0.0,0.0,0.0,0.0,0.0,10.0,0.0,0.0,0.0,2480.1592,7619.4,0.0319538,0.23362015,1.7611293,0.015499814,9.2303584e-05,0.00010148476,8.272841e-05,0.20337872,0.0,0.0,0.0,0.0,0.0,0.0,0.0,0.0,0.0,0.0,0.0,0.0,0.0,0.0,0.0,0.0,0.0,0.0,0.0,0.0,0.0,0.0,0.0,0.0,0.0,0.0,0,0,0,0,0,0,0,1
114471356,0.0,0.0,0.0971235,0.0,0.0,0.10308451,0.0,0.0,0.046678208,0.09031921,0.0,0.0,0.0,0.0,0.0,0.0,0.0,0.0,0.0,0.0,0.0,0.0,0.0,0.0,0.0,0.0,0.0,0.0,0.0,0.0,0.0,0.0,10.0,0.0,0.0,0.0,2482.4028,7629.51,0.031183282,0.23358293,1.762257,0.015007013,9.2327675e-05,0.00010152486,8.2719635e-05,0.2033788,0.0,0.0,0.0,0.0,0.0,0.0,0.0,0.0,0.0,0.0,0.0,0.0,0.0,0.0,0.0,0.0,0.0,0.0,0.0,0.0,0.0,0.0,0.0,0.0,0.0,0.0,0,0,0,0,0,0,0,1
114521458,0.0,0.0,0.10062349,0.0,0.0,0.10598696,0.0,0.0,0.046682518,0.090320066,0.0,0.0,0.0,0.0,0.0,0.0,0.0,0.0,0.0,0.0,0.0,0.0,0.0,0.0,0.0,0.0,0.0,0.0,0.0,0.0,0.0,0.0,10.0,0.0,0.0,0.0,2484.651,7639.646,0.031953916,0.23361939,1.7633872,0.015500604,9.2359005e-05,0.000101565645,8.276636e-05,0.20337887,0.0,0.0,0.0,0.0,0.0,0.0,0.0,0.0,0.0,0.0,0.0,0.0,0.0,0.0,0.0,0.0,0.0,0.0,0.0,0.0,0.0,0.0,0.0,0.0,0.0,0.0,0,0,0,0,0,0,0,1
114581478,0.0,0.0,0.097850665,0.0,0.0,0.10371421,0.0,0.0,0.04672942,0.09031916,0.0,0.0,0.0,0.0,0.0,0.0,0.0,0.0,0.0,0.0,0.0,0.0,0.0,0.0,0.0,0.0,0.0,0.0,0.0,0.0,0.0,0.0,10.0,0.0,0.0,0.0,2487.3452,7651.802,0.031333152,0.23358877,1.7647417,0.015106003,9.238929e-05,0.000101613885,8.2766855e-05,0.20337896,0.0,0.0,0.0,0.0,0.0,0.0,0.0,0.0,0.0,0.0,0.0,0.0,0.0,0.0,0.0,0.0,0.0,0.0,0.0,0.0,0.0,0.0,0.0,0.0,0.0,0.0,0,0,0,0,0,0,0,1
114631602,0.0,0.0,0.09440027,0.0,0.0,0.100761816,0.0,0.0,0.04677593,0.09031812,0.0,0.0,0.0,0.0,0.0,0.0,0.0,0.0,0.0,0.0,0.0,0.0,0.0,0.0,0.0,0.0,0.0,0.0,0.0,0.0,0.0,0.0,10.0,0.0,0.0,0.0,2489.5967,7661.9644,0.030591734,0.23355694,1.7658734,0.014609301,9.24137e-05,0.000101654136,8.275771e-05,0.20337903,0.0,0.0,0.0,0.0,0.0,0.0,0.0,0.0,0.0,0.0,0.0,0.0,0.0,0.0,0.0,0.0,0.0,0.0,0.0,0.0,0.0,0.0,0.0,0.0,0.0,0.0,0,0,0,0,0,0,0,1
114681622,0.0,0.0,0.09783481,0.0,0.0,0.10305157,0.0,0.0,0.04677992,0.09031897,0.0,0.0,0.0,0.0,0.0,0.0,0.0,0.0,0.0,0.0,0.0,0.0,0.0,0.0,0.0,0.0,0.0,0.0,0.0,0.0,0.0,0.0,10.0,0.0,0.0,0.0,2491.8445,7672.116,0.031332675,0.23358831,1.7670035,0.015106189,9.244465e-05,0.00010169477,8.280467e-05,0.20337911,0.0,0.0,0.0,0.0,0.0,0.0,0.0,0.0,0.0,0.0,0.0,0.0,0.0,0.0,0.0,0.0,0.0,0.0,0.0,0.0,0.0,0.0,0.0,0.0,0.0,0.0,0,0,0,0,0,0,0,1
114731659,0.0,0.0,0.09438138,0.0,0.0,0.10073996,0.0,0.0,0.04682624,0.090317905,0.0,0.0,0.0,0.0,0.0,0.0,0.0,0.0,0.0,0.0,0.0,0.0,0.0,0.0,0.0,0.0,0.0,0.0,0.0,0.0,0.0,0.0,10.0,0.0,0.0,0.0,2494.094,7682.2817,0.030590206,0.23355567,1.7681346,0.014609306,9.246896e-05,0.00010173493,8.279543e-05,0.20337918,0.0,0.0,0.0,0.0,0.0,0.0,0.0,0.0,0.0,0.0,0.0,0.0,0.0,0.0,0.0,0.0,0.0,0.0,0.0,0.0,0.0,0.0,0.0,0.0,0.0,0.0,0,0,0,0,0,0,0,1
114791707,0.0,0.0,0.098493285,0.0,0.0,0.10326671,0.0,0.0,0.046831075,0.090318926,0.0,0.0,0.0,0.0,0.0,0.0,0.0,0.0,0.0,0.0,0.0,0.0,0.0,0.0,0.0,0.0,0.0,0.0,0.0,0.0,0.0,0.0,10.0,0.0,0.0,0.0,2496.795,7694.4937,0.031484146,0.23359424,1.7694925,0.015205219,9.250615e-05,0.00010178372,8.2851744e-05,0.20337927,0.0,0.0,0.0,0.0,0.0,0.0,0.0,0.0,0.0,0.0,0.0,0.0,0.0,0.0,0.0,0.0,0.0,0.0,0.0,0.0,0.0,0.0,0.0,0.0,0.0,0.0,0,0,0,0,0,0,0,1
114841734,0.0,0.0,0.095024616,0.0,0.0,0.1010019,0.0,0.0,0.04687733,0.0903179,0.0,0.0,0.0,0.0,0.0,0.0,0.0,0.0,0.0,0.0,0.0,0.0,0.0,0.0,0.0,0.0,0.0,0.0,0.0,0.0,0.0,0.0,10.0,0.0,0.0,0.0,2499.0461,7704.679,0.030730166,0.23356028,1.7706244,0.014706198,9.253033e-05,0.00010182385,8.284235e-05,0.20337935,0.0,0.0,0.0,0.0,0.0,0.0,0.0,0.0,0.0,0.0,0.0,0.0,0.0,0.0,0.0,0.0,0.0,0.0,0.0,0.0,0.0,0.0,0.0,0.0,0.0,0.0,0,0,0,0,0,0,0,1
114891753,0.0,0.0,0.099341795,0.0,0.0,0.14308986,0.0,0.0,0.046879724,0.090318754,0.0,0.0,0.0,0.0,0.0,0.0,0.0,0.0,0.0,0.0,0.0,0.0,0.0,0.0,0.0,0.0,0.0,0.0,0.0,0.0,0.0,0.0,10.0,0.0,0.0,0.0,2501.2983,7714.8726,0.03147789,0.2335927,1.7717569,0.015202146,9.256131e-05,0.00010186448,8.288922e-05,0.20337942,0.0,0.0,0.0,0.0,0.0,0.0,0.0,0.0,0.0,0.0,0.0,0.0,0.0,0.0,0.0,0.0,0.0,0.0,0.0,0.0,0.0,0.0,0.0,0.0,0.0,0.0,0,0,0,0,0,0,0,1
114941774,0.0,0.0,0.09542343,0.0,0.0,0.13160723,0.0,0.0,0.046939738,0.090317085,0.0,0.0,0.0,0.0,0.0,0.0,0.0,0.0,0.0,0.0,0.0,0.0,0.0,0.0,0.0,0.0,0.0,0.0,0.0,0.0,0.0,0.0,10.0,0.0,0.0,0.0,2503.5515,7725.077,0.030594798,0.23355362,1.7728901,0.014613024,9.258499e-05,0.00010190453,8.287381e-05,0.2033795,0.0,0.0,0.0,0.0,0.0,0.0,0.0,0.0,0.0,0.0,0.0,0.0,0.0,0.0,0.0,0.0,0.0,0.0,0.0,0.0,0.0,0.0,0.0,0.0,0.0,0.0,0,0,0,0,0,0,0,1
114991793,0.0,0.0,0.100427,0.0,0.0,0.1367577,0.0,0.0,0.046943817,0.09031794,0.0,0.0,0.0,0.0,0.0,0.0,0.0,0.0,0.0,0.0,0.0,0.0,0.0,0.0,0.0,0.0,0.0,0.0,0.0,0.0,0.0,0.0,10.0,0.0,0.0,0.0,2505.8057,7735.291,0.03133611,0.2335851,1.7740241,0.015109968,9.26159e-05,0.000101945145,8.292076e-05,0.20337957,0.0,0.0,0.0,0.0,0.0,0.0,0.0,0.0,0.0,0.0,0.0,0.0,0.0,0.0,0.0,0.0,0.0,0.0,0.0,0.0,0.0,0.0,0.0,0.0,0.0,0.0,0,0,0,0,0,0,0,1
115051817,0.0,0.0,0.09690211,0.0,0.0,0.13159461,0.0,0.0,0.047007862,0.09031642,0.0,0.0,0.0,0.0,0.0,0.0,0.0,0.0,0.0,0.0,0.0,0.0,0.0,0.0,0.0,0.0,0.0,0.0,0.0,0.0,0.0,0.0,10.0,0.0,0.0,0.0,2508.512,7747.5605,0.030731529,0.23355775,1.7753856,0.014709136,9.264657e-05,0.00010199323,8.29191e-05,0.20337966,0.0,0.0,0.0,0.0,0.0,0.0,0.0,0.0,0.0,0.0,0.0,0.0,0.0,0.0,0.0,0.0,0.0,0.0,0.0,0.0,0.0,0.0,0.0,0.0,0.0,0.0,0,0,0,0,0,0,0,1
115101837,0.0,0.0,0.101884,0.0,0.0,0.13563067,0.0,0.0,0.04701205,0.090317294,0.0,0.0,0.0,0.0,0.0,0.0,0.0,0.0,0.0,0.0,0.0,0.0,0.0,0.0,0.0,0.0,0.0,0.0,0.0,0.0,0.0,0.0,10.0,0.0,0.0,0.0,2510.7683,7757.797,0.031479605,0.23359026,1.7765208,0.015205114,9.267754e-05,0.00010203383,8.296598e-05,0.20337974,0.0,0.0,0.0,0.0,0.0,0.0,0.0,0.0,0.0,0.0,0.0,0.0,0.0,0.0,0.0,0.0,0.0,0.0,0.0,0.0,0.0,0.0,0.0,0.0,0.0,0.0,0,0,0,0,0,0,0,1
115151861,0.0,0.0,0.097064614,0.0,0.0,0.13558945,0.0,0.0,0.047076974,0.09031551,0.0,0.0,0.0,0.0,0.0,0.0,0.0,0.0,0.0,0.0,0.0,0.0,0.0,0.0,0.0,0.0,0.0,0.0,0.0,0.0,0.0,0.0,10.0,0.0,0.0,0.0,2513.026,7768.044,0.03072736,0.23355639,1.7776567,0.014707514,9.270232e-05,0.00010207363,8.295494e-05,0.20337981,0.0,0.0,0.0,0.0,0.0,0.0,0.0,0.0,0.0,0.0,0.0,0.0,0.0,0.0,0.0,0.0,0.0,0.0,0.0,0.0,0.0,0.0,0.0,0.0,0.0,0.0,0,0,0,0,0,0,0,1
115202017,0.0,0.0,0.101653226,0.0,0.0,0.12122797,0.0,0.0,0.04708115,0.090316385,0.0,0.0,0.0,0.0,0.0,0.0,0.0,0.0,0.0,0.0,0.0,0.0,0.0,0.0,0.0,0.0,0.0,0.0,0.0,0.0,0.0,0.0,10.0,0.0,0.0,0.0,2515.2903,7778.3276,0.031478845,0.23359029,1.778796,0.015204997,9.273343e-05,0.00010211433,8.300197e-05,0.20337988,0.0,0.0,0.0,0.0,0.0,0.0,0.0,0.0,0.0,0.0,0.0,0.0,0.0,0.0,0.0,0.0,0.0,0.0,0.0,0.0,0.0,0.0,0.0,0.0,0.0,0.0,0,0,0,0,0,0,0,1
115252070,0.0,0.0,0.09574948,0.0,0.0,0.08960541,0.0,0.0,0.0471457,0.09031462,0.0,0.0,0.0,0.0,0.0,0.0,0.0,0.0,0.0,0.0,0.0,0.0,0.0,0.0,0.0,0.0,0.0,0.0,0.0,0.0,0.0,0.0,10.0,0.0,0.0,0.0,2517.5515,7788.601,0.030592432,0.23355144,1.779933,0.01461341,9.2757415e-05,0.00010215424,8.29847e-05,0.20337996,0.0,0.0,0.0,0.0,0.0,0.0,0.0,0.0,0.0,0.0,0.0,0.0,0.0,0.0,0.0,0.0,0.0,0.0,0.0,0.0,0.0,0.0,0.0,0.0,0.0,0.0,0,0,0,0,0,0,0,1
115312140,0.0,0.0,0.09927214,0.0,0.0,0.1251934,0.0,0.0,0.047148064,0.09031565,0.0,0.0,0.0,0.0,0.0,0.0,0.0,0.0,0.0,0.0,0.0,0.0,0.0,0.0,0.0,0.0,0.0,0.0,0.0,0.0,0.0,0.0,10.0,0.0,0.0,0.0,2520.2664,7800.9434,0.0314876,0.23359038,1.7812982,0.015209709,9.279459e-05,0.000102202925,8.304106e-05,0.20338005,0.0,0.0,0.0,0.0,0.0,0.0,0.0,0.0,0.0,0.0,0.0,0.0,0.0,0.0,0.0,0.0,0.0,0.0,0.0,0.0,0.0,0.0,0.0,0.0,0.0,0.0,0,0,0,0,0,0,0,1
115362174,0.0,0.0,0.09563843,0.0,0.0,0.10323868,0.0,0.0,0.04720127,0.09031439,0.0,0.0,0.0,0.0,0.0,0.0,0.0,0.0,0.0,0.0,0.0,0.0,0.0,0.0,0.0,0.0,0.0,0.0,0.0,0.0,0.0,0.0,10.0,0.0,0.0,0.0,2522.5286,7811.2344,0.030729702,0.23355617,1.7824348,0.014709423,9.281856e-05,0.00010224308,8.302878e-05,0.20338012,0.0,0.0,0.0,0.0,0.0,0.0,0.0,0.0,0.0,0.0,0.0,0.0,0.0,0.0,0.0,0.0,0.0,0.0,0.0,0.0,0.0,0.0,0.0,0.0,0.0,0.0,0,0,0,0,0,0,0,1
115412195,0.0,0.0,0.09893857,0.0,0.0,0.10466757,0.0,0.0,0.04720127,0.090315245,0.0,0.0,0.0,0.0,0.0,0.0,0.0,0.0,0.0,0.0,0.0,0.0,0.0,0.0,0.0,0.0,0.0,0.0,0.0,0.0,0.0,0.0,10.0,0.0,0.0,0.0,2524.7915,7821.5327,0.03147801,0.23358849,1.7835702,0.015205605,9.284949e-05,0.00010228362,8.30757e-05,0.2033802,0.0,0.0,0.0,0.0,0.0,0.0,0.0,0.0,0.0,0.0,0.0,0.0,0.0,0.0,0.0,0.0,0.0,0.0,0.0,0.0,0.0,0.0,0.0,0.0,0.0,0.0,0,0,0,0,0,0,0,1
115462219,0.0,0.0,0.0952869,0.0,0.0,0.10343067,0.0,0.0,0.04720127,0.09031413,0.0,0.0,0.0,0.0,0.0,0.0,0.0,0.0,0.0,0.0,0.0,0.0,0.0,0.0,0.0,0.0,0.0,0.0,0.0,0.0,0.0,0.0,10.0,0.0,0.0,0.0,2527.0552,7831.842,0.03072795,0.23355459,1.7847028,0.014709417,9.287267e-05,0.000102324055,8.306221e-05,0.20338027,0.0,0.0,0.0,0.0,0.0,0.0,0.0,0.0,0.0,0.0,0.0,0.0,0.0,0.0,0.0,0.0,0.0,0.0,0.0,0.0,0.0,0.0,0.0,0.0,0.0,0.0,0,0,0,0,0,0,0,1
115522240,0.0,0.0,0.100022875,0.0,0.0,0.12721395,0.0,0.0,0.04720617,0.090315156,0.0,0.0,0.0,0.0,0.0,0.0,0.0,0.0,0.0,0.0,0.0,0.0,0.0,0.0,0.0,0.0,0.0,0.0,0.0,0.0,0.0,0.0,10.0,0.0,0.0,0.0,2529.7727,7844.224,0.0316301,0.23359379,1.7860585,0.015304169,9.290971e-05,0.00010237277,8.3118466e-05,0.20338036,0.0,0.0,0.0,0.0,0.0,0.0,0.0,0.0,0.0,0.0,0.0,0.0,0.0,0.0,0.0,0.0,0.0,0.0,0.0,0.0,0.0,0.0,0.0,0.0,0.0,0.0,0,0,0,0,0,0,0,1
115572432,0.0,0.0,0.09697908,0.0,0.0,0.12671806,0.0,0.0,0.04720617,0.090313904,0.0,0.0,0.0,0.0,0.0,0.0,0.0,0.0,0.0,0.0,0.0,0.0,0.0,0.0,0.0,0.0,0.0,0.0,0.0,0.0,0.0,0.0,10.0,0.0,0.0,0.0,2532.0466,7854.589,0.030874612,0.23356016,1.7871894,0.014808637,9.293266e-05,0.00010241352,8.310264e-05,0.20338044,0.0,0.0,0.0,0.0,0.0,0.0,0.0,0.0,0.0,0.0,0.0,0.0,0.0,0.0,0.0,0.0,0.0,0.0,0.0,0.0,0.0,0.0,0.0,0.0,0.0,0.0,0,0,0,0,0,0,0,1
115622377,0.0,0.0,0.10068227,0.0,0.0,0.09886551,0.0,0.0,0.04720617,0.09031476,0.0,0.0,0.0,0.0,0.0,0.0,0.0,0.0,0.0,0.0,0.0,0.0,0.0,0.0,0.0,0.0,0.0,0.0,0.0,0.0,0.0,0.0,10.0,0.0,0.0,0.0,2534.31,7864.9146,0.03162816,0.2335918,1.7883172,0.015303384,9.296336e-05,0.00010245415,8.314947e-05,0.20338051,0.0,0.0,0.0,0.0,0.0,0.0,0.0,0.0,0.0,0.0,0.0,0.0,0.0,0.0,0.0,0.0,0.0,0.0,0.0,0.0,0.0,0.0,0.0,0.0,0.0,0.0,0,0,0,0,0,0,0,1
115672433,0.0,0.0,0.09573301,0.0,0.0,0.10632757,0.0,0.0,0.04720617,0.09031344,0.0,0.0,0.0,0.0,0.0,0.0,0.0,0.0,0.0,0.0,0.0,0.0,0.0,0.0,0.0,0.0,0.0,0.0,0.0,0.0,0.0,0.0,10.0,0.0,0.0,0.0,2536.5798,7875.2705,0.03073194,0.23355074,1.7894461,0.014711854,9.298534e-05,0.000102494945,8.312036e-05,0.20338058,0.0,0.0,0.0,0.0,0.0,0.0,0.0,0.0,0.0,0.0,0.0,0.0,0.0,0.0,0.0,0.0,0.0,0.0,0.0,0.0,0.0,0.0,0.0,0.0,0.0,0.0,0,0,0,0,0,0,0,1
115732456,0.0,0.0,0.10000318,0.0,0.0,0.0970137,0.0,0.0,0.04720617,0.09031447,0.0,0.0,0.0,0.0,0.0,0.0,0.0,0.0,0.0,0.0,0.0,0.0,0.0,0.0,0.0,0.0,0.0,0.0,0.0,0.0,0.0,0.0,10.0,0.0,0.0,0.0,2539.3025,7887.705,0.03163502,0.23358798,1.7907974,0.015307358,9.302201e-05,0.00010254396,8.3176805e-05,0.20338067,0.0,0.0,0.0,0.0,0.0,0.0,0.0,0.0,0.0,0.0,0.0,0.0,0.0,0.0,0.0,0.0,0.0,0.0,0.0,0.0,0.0,0.0,0.0,0.0,0.0,0.0,0,0,0,0,0,0,0,1
115782503,0.0,0.0,0.0964186,0.0,0.0,0.11577886,0.0,0.0,0.04720617,0.09031338,0.0,0.0,0.0,0.0,0.0,0.0,0.0,0.0,0.0,0.0,0.0,0.0,0.0,0.0,0.0,0.0,0.0,0.0,0.0,0.0,0.0,0.0,10.0,0.0,0.0,0.0,2541.574,7898.0786,0.030866418,0.23355125,1.7919134,0.014805636,9.3044124e-05,0.000102584774,8.314835e-05,0.20338075,0.0,0.0,0.0,0.0,0.0,0.0,0.0,0.0,0.0,0.0,0.0,0.0,0.0,0.0,0.0,0.0,0.0,0.0,0.0,0.0,0.0,0.0,0.0,0.0,0.0,0.0,0,0,0,0,0,0,0,1
115832550,0.0,0.0,0.10072416,0.0,0.0,0.11123512,0.0,0.0,0.04720939,0.09031425,0.0,0.0,0.0,0.0,0.0,0.0,0.0,0.0,0.0,0.0,0.0,0.0,0.0,0.0,0.0,0.0,0.0,0.0,0.0,0.0,0.0,0.0,10.0,0.0,0.0,0.0,2543.8462,7908.468,0.031623244,0.23358262,1.7930286,0.01530162,9.307451e-05,0.00010262586,8.319549e-05,0.20338082,0.0,0.0,0.0,0.0,0.0,0.0,0.0,0.0,0.0,0.0,0.0,0.0,0.0,0.0,0.0,0.0,0.0,0.0,0.0,0.0,0.0,0.0,0.0,0.0,0.0,0.0,0,0,0,0,0,0,0,1
115882542,0.0,0.0,0.0956989,0.0,0.0,0.099568225,0.0,0.0,0.047273375,0.0903131,0.0,0.0,0.0,0.0,0.0,0.0,0.0,0.0,0.0,0.0,0.0,0.0,0.0,0.0,0.0,0.0,0.0,0.0,0.0,0.0,0.0,0.0,10.0,0.0,0.0,0.0,2546.1172,7918.8447,0.030722972,0.23354082,1.7941315,0.014708639,9.309557e-05,0.000102666156,8.315888e-05,0.2033809,0.0,0.0,0.0,0.0,0.0,0.0,0.0,0.0,0.0,0.0,0.0,0.0,0.0,0.0,0.0,0.0,0.0,0.0,0.0,0.0,0.0,0.0,0.0,0.0,0.0,0.0,0,0,0,0,0,0,0,1
115942655,0.0,0.0,0.09928816,0.0,0.0,0.097491845,0.0,0.0,0.047275595,0.09031413,0.0,0.0,0.0,0.0,0.0,0.0,0.0,0.0,0.0,0.0,0.0,0.0,0.0,0.0,0.0,0.0,0.0,0.0,0.0,0.0,0.0,0.0,10.0,0.0,0.0,0.0,2548.8494,7931.349,0.031629246,0.23357956,1.7954684,0.015304549,9.3131726e-05,0.00010271586,8.321574e-05,0.20338099,0.0,0.0,0.0,0.0,0.0,0.0,0.0,0.0,0.0,0.0,0.0,0.0,0.0,0.0,0.0,0.0,0.0,0.0,0.0,0.0,0.0,0.0,0.0,0.0,0.0,0.0,0,0,0,0,0,0,0,1
115992583,0.0,0.0,0.09529324,0.0,0.0,0.088954926,0.0,0.0,0.047275595,0.09031345,0.0,0.0,0.0,0.0,0.0,0.0,0.0,0.0,0.0,0.0,0.0,0.0,0.0,0.0,0.0,0.0,0.0,0.0,0.0,0.0,0.0,0.0,10.0,0.0,0.0,0.0,2551.1194,7941.735,0.03085822,0.23354343,1.796581,0.0148024745,9.3153554e-05,0.000102756356,8.3191815e-05,0.20338106,0.0,0.0,0.0,0.0,0.0,0.0,0.0,0.0,0.0,0.0,0.0,0.0,0.0,0.0,0.0,0.0,0.0,0.0,0.0,0.0,0.0,0.0,0.0,0.0,0.0,0.0,0,0,0,0,0,0,0,1
116042994,0.0,0.0,0.09820114,0.0,0.0,0.09258012,0.0,0.0,0.047275595,0.09031431,0.0,0.0,0.0,0.0,0.0,0.0,0.0,0.0,0.0,0.0,0.0,0.0,0.0,0.0,0.0,0.0,0.0,0.0,0.0,0.0,0.0,0.0,10.0,0.0,0.0,0.0,2553.4128,7952.2397,0.03162504,0.23358119,1.7977229,0.015301332,9.318375e-05,0.000102798316,8.323959e-05,0.20338114,0.0,0.0,0.0,0.0,0.0,0.0,0.0,0.0,0.0,0.0,0.0,0.0,0.0,0.0,0.0,0.0,0.0,0.0,0.0,0.0,0.0,0.0,0.0,0.0,0.0,0.0,0,0,0,0,0,0,0,1
116092623,0.0,0.0,0.0945812,0.0,0.0,0.09880786,0.0,0.0,0.047275595,0.09031378,0.0,0.0,0.0,0.0,0.0,0.0,0.0,0.0,0.0,0.0,0.0,0.0,0.0,0.0,0.0,0.0,0.0,0.0,0.0,0.0,0.0,0.0,10.0,0.0,0.0,0.0,2555.6716,7962.5874,0.03071827,0.23353784,1.7988504,0.014706893,9.320609e-05,0.0001028394,8.322134e-05,0.20338121,0.0,0.0,0.0,0.0,0.0,0.0,0.0,0.0,0.0,0.0,0.0,0.0,0.0,0.0,0.0,0.0,0.0,0.0,0.0,0.0,0.0,0.0,0.0,0.0,0.0,0.0,0,0,0,0,0,0,0,1
116152669,0.0,0.0,0.09862935,0.0,0.0,0.11111197,0.0,0.0,0.047275595,0.090314806,0.0,0.0,0.0,0.0,0.0,0.0,0.0,0.0,0.0,0.0,0.0,0.0,0.0,0.0,0.0,0.0,0.0,0.0,0.0,0.0,0.0,0.0,10.0,0.0,0.0,0.0,2558.4058,7975.1255,0.031622715,0.23357892,1.8002223,0.01530026,9.324159e-05,0.000102889484,8.327832e-05,0.2033813,0.0,0.0,0.0,0.0,0.0,0.0,0.0,0.0,0.0,0.0,0.0,0.0,0.0,0.0,0.0,0.0,0.0,0.0,0.0,0.0,0.0,0.0,0.0,0.0,0.0,0.0,0,0,0,0,0,0,0,1
116202800,0.0,0.0,0.09637897,0.0,0.0,0.14616072,0.0,0.0,0.047275595,0.0903142,0.0,0.0,0.0,0.0,0.0,0.0,0.0,0.0,0.0,0.0,0.0,0.0,0.0,0.0,0.0,0.0,0.0,0.0,0.0,0.0,0.0,0.0,10.0,0.0,0.0,0.0,2560.6895,7985.605,0.030860262,0.23354611,1.8013649,0.014802727,9.326663e-05,0.000102931255,8.327659e-05,0.20338137,0.0,0.0,0.0,0.0,0.0,0.0,0.0,0.0,0.0,0.0,0.0,0.0,0.0,0.0,0.0,0.0,0.0,0.0,0.0,0.0,0.0,0.0,0.0,0.0,0.0,0.0,0,0,0,0,0,0,0,1
116252860,0.0,0.0,0.102796204,0.0,0.0,0.17027472,0.0,0.0,0.047275595,0.09031508,0.0,0.0,0.0,0.0,0.0,0.0,0.0,0.0,0.0,0.0,0.0,0.0,0.0,0.0,0.0,0.0,0.0,0.0,0.0,0.0,0.0,0.0,10.0,0.0,0.0,0.0,2562.9707,7996.0796,0.031617414,0.2335812,1.8025013,0.0152962115,9.329619e-05,0.00010297306,8.332403e-05,0.20338145,0.0,0.0,0.0,0.0,0.0,0.0,0.0,0.0,0.0,0.0,0.0,0.0,0.0,0.0,0.0,0.0,0.0,0.0,0.0,0.0,0.0,0.0,0.0,0.0,0.0,0.0,0,0,0,0,0,0,0,1
116302913,0.0,0.0,0.09898749,0.0,0.0,0.16892196,0.0,0.0,0.047275595,0.09031367,0.0,0.0,0.0,0.0,0.0,0.0,0.0,0.0,0.0,0.0,0.0,0.0,0.0,0.0,0.0,0.0,0.0,0.0,0.0,0.0,0.0,0.0,10.0,0.0,0.0,0.0,2565.2532,8006.562,0.030860586,0.23354779,1.803631,0.014802422,9.3322466e-05,0.000103014165,8.3329236e-05,0.20338152,0.0,0.0,0.0,0.0,0.0,0.0,0.0,0.0,0.0,0.0,0.0,0.0,0.0,0.0,0.0,0.0,0.0,0.0,0.0,0.0,0.0,0.0,0.0,0.0,0.0,0.0,0,0,0,0,0,0,0,1
116363003,0.0,0.0,0.108547606,0.0,0.0,0.22135492,0.0,0.0,0.047278944,0.09031477,0.0,0.0,0.0,0.0,0.0,0.0,0.0,0.0,0.0,0.0,0.0,0.0,0.0,0.0,0.0,0.0,0.0,0.0,0.0,0.0,0.0,0.0,10.0,0.0,0.0,0.0,2567.9946,8019.161,0.03177332,0.23359066,1.8049772,0.015394134,9.335801e-05,0.00010306434,8.3386054e-05,0.20338161,0.0,0.0,0.0,0.0,0.0,0.0,0.0,0.0,0.0,0.0,0.0,0.0,0.0,0.0,0.0,0.0,0.0,0.0,0.0,0.0,0.0,0.0,0.0,0.0,0.0,0.0,0,0,0,0,0,0,0,1
116413250,0.0,0.0,0.10354321,0.0,0.0,0.21144749,0.0,0.0,0.047278944,0.09031263,0.0,0.0,0.0,0.0,0.0,0.0,0.0,0.0,0.0,0.0,0.0,0.0,0.0,0.0,0.0,0.0,0.0,0.0,0.0,0.0,0.0,0.0,10.0,0.0,0.0,0.0,2570.288,8029.706,0.031015798,0.23355818,1.8060945,0.014904396,9.3384966e-05,0.000103104845,8.339276e-05,0.20338169,0.0,0.0,0.0,0.0,0.0,0.0,0.0,0.0,0.0,0.0,0.0,0.0,0.0,0.0,0.0,0.0,0.0,0.0,0.0,0.0,0.0,0.0,0.0,0.0,0.0,0.0,0,0,0,0,0,0,0,1
116463050,0.0,0.0,0.11209866,0.0,0.0,0.19441117,0.0,0.0,0.047278944,0.090313576,0.0,0.0,0.0,0.0,0.0,0.0,0.0,0.0,0.0,0.0,0.0,0.0,0.0,0.0,0.0,0.0,0.0,0.0,0.0,0.0,0.0,0.0,10.0,0.0,0.0,0.0,2572.5618,8040.169,0.031772602,0.23359135,1.8072019,0.015394832,9.341439e-05,0.000103146354,8.3439685e-05,0.20338176,0.0,0.0,0.0,0.0,0.0,0.0,0.0,0.0,0.0,0.0,0.0,0.0,0.0,0.0,0.0,0.0,0.0,0.0,0.0,0.0,0.0,0.0,0.0,0.0,0.0,0.0,0,0,0,0,0,0,0,1
116513180,0.0,0.0,0.104221255,0.0,0.0,0.19275141,0.0,0.0,0.047278944,0.09031074,0.0,0.0,0.0,0.0,0.0,0.0,0.0,0.0,0.0,0.0,0.0,0.0,0.0,0.0,0.0,0.0,0.0,0.0,0.0,0.0,0.0,0.0,10.0,0.0,0.0,0.0,2574.8518,8050.708,0.031012971,0.23355724,1.808318,0.014904169,9.344112e-05,0.000103186154,8.3440915e-05,0.20338184,0.0,0.0,0.0,0.0,0.0,0.0,0.0,0.0,0.0,0.0,0.0,0.0,0.0,0.0,0.0,0.0,0.0,0.0,0.0,0.0,0.0,0.0,0.0,0.0,0.0,0.0,0,0,0,0,0,0,0,1
116563265,0.0,0.0,0.11157566,0.0,0.0,0.16949232,0.0,0.0,0.047278944,0.09031168,0.0,0.0,0.0,0.0,0.0,0.0,0.0,0.0,0.0,0.0,0.0,0.0,0.0,0.0,0.0,0.0,0.0,0.0,0.0,0.0,0.0,0.0,10.0,0.0,0.0,0.0,2577.1406,8061.2505,0.031777263,0.23359282,1.8094423,0.015398607,9.347086e-05,0.000103227925,8.348808e-05,0.20338191,0.0,0.0,0.0,0.0,0.0,0.0,0.0,0.0,0.0,0.0,0.0,0.0,0.0,0.0,0.0,0.0,0.0,0.0,0.0,0.0,0.0,0.0,0.0,0.0,0.0,0.0,0,0,0,0,0,0,0,1
116623292,0.0,0.0,0.1041494,0.0,0.0,0.16662626,0.0,0.0,0.047278944,0.09030899,0.0,0.0,0.0,0.0,0.0,0.0,0.0,0.0,0.0,0.0,0.0,0.0,0.0,0.0,0.0,0.0,0.0,0.0,0.0,0.0,0.0,0.0,10.0,0.0,0.0,0.0,2579.8855,8073.8975,0.031161584,0.23356308,1.8107977,0.0150035685,9.3502684e-05,0.000103276194,8.3488376e-05,0.203382,0.0,0.0,0.0,0.0,0.0,0.0,0.0,0.0,0.0,0.0,0.0,0.0,0.0,0.0,0.0,0.0,0.0,0.0,0.0,0.0,0.0,0.0,0.0,0.0,0.0,0.0,0,0,0,0,0,0,0,1
116673309,0.0,0.0,0.110411614,0.0,0.0,0.15730041,0.0,0.0,0.047278944,0.090309925,0.0,0.0,0.0,0.0,0.0,0.0,0.0,0.0,0.0,0.0,0.0,0.0,0.0,0.0,0.0,0.0,0.0,0.0,0.0,0.0,0.0,0.0,10.0,0.0,0.0,0.0,2582.1738,8084.449,0.03193114,0.23359795,1.8119353,0.015496948,9.353235e-05,0.000103317936,8.353541e-05,0.20338207,0.0,0.0,0.0,0.0,0.0,0.0,0.0,0.0,0.0,0.0,0.0,0.0,0.0,0.0,0.0,0.0,0.0,0.0,0.0,0.0,0.0,0.0,0.0,0.0,0.0,0.0,0,0,0,0,0,0,0,1
116723330,0.0,0.0,0.10247084,0.0,0.0,0.14593762,0.0,0.0,0.047278944,0.09030751,0.0,0.0,0.0,0.0,0.0,0.0,0.0,0.0,0.0,0.0,0.0,0.0,0.0,0.0,0.0,0.0,0.0,0.0,0.0,0.0,0.0,0.0,10.0,0.0,0.0,0.0,2584.4634,8095.0103,0.031159604,0.23355998,1.813075,0.01500371,9.355747e-05,0.00010335873,8.351553e-05,0.20338215,0.0,0.0,0.0,0.0,0.0,0.0,0.0,0.0,0.0,0.0,0.0,0.0,0.0,0.0,0.0,0.0,0.0,0.0,0.0,0.0,0.0,0.0,0.0,0.0,0.0,0.0,0,0,0,0,0,0,0,1
116773395,0.0,0.0,0.10817079,0.0,0.0,0.14341,0.0,0.0,0.047278944,0.09030843,0.0,0.0,0.0,0.0,0.0,0.0,0.0,0.0,0.0,0.0,0.0,0.0,0.0,0.0,0.0,0.0,0.0,0.0,0.0,0.0,0.0,0.0,10.0,0.0,0.0,0.0,2586.7559,8105.5923,0.031930722,0.23359437,1.814214,0.015497737,9.358705e-05,0.00010340059,8.3562685e-05,0.20338222,0.0,0.0,0.0,0.0,0.0,0.0,0.0,0.0,0.0,0.0,0.0,0.0,0.0,0.0,0.0,0.0,0.0,0.0,0.0,0.0,0.0,0.0,0.0,0.0,0.0,0.0,0,0,0,0,0,0,0,1
116823542,0.0,0.0,0.10092244,0.0,0.0,0.118702166,0.0,0.0,0.047278944,0.09030637,0.0,0.0,0.0,0.0,0.0,0.0,0.0,0.0,0.0,0.0,0.0,0.0,0.0,0.0,0.0,0.0,0.0,0.0,0.0,0.0,0.0,0.0,10.0,0.0,0.0,0.0,2589.0532,8116.202,0.03115832,0.23355722,1.8153495,0.0150028905,9.361157e-05,0.00010344245,8.3534906e-05,0.2033823,0.0,0.0,0.0,0.0,0.0,0.0,0.0,0.0,0.0,0.0,0.0,0.0,0.0,0.0,0.0,0.0,0.0,0.0,0.0,0.0,0.0,0.0,0.0,0.0,0.0,0.0,0,0,0,0,0,0,0,1
116883446,0.0,0.0,0.10473833,0.0,0.0,0.086877674,0.0,0.0,0.047279757,0.090307444,0.0,0.0,0.0,0.0,0.0,0.0,0.0,0.0,0.0,0.0,0.0,0.0,0.0,0.0,0.0,0.0,0.0,0.0,0.0,0.0,0.0,0.0,10.0,0.0,0.0,0.0,2591.7986,8128.89,0.032083616,0.23359708,1.8167001,0.015592925,9.364665e-05,0.00010349268,8.35914e-05,0.20338239,0.0,0.0,0.0,0.0,0.0,0.0,0.0,0.0,0.0,0.0,0.0,0.0,0.0,0.0,0.0,0.0,0.0,0.0,0.0,0.0,0.0,0.0,0.0,0.0,0.0,0.0,0,0,0,0,0,0,0,1
116933569,0.0,0.0,0.09754898,0.0,0.0,0.08084955,0.0,0.0,0.047279757,0.090306066,0.0,0.0,0.0,0.0,0.0,0.0,0.0,0.0,0.0,0.0,0.0,0.0,0.0,0.0,0.0,0.0,0.0,0.0,0.0,0.0,0.0,0.0,10.0,0.0,0.0,0.0,2594.097,8139.5156,0.031163707,0.23355377,1.8178333,0.015005785,9.3669994e-05,0.00010353483,8.3554296e-05,0.20338246,0.0,0.0,0.0,0.0,0.0,0.0,0.0,0.0,0.0,0.0,0.0,0.0,0.0,0.0,0.0,0.0,0.0,0.0,0.0,0.0,0.0,0.0,0.0,0.0,0.0,0.0,0,0,0,0,0,0,0,1
116983641,0.0,0.0,0.099937774,0.0,0.0,0.07520989,0.0,0.0,0.047279757,0.09030692,0.0,0.0,0.0,0.0,0.0,0.0,0.0,0.0,0.0,0.0,0.0,0.0,0.0,0.0,0.0,0.0,0.0,0.0,0.0,0.0,0.0,0.0,10.0,0.0,0.0,0.0,2596.3938,8150.1426,0.031935994,0.23358968,1.8189771,0.015499146,9.369911e-05,0.00010357708,8.360171e-05,0.20338254,0.0,0.0,0.0,0.0,0.0,0.0,0.0,0.0,0.0,0.0,0.0,0.0,0.0,0.0,0.0,0.0,0.0,0.0,0.0,0.0,0.0,0.0,0.0,0.0,0.0,0.0,0,0,0,0,0,0,0,1
117033673,0.0,0.0,0.09531161,0.0,0.0,0.06787125,0.0,0.0,0.047279757,0.090306394,0.0,0.0,0.0,0.0,0.0,0.0,0.0,0.0,0.0,0.0,0.0,0.0,0.0,0.0,0.0,0.0,0.0,0.0,0.0,0.0,0.0,0.0,10.0,0.0,0.0,0.0,2598.69,8160.7705,0.031153074,0.23355334,1.8201281,0.014999748,9.3723356e-05,0.00010361935,8.3578416e-05,0.20338261,0.0,0.0,0.0,0.0,0.0,0.0,0.0,0.0,0.0,0.0,0.0,0.0,0.0,0.0,0.0,0.0,0.0,0.0,0.0,0.0,0.0,0.0,0.0,0.0,0.0,0.0,0,0,0,0,0,0,0,1
117093693,0.0,0.0,0.093348816,0.0,0.0,0.09465056,0.0,0.0,0.047279757,0.090306364,0.0,0.0,0.0,0.0,0.0,0.0,0.0,0.0,0.0,0.0,0.0,0.0,0.0,0.0,0.0,0.0,0.0,0.0,0.0,0.0,0.0,0.0,10.0,0.0,0.0,0.0,2601.4458,8173.5347,0.030560682,0.23352881,1.821509,0.014601913,9.37551e-05,0.000103669525,8.357741e-05,0.2033827,0.0,0.0,0.0,0.0,0.0,0.0,0.0,0.0,0.0,0.0,0.0,0.0,0.0,0.0,0.0,0.0,0.0,0.0,0.0,0.0,0.0,0.0,0.0,0.0,0.0,0.0,0,0,0,0,0,0,0,1
117143740,0.0,0.0,0.09598505,0.0,0.0,0.078992635,0.0,0.0,0.047279757,0.0903072,0.0,0.0,0.0,0.0,0.0,0.0,0.0,0.0,0.0,0.0,0.0,0.0,0.0,0.0,0.0,0.0,0.0,0.0,0.0,0.0,0.0,0.0,10.0,0.0,0.0,0.0,2603.7449,8184.189,0.031304106,0.23356162,1.8226542,0.01509783,9.378372e-05,0.00010371185,8.3625215e-05,0.20338278,0.0,0.0,0.0,0.0,0.0,0.0,0.0,0.0,0.0,0.0,0.0,0.0,0.0,0.0,0.0,0.0,0.0,0.0,0.0,0.0,0.0,0.0,0.0,0.0,0.0,0.0,0,0,0,0,0,0,0,1
117193843,0.0,0.0,0.09344418,0.0,0.0,0.099721074,0.0,0.0,0.047279757,0.09030693,0.0,0.0,0.0,0.0,0.0,0.0,0.0,0.0,0.0,0.0,0.0,0.0,0.0,0.0,0.0,0.0,0.0,0.0,0.0,0.0,0.0,0.0,10.0,0.0,0.0,0.0,2606.0474,8194.857,0.030562552,0.23353107,1.823787,0.014602214,9.381117e-05,0.000103751925,8.362685e-05,0.20338285,0.0,0.0,0.0,0.0,0.0,0.0,0.0,0.0,0.0,0.0,0.0,0.0,0.0,0.0,0.0,0.0,0.0,0.0,0.0,0.0,0.0,0.0,0.0,0.0,0.0,0.0,0,0,0,0,0,0,0,1
117243775,0.0,0.0,0.097229294,0.0,0.0,0.1262298,0.0,0.0,0.047279757,0.09030777,0.0,0.0,0.0,0.0,0.0,0.0,0.0,0.0,0.0,0.0,0.0,0.0,0.0,0.0,0.0,0.0,0.0,0.0,0.0,0.0,0.0,0.0,10.0,0.0,0.0,0.0,2608.343,8205.511,0.031302687,0.23356251,1.8249123,0.015096079,9.383974e-05,0.00010379406,8.3674495e-05,0.20338292,0.0,0.0,0.0,0.0,0.0,0.0,0.0,0.0,0.0,0.0,0.0,0.0,0.0,0.0,0.0,0.0,0.0,0.0,0.0,0.0,0.0,0.0,0.0,0.0,0.0,0.0,0,0,0,0,0,0,0,1
117303797,0.0,0.0,0.09528017,0.0,0.0,0.15396947,0.0,0.0,0.047326636,0.0903074,0.0,0.0,0.0,0.0,0.0,0.0,0.0,0.0,0.0,0.0,0.0,0.0,0.0,0.0,0.0,0.0,0.0,0.0,0.0,0.0,0.0,0.0,10.0,0.0,0.0,0.0,2611.104,8218.31,0.03056978,0.2335314,1.8262416,0.01460597,9.387375e-05,0.00010384005,8.369089e-05,0.20338301,0.0,0.0,0.0,0.0,0.0,0.0,0.0,0.0,0.0,0.0,0.0,0.0,0.0,0.0,0.0,0.0,0.0,0.0,0.0,0.0,0.0,0.0,0.0,0.0,0.0,0.0,0,0,0,0,0,0,0,1
117353820,0.0,0.0,0.1012558,0.0,0.0,0.16276991,0.0,0.0,0.047330268,0.090308264,0.0,0.0,0.0,0.0,0.0,0.0,0.0,0.0,0.0,0.0,0.0,0.0,0.0,0.0,0.0,0.0,0.0,0.0,0.0,0.0,0.0,0.0,10.0,0.0,0.0,0.0,2613.4065,8229.006,0.031312097,0.23356365,1.8273549,0.015100578,9.3902614e-05,0.00010388214,8.37385e-05,0.20338309,0.0,0.0,0.0,0.0,0.0,0.0,0.0,0.0,0.0,0.0,0.0,0.0,0.0,0.0,0.0,0.0,0.0,0.0,0.0,0.0,0.0,0.0,0.0,0.0,0.0,0.0,0,0,0,0,0,0,0,1
117404101,0.0,0.0,0.09700351,0.0,0.0,0.18032813,0.0,0.0,0.04733268,0.09030713,0.0,0.0,0.0,0.0,0.0,0.0,0.0,0.0,0.0,0.0,0.0,0.0,0.0,0.0,0.0,0.0,0.0,0.0,0.0,0.0,0.0,0.0,10.0,0.0,0.0,0.0,2615.722,8239.742,0.03056555,0.23353395,1.828457,0.014603007,9.3931565e-05,0.00010391863,8.375113e-05,0.20338316,0.0,0.0,0.0,0.0,0.0,0.0,0.0,0.0,0.0,0.0,0.0,0.0,0.0,0.0,0.0,0.0,0.0,0.0,0.0,0.0,0.0,0.0,0.0,0.0,0.0,0.0,0,0,0,0,0,0,0,1
117453939,0.0,0.0,0.10443147,0.0,0.0,0.1913015,0.0,0.0,0.04733268,0.09030801,0.0,0.0,0.0,0.0,0.0,0.0,0.0,0.0,0.0,0.0,0.0,0.0,0.0,0.0,0.0,0.0,0.0,0.0,0.0,0.0,0.0,0.0,10.0,0.0,0.0,0.0,2618.0176,8250.419,0.031302605,0.23356447,1.8295765,0.015096648,9.396049e-05,0.0001039604,8.3798426e-05,0.20338324,0.0,0.0,0.0,0.0,0.0,0.0,0.0,0.0,0.0,0.0,0.0,0.0,0.0,0.0,0.0,0.0,0.0,0.0,0.0,0.0,0.0,0.0,0.0,0.0,0.0,0.0,0,0,0,0,0,0,0,1
117513999,0.0,0.0,0.09925994,0.0,0.0,0.23633374,0.0,0.0,0.04733268,0.09030511,0.0,0.0,0.0,0.0,0.0,0.0,0.0,0.0,0.0,0.0,0.0,0.0,0.0,0.0,0.0,0.0,0.0,0.0,0.0,0.0,0.0,0.0,10.0,0.0,0.0,0.0,2620.7852,8263.276,0.030571481,0.23353375,1.8309324,0.0146081345,9.3994495e-05,0.000104004735,8.380795e-05,0.20338333,0.0,0.0,0.0,0.0,0.0,0.0,0.0,0.0,0.0,0.0,0.0,0.0,0.0,0.0,0.0,0.0,0.0,0.0,0.0,0.0,0.0,0.0,0.0,0.0,0.0,0.0,0,0,0,0,0,0,0,1
117564140,0.0,0.0,0.10846496,0.0,0.0,0.19737536,0.0,0.0,0.04733268,0.09030602,0.0,0.0,0.0,0.0,0.0,0.0,0.0,0.0,0.0,0.0,0.0,0.0,0.0,0.0,0.0,0.0,0.0,0.0,0.0,0.0,0.0,0.0,10.0,0.0,0.0,0.0,2623.0972,8274.041,0.031316508,0.23356713,1.8320885,0.015106421,9.402386e-05,0.000104046696,8.385543e-05,0.2033834,0.0,0.0,0.0,0.0,0.0,0.0,0.0,0.0,0.0,0.0,0.0,0.0,0.0,0.0,0.0,0.0,0.0,0.0,0.0,0.0,0.0,0.0,0.0,0.0,0.0,0.0,0,0,0,0,0,0,0,1
117614135,0.0,0.0,0.09976317,0.0,0.0,0.17021865,0.0,0.0,0.04733268,0.09030251,0.0,0.0,0.0,0.0,0.0,0.0,0.0,0.0,0.0,0.0,0.0,0.0,0.0,0.0,0.0,0.0,0.0,0.0,0.0,0.0,0.0,0.0,10.0,0.0,0.0,0.0,2625.4033,8284.773,0.030564727,0.23353381,1.8332384,0.014605594,9.4050745e-05,0.00010408506,8.384466e-05,0.20338348,0.0,0.0,0.0,0.0,0.0,0.0,0.0,0.0,0.0,0.0,0.0,0.0,0.0,0.0,0.0,0.0,0.0,0.0,0.0,0.0,0.0,0.0,0.0,0.0,0.0,0.0,0,0,0,0,0,0,0,1
117664319,0.0,0.0,0.10668983,0.0,0.0,0.17013614,0.0,0.0,0.047333524,0.09030341,0.0,0.0,0.0,0.0,0.0,0.0,0.0,0.0,0.0,0.0,0.0,0.0,0.0,0.0,0.0,0.0,0.0,0.0,0.0,0.0,0.0,0.0,10.0,0.0,0.0,0.0,2627.7192,8295.566,0.031310804,0.23356688,1.8344012,0.015104769,9.4080155e-05,0.00010412704,8.3892184e-05,0.20338355,0.0,0.0,0.0,0.0,0.0,0.0,0.0,0.0,0.0,0.0,0.0,0.0,0.0,0.0,0.0,0.0,0.0,0.0,0.0,0.0,0.0,0.0,0.0,0.0,0.0,0.0,0,0,0,0,0,0,0,1
117724153,0.0,0.0,0.09953496,0.0,0.0,0.13431978,0.0,0.0,0.047431495,0.090300545,0.0,0.0,0.0,0.0,0.0,0.0,0.0,0.0,0.0,0.0,0.0,0.0,0.0,0.0,0.0,0.0,0.0,0.0,0.0,0.0,0.0,0.0,10.0,0.0,0.0,0.0,2630.482,8308.443,0.030708563,0.23353797,1.835786,0.014705682,9.411184e-05,0.000104174986,8.388206e-05,0.20338364,0.0,0.0,0.0,0.0,0.0,0.0,0.0,0.0,0.0,0.0,0.0,0.0,0.0,0.0,0.0,0.0,0.0,0.0,0.0,0.0,0.0,0.0,0.0,0.0,0.0,0.0,0,0,0,0,0,0,0,1
117774182,0.0,0.0,0.1053363,0.0,0.0,0.17189379,0.0,0.0,0.04743545,0.09030144,0.0,0.0,0.0,0.0,0.0,0.0,0.0,0.0,0.0,0.0,0.0,0.0,0.0,0.0,0.0,0.0,0.0,0.0,0.0,0.0,0.0,0.0,10.0,0.0,0.0,0.0,2632.793,8319.226,0.031457838,0.23357056,1.8369477,0.015202013,9.414103e-05,0.00010421686,8.392943e-05,0.20338371,0.0,0.0,0.0,0.0,0.0,0.0,0.0,0.0,0.0,0.0,0.0,0.0,0.0,0.0,0.0,0.0,0.0,0.0,0.0,0.0,0.0,0.0,0.0,0.0,0.0,0.0,0,0,0,0,0,0,0,1
117824204,0.0,0.0,0.09871883,0.0,0.0,0.11773283,0.0,0.0,0.04752285,0.09029888,0.0,0.0,0.0,0.0,0.0,0.0,0.0,0.0,0.0,0.0,0.0,0.0,0.0,0.0,0.0,0.0,0.0,0.0,0.0,0.0,0.0,0.0,10.0,0.0,0.0,0.0,2635.1047,8330.013,0.030707607,0.23353729,1.8381077,0.014705213,9.416707e-05,0.000104256775,8.390943e-05,0.20338379,0.0,0.0,0.0,0.0,0.0,0.0,0.0,0.0,0.0,0.0,0.0,0.0,0.0,0.0,0.0,0.0,0.0,0.0,0.0,0.0,0.0,0.0,0.0,0.0,0.0,0.0,0,0,0,0,0,0,0,1
117874223,0.0,0.0,0.10337485,0.0,0.0,0.11576755,0.0,0.0,0.047523588,0.09029977,0.0,0.0,0.0,0.0,0.0,0.0,0.0,0.0,0.0,0.0,0.0,0.0,0.0,0.0,0.0,0.0,0.0,0.0,0.0,0.0,0.0,0.0,10.0,0.0,0.0,0.0,2637.4175,8340.814,0.031456728,0.2335702,1.8392719,0.015201167,9.419618e-05,0.00010429866,8.395687e-05,0.20338386,0.0,0.0,0.0,0.0,0.0,0.0,0.0,0.0,0.0,0.0,0.0,0.0,0.0,0.0,0.0,0.0,0.0,0.0,0.0,0.0,0.0,0.0,0.0,0.0,0.0,0.0,0,0,0,0,0,0,0,1
117934267,0.0,0.0,0.09792629,0.0,0.0,0.113713615,0.0,0.0,0.047525007,0.09029825,0.0,0.0,0.0,0.0,0.0,0.0,0.0,0.0,0.0,0.0,0.0,0.0,0.0,0.0,0.0,0.0,0.0,0.0,0.0,0.0,0.0,0.0,10.0,0.0,0.0,0.0,2640.195,8353.787,0.030854557,0.23354374,1.8406658,0.014804497,9.422864e-05,0.000104346276,8.395061e-05,0.20338395,0.0,0.0,0.0,0.0,0.0,0.0,0.0,0.0,0.0,0.0,0.0,0.0,0.0,0.0,0.0,0.0,0.0,0.0,0.0,0.0,0.0,0.0,0.0,0.0,0.0,0.0,0,0,0,0,0,0,0,1
117984347,0.0,0.0,0.102002926,0.0,0.0,0.12163918,0.0,0.0,0.04752884,0.09029912,0.0,0.0,0.0,0.0,0.0,0.0,0.0,0.0,0.0,0.0,0.0,0.0,0.0,0.0,0.0,0.0,0.0,0.0,0.0,0.0,0.0,0.0,10.0,0.0,0.0,0.0,2642.5125,8364.625,0.031612158,0.23357873,1.8418325,0.015299693,9.425784e-05,0.0001043882,8.399807e-05,0.20338403,0.0,0.0,0.0,0.0,0.0,0.0,0.0,0.0,0.0,0.0,0.0,0.0,0.0,0.0,0.0,0.0,0.0,0.0,0.0,0.0,0.0,0.0,0.0,0.0,0.0,0.0,0,0,0,0,0,0,0,1
118034539,0.0,0.0,0.09756962,0.0,0.0,0.12253628,0.0,0.0,0.047589436,0.090297684,0.0,0.0,0.0,0.0,0.0,0.0,0.0,0.0,0.0,0.0,0.0,0.0,0.0,0.0,0.0,0.0,0.0,0.0,0.0,0.0,0.0,0.0,10.0,0.0,0.0,0.0,2644.8364,8375.487,0.030857293,0.23354653,1.8429952,0.01480472,9.428515e-05,0.000104426705,8.398739e-05,0.2033841,0.0,0.0,0.0,0.0,0.0,0.0,0.0,0.0,0.0,0.0,0.0,0.0,0.0,0.0,0.0,0.0,0.0,0.0,0.0,0.0,0.0,0.0,0.0,0.0,0.0,0.0,0,0,0,0,0,0,0,1
118084504,0.0,0.0,0.101878464,0.0,0.0,0.12167062,0.0,0.0,0.04759326,0.090298556,0.0,0.0,0.0,0.0,0.0,0.0,0.0,0.0,0.0,0.0,0.0,0.0,0.0,0.0,0.0,0.0,0.0,0.0,0.0,0.0,0.0,0.0,10.0,0.0,0.0,0.0,2647.151,8386.322,0.031611785,0.23358028,1.8441604,0.01529859,9.431427e-05,0.00010446842,8.4034735e-05,0.20338418,0.0,0.0,0.0,0.0,0.0,0.0,0.0,0.0,0.0,0.0,0.0,0.0,0.0,0.0,0.0,0.0,0.0,0.0,0.0,0.0,0.0,0.0,0.0,0.0,0.0,0.0,0,0,0,0,0,0,0,1
118144530,0.0,0.0,0.09797842,0.0,0.0,0.12039736,0.0,0.0,0.047651645,0.09029747,0.0,0.0,0.0,0.0,0.0,0.0,0.0,0.0,0.0,0.0,0.0,0.0,0.0,0.0,0.0,0.0,0.0,0.0,0.0,0.0,0.0,0.0,10.0,0.0,0.0,0.0,2649.9329,8399.341,0.03100467,0.23355283,1.8455524,0.014903766,9.434749e-05,0.00010451466,8.403575e-05,0.20338427,0.0,0.0,0.0,0.0,0.0,0.0,0.0,0.0,0.0,0.0,0.0,0.0,0.0,0.0,0.0,0.0,0.0,0.0,0.0,0.0,0.0,0.0,0.0,0.0,0.0,0.0,0,0,0,0,0,0,0,1
118194563,0.0,0.0,0.10291896,0.0,0.0,0.09322868,0.0,0.0,0.047655556,0.09029835,0.0,0.0,0.0,0.0,0.0,0.0,0.0,0.0,0.0,0.0,0.0,0.0,0.0,0.0,0.0,0.0,0.0,0.0,0.0,0.0,0.0,0.0,10.0,0.0,0.0,0.0,2652.253,8410.214,0.031767726,0.2335884,1.8467205,0.015397345,9.43768e-05,0.00010455633,8.408309e-05,0.20338434,0.0,0.0,0.0,0.0,0.0,0.0,0.0,0.0,0.0,0.0,0.0,0.0,0.0,0.0,0.0,0.0,0.0,0.0,0.0,0.0,0.0,0.0,0.0,0.0,0.0,0.0,0,0,0,0,0,0,0,1
118244621,0.0,0.0,0.0977086,0.0,0.0,0.10634169,0.0,0.0,0.04771291,0.090297036,0.0,0.0,0.0,0.0,0.0,0.0,0.0,0.0,0.0,0.0,0.0,0.0,0.0,0.0,0.0,0.0,0.0,0.0,0.0,0.0,0.0,0.0,10.0,0.0,0.0,0.0,2654.5752,8421.092,0.031006137,0.23355375,1.8478825,0.014904683,9.4404124e-05,0.00010459426,8.407475e-05,0.20338441,0.0,0.0,0.0,0.0,0.0,0.0,0.0,0.0,0.0,0.0,0.0,0.0,0.0,0.0,0.0,0.0,0.0,0.0,0.0,0.0,0.0,0.0,0.0,0.0,0.0,0.0,0,0,0,0,0,0,0,1
118294622,0.0,0.0,0.101382375,0.0,0.0,0.1174315,0.0,0.0,0.04771678,0.0902979,0.0,0.0,0.0,0.0,0.0,0.0,0.0,0.0,0.0,0.0,0.0,0.0,0.0,0.0,0.0,0.0,0.0,0.0,0.0,0.0,0.0,0.0,10.0,0.0,0.0,0.0,2656.8958,8431.979,0.03176833,0.23358902,1.8490515,0.015397998,9.443352e-05,0.00010463579,8.412207e-05,0.20338449,0.0,0.0,0.0,0.0,0.0,0.0,0.0,0.0,0.0,0.0,0.0,0.0,0.0,0.0,0.0,0.0,0.0,0.0,0.0,0.0,0.0,0.0,0.0,0.0,0.0,0.0,0,0,0,0,0,0,0,1
118354650,0.0,0.0,0.09772151,0.0,0.0,0.09746442,0.0,0.0,0.04777022,0.0902969,0.0,0.0,0.0,0.0,0.0,0.0,0.0,0.0,0.0,0.0,0.0,0.0,0.0,0.0,0.0,0.0,0.0,0.0,0.0,0.0,0.0,0.0,10.0,0.0,0.0,0.0,2659.683,8445.054,0.03115539,0.23356073,1.8504508,0.015003816,9.446633e-05,0.00010468247,8.412288e-05,0.20338458,0.0,0.0,0.0,0.0,0.0,0.0,0.0,0.0,0.0,0.0,0.0,0.0,0.0,0.0,0.0,0.0,0.0,0.0,0.0,0.0,0.0,0.0,0.0,0.0,0.0,0.0,0,0,0,0,0,0,0,1
118404666,0.0,0.0,0.10118201,0.0,0.0,0.11229756,0.0,0.0,0.04777414,0.09029776,0.0,0.0,0.0,0.0,0.0,0.0,0.0,0.0,0.0,0.0,0.0,0.0,0.0,0.0,0.0,0.0,0.0,0.0,0.0,0.0,0.0,0.0,10.0,0.0,0.0,0.0,2662.0063,8455.966,0.031924754,0.23359744,1.8516219,0.015496185,9.4495874e-05,0.00010472391,8.417014e-05,0.20338465,0.0,0.0,0.0,0.0,0.0,0.0,0.0,0.0,0.0,0.0,0.0,0.0,0.0,0.0,0.0,0.0,0.0,0.0,0.0,0.0,0.0,0.0,0.0,0.0,0.0,0.0,0,0,0,0,0,0,0,1
118454804,0.0,0.0,0.0977887,0.0,0.0,0.11305077,0.0,0.0,0.047822222,0.090296805,0.0,0.0,0.0,0.0,0.0,0.0,0.0,0.0,0.0,0.0,0.0,0.0,0.0,0.0,0.0,0.0,0.0,0.0,0.0,0.0,0.0,0.0,10.0,0.0,0.0,0.0,2664.3364,8466.911,0.031157536,0.23356259,1.8527932,0.015004631,9.452229e-05,0.00010476308,8.416232e-05,0.20338473,0.0,0.0,0.0,0.0,0.0,0.0,0.0,0.0,0.0,0.0,0.0,0.0,0.0,0.0,0.0,0.0,0.0,0.0,0.0,0.0,0.0,0.0,0.0,0.0,0.0,0.0,0,0,0,0,0,0,0,1
118504858,0.0,0.0,0.101576075,0.0,0.0,0.108798,0.0,0.0,0.04782617,0.09029767,0.0,0.0,0.0,0.0,0.0,0.0,0.0,0.0,0.0,0.0,0.0,0.0,0.0,0.0,0.0,0.0,0.0,0.0,0.0,0.0,0.0,0.0,10.0,0.0,0.0,0.0,2666.6638,8477.854,0.03192781,0.23359962,1.8539662,0.015497472,9.4551906e-05,0.000104804465,8.420957e-05,0.2033848,0.0,0.0,0.0,0.0,0.0,0.0,0.0,0.0,0.0,0.0,0.0,0.0,0.0,0.0,0.0,0.0,0.0,0.0,0.0,0.0,0.0,0.0,0.0,0.0,0.0,0.0,0,0,0,0,0,0,0,1
118554913,0.0,0.0,0.097553335,0.0,0.0,0.105492026,0.0,0.0,0.047875438,0.09029666,0.0,0.0,0.0,0.0,0.0,0.0,0.0,0.0,0.0,0.0,0.0,0.0,0.0,0.0,0.0,0.0,0.0,0.0,0.0,0.0,0.0,0.0,10.0,0.0,0.0,0.0,2668.992,8488.803,0.031158399,0.23356378,1.8551376,0.015005112,9.457792e-05,0.00010484378,8.420189e-05,0.20338488,0.0,0.0,0.0,0.0,0.0,0.0,0.0,0.0,0.0,0.0,0.0,0.0,0.0,0.0,0.0,0.0,0.0,0.0,0.0,0.0,0.0,0.0,0.0,0.0,0.0,0.0,0,0,0,0,0,0,0,1
118604932,0.0,0.0,0.10128301,0.0,0.0,0.113939226,0.0,0.0,0.047879383,0.09029753,0.0,0.0,0.0,0.0,0.0,0.0,0.0,0.0,0.0,0.0,0.0,0.0,0.0,0.0,0.0,0.0,0.0,0.0,0.0,0.0,0.0,0.0,10.0,0.0,0.0,0.0,2671.3196,8499.759,0.031927764,0.23360048,1.8563108,0.015497591,9.460754e-05,0.00010488505,8.4249106e-05,0.20338495,0.0,0.0,0.0,0.0,0.0,0.0,0.0,0.0,0.0,0.0,0.0,0.0,0.0,0.0,0.0,0.0,0.0,0.0,0.0,0.0,0.0,0.0,0.0,0.0,0.0,0.0,0,0,0,0,0,0,0,1
118664967,0.0,0.0,0.09843665,0.0,0.0,0.109051764,0.0,0.0,0.04792863,0.09029673,0.0,0.0,0.0,0.0,0.0,0.0,0.0,0.0,0.0,0.0,0.0,0.0,0.0,0.0,0.0,0.0,0.0,0.0,0.0,0.0,0.0,0.0,10.0,0.0,0.0,0.0,2674.1145,8512.919,0.03130771,0.23357123,1.8577181,0.015103056,9.46392e-05,0.00010493269,8.42507e-05,0.20338504,0.0,0.0,0.0,0.0,0.0,0.0,0.0,0.0,0.0,0.0,0.0,0.0,0.0,0.0,0.0,0.0,0.0,0.0,0.0,0.0,0.0,0.0,0.0,0.0,0.0,0.0,0,0,0,0,0,0,0,1
118714992,0.0,0.0,0.10210857,0.0,0.0,0.1099057,0.0,0.0,0.047932677,0.0902976,0.0,0.0,0.0,0.0,0.0,0.0,0.0,0.0,0.0,0.0,0.0,0.0,0.0,0.0,0.0,0.0,0.0,0.0,0.0,0.0,0.0,0.0,10.0,0.0,0.0,0.0,2676.4443,8523.899,0.03208388,0.23360911,1.8588929,0.015594603,9.466893e-05,0.000104973915,8.429781e-05,0.20338511,0.0,0.0,0.0,0.0,0.0,0.0,0.0,0.0,0.0,0.0,0.0,0.0,0.0,0.0,0.0,0.0,0.0,0.0,0.0,0.0,0.0,0.0,0.0,0.0,0.0,0.0,0,0,0,0,0,0,0,1
118765009,0.0,0.0,0.09772851,0.0,0.0,0.10838634,0.0,0.0,0.047984954,0.09029644,0.0,0.0,0.0,0.0,0.0,0.0,0.0,0.0,0.0,0.0,0.0,0.0,0.0,0.0,0.0,0.0,0.0,0.0,0.0,0.0,0.0,0.0,10.0,0.0,0.0,0.0,2678.7751,8534.886,0.031166423,0.23356566,1.8600665,0.015009404,9.469406e-05,0.000105013176,8.428442e-05,0.20338519,0.0,0.0,0.0,0.0,0.0,0.0,0.0,0.0,0.0,0.0,0.0,0.0,0.0,0.0,0.0,0.0,0.0,0.0,0.0,0.0,0.0,0.0,0.0,0.0,0.0,0.0,0,0,0,0,0,0,0,1
118815028,0.0,0.0,0.101482764,0.0,0.0,0.11167738,0.0,0.0,0.047988936,0.090297304,0.0,0.0,0.0,0.0,0.0,0.0,0.0,0.0,0.0,0.0,0.0,0.0,0.0,0.0,0.0,0.0,0.0,0.0,0.0,0.0,0.0,0.0,10.0,0.0,0.0,0.0,2681.107,8545.886,0.03193594,0.23360246,1.8612424,0.015501937,9.472378e-05,0.00010505431,8.43316e-05,0.20338526,0.0,0.0,0.0,0.0,0.0,0.0,0.0,0.0,0.0,0.0,0.0,0.0,0.0,0.0,0.0,0.0,0.0,0.0,0.0,0.0,0.0,0.0,0.0,0.0,0.0,0.0,0,0,0,0,0,0,0,1
118875062,0.0,0.0,0.09837214,0.0,0.0,0.10737295,0.0,0.0,0.04803901,0.09029644,0.0,0.0,0.0,0.0,0.0,0.0,0.0,0.0,0.0,0.0,0.0,0.0,0.0,0.0,0.0,0.0,0.0,0.0,0.0,0.0,0.0,0.0,10.0,0.0,0.0,0.0,2683.9072,8559.101,0.031310327,0.23357275,1.8626531,0.015105089,9.475504e-05,0.000105101986,8.433254e-05,0.20338535,0.0,0.0,0.0,0.0,0.0,0.0,0.0,0.0,0.0,0.0,0.0,0.0,0.0,0.0,0.0,0.0,0.0,0.0,0.0,0.0,0.0,0.0,0.0,0.0,0.0,0.0,0,0,0,0,0,0,0,1
118925240,0.0,0.0,0.09463575,0.0,0.0,0.10361777,0.0,0.0,0.048087955,0.090295486,0.0,0.0,0.0,0.0,0.0,0.0,0.0,0.0,0.0,0.0,0.0,0.0,0.0,0.0,0.0,0.0,0.0,0.0,0.0,0.0,0.0,0.0,10.0,0.0,0.0,0.0,2686.2485,8570.157,0.030570554,0.23354237,1.8638331,0.014609156,9.478059e-05,0.00010514175,8.432371e-05,0.20338543,0.0,0.0,0.0,0.0,0.0,0.0,0.0,0.0,0.0,0.0,0.0,0.0,0.0,0.0,0.0,0.0,0.0,0.0,0.0,0.0,0.0,0.0,0.0,0.0,0.0,0.0,0,0,0,0,0,0,0,1
118975260,0.0,0.0,0.098233655,0.0,0.0,0.10670927,0.0,0.0,0.048091628,0.09029634,0.0,0.0,0.0,0.0,0.0,0.0,0.0,0.0,0.0,0.0,0.0,0.0,0.0,0.0,0.0,0.0,0.0,0.0,0.0,0.0,0.0,0.0,10.0,0.0,0.0,0.0,2688.5837,8581.191,0.031312194,0.23357472,1.8650107,0.015105948,9.481014e-05,0.000105182684,8.4371146e-05,0.2033855,0.0,0.0,0.0,0.0,0.0,0.0,0.0,0.0,0.0,0.0,0.0,0.0,0.0,0.0,0.0,0.0,0.0,0.0,0.0,0.0,0.0,0.0,0.0,0.0,0.0,0.0,0,0,0,0,0,0,0,1
119025285,0.0,0.0,0.09457228,0.0,0.0,0.10280032,0.0,0.0,0.048139963,0.09029536,0.0,0.0,0.0,0.0,0.0,0.0,0.0,0.0,0.0,0.0,0.0,0.0,0.0,0.0,0.0,0.0,0.0,0.0,0.0,0.0,0.0,0.0,10.0,0.0,0.0,0.0,2690.9202,8592.236,0.030570796,0.23354286,1.8661883,0.014609592,9.48354e-05,0.000105222316,8.4362044e-05,0.20338558,0.0,0.0,0.0,0.0,0.0,0.0,0.0,0.0,0.0,0.0,0.0,0.0,0.0,0.0,0.0,0.0,0.0,0.0,0.0,0.0,0.0,0.0,0.0,0.0,0.0,0.0,0,0,0,0,0,0,0,1
119085326,0.0,0.0,0.09883158,0.0,0.0,0.106391095,0.0,0.0,0.048144434,0.09029639,0.0,0.0,0.0,0.0,0.0,0.0,0.0,0.0,0.0,0.0,0.0,0.0,0.0,0.0,0.0,0.0,0.0,0.0,0.0,0.0,0.0,0.0,10.0,0.0,0.0,0.0,2693.7253,8605.508,0.03146533,0.23358253,1.8676033,0.01520536,9.487096e-05,0.000105271385,8.4418905e-05,0.20338567,0.0,0.0,0.0,0.0,0.0,0.0,0.0,0.0,0.0,0.0,0.0,0.0,0.0,0.0,0.0,0.0,0.0,0.0,0.0,0.0,0.0,0.0,0.0,0.0,0.0,0.0,0,0,0,0,0,0,0,1
119135346,0.0,0.0,0.0952382,0.0,0.0,0.10394785,0.0,0.0,0.048192304,0.09029538,0.0,0.0,0.0,0.0,0.0,0.0,0.0,0.0,0.0,0.0,0.0,0.0,0.0,0.0,0.0,0.0,0.0,0.0,0.0,0.0,0.0,0.0,10.0,0.0,0.0,0.0,2696.0635,8616.575,0.030716907,0.23354955,1.8687823,0.014709843,9.489601e-05,0.00010531098,8.4409614e-05,0.20338574,0.0,0.0,0.0,0.0,0.0,0.0,0.0,0.0,0.0,0.0,0.0,0.0,0.0,0.0,0.0,0.0,0.0,0.0,0.0,0.0,0.0,0.0,0.0,0.0,0.0,0.0,0,0,0,0,0,0,0,1
119185584,0.0,0.0,0.09884944,0.0,0.0,0.10716689,0.0,0.0,0.048196077,0.09029624,0.0,0.0,0.0,0.0,0.0,0.0,0.0,0.0,0.0,0.0,0.0,0.0,0.0,0.0,0.0,0.0,0.0,0.0,0.0,0.0,0.0,0.0,10.0,0.0,0.0,0.0,2698.413,8627.703,0.03147114,0.2335853,1.8699676,0.015208014,9.49259e-05,0.00010535202,8.445716e-05,0.20338582,0.0,0.0,0.0,0.0,0.0,0.0,0.0,0.0,0.0,0.0,0.0,0.0,0.0,0.0,0.0,0.0,0.0,0.0,0.0,0.0,0.0,0.0,0.0,0.0,0.0,0.0,0,0,0,0,0,0,0,1
119235417,0.0,0.0,0.09523034,0.0,0.0,0.10320888,0.0,0.0,0.048244074,0.09029532,0.0,0.0,0.0,0.0,0.0,0.0,0.0,0.0,0.0,0.0,0.0,0.0,0.0,0.0,0.0,0.0,0.0,0.0,0.0,0.0,0.0,0.0,10.0,0.0,0.0,0.0,2700.7446,8638.751,0.030717207,0.2335503,1.8711433,0.014710032,9.4950636e-05,0.00010539142,8.444743e-05,0.20338589,0.0,0.0,0.0,0.0,0.0,0.0,0.0,0.0,0.0,0.0,0.0,0.0,0.0,0.0,0.0,0.0,0.0,0.0,0.0,0.0,0.0,0.0,0.0,0.0,0.0,0.0,0,0,0,0,0,0,0,1
119295552,0.0,0.0,0.099479094,0.0,0.0,0.10635892,0.0,0.0,0.048248664,0.09029635,0.0,0.0,0.0,0.0,0.0,0.0,0.0,0.0,0.0,0.0,0.0,0.0,0.0,0.0,0.0,0.0,0.0,0.0,0.0,0.0,0.0,0.0,10.0,0.0,0.0,0.0,2703.5598,8652.096,0.031622417,0.23359217,1.8725635,0.01530564,9.4986426e-05,0.000105440435,8.4504245e-05,0.20338598,0.0,0.0,0.0,0.0,0.0,0.0,0.0,0.0,0.0,0.0,0.0,0.0,0.0,0.0,0.0,0.0,0.0,0.0,0.0,0.0,0.0,0.0,0.0,0.0,0.0,0.0,0,0,0,0,0,0,0,1
119345616,0.0,0.0,0.095878504,0.0,0.0,0.1027586,0.0,0.0,0.04829626,0.09029536,0.0,0.0,0.0,0.0,0.0,0.0,0.0,0.0,0.0,0.0,0.0,0.0,0.0,0.0,0.0,0.0,0.0,0.0,0.0,0.0,0.0,0.0,10.0,0.0,0.0,0.0,2705.9045,8663.218,0.030866211,0.23355848,1.873746,0.014810222,9.50112e-05,0.00010548003,8.449456e-05,0.20338605,0.0,0.0,0.0,0.0,0.0,0.0,0.0,0.0,0.0,0.0,0.0,0.0,0.0,0.0,0.0,0.0,0.0,0.0,0.0,0.0,0.0,0.0,0.0,0.0,0.0,0.0,0,0,0,0,0,0,0,1
119395695,0.0,0.0,0.09938189,0.0,0.0,0.10562925,0.0,0.0,0.048300136,0.09029622,0.0,0.0,0.0,0.0,0.0,0.0,0.0,0.0,0.0,0.0,0.0,0.0,0.0,0.0,0.0,0.0,0.0,0.0,0.0,0.0,0.0,0.0,10.0,0.0,0.0,0.0,2708.2512,8674.3545,0.031623166,0.23359354,1.87493,0.015305733,9.504106e-05,0.00010552079,8.454184e-05,0.20338613,0.0,0.0,0.0,0.0,0.0,0.0,0.0,0.0,0.0,0.0,0.0,0.0,0.0,0.0,0.0,0.0,0.0,0.0,0.0,0.0,0.0,0.0,0.0,0.0,0.0,0.0,0,0,0,0,0,0,0,1
119445661,0.0,0.0,0.095839955,0.0,0.0,0.10265086,0.0,0.0,0.04834736,0.09029524,0.0,0.0,0.0,0.0,0.0,0.0,0.0,0.0,0.0,0.0,0.0,0.0,0.0,0.0,0.0,0.0,0.0,0.0,0.0,0.0,0.0,0.0,10.0,0.0,0.0,0.0,2710.5933,8685.476,0.03086631,0.23355888,1.8761115,0.01481048,9.506564e-05,0.00010556029,8.453193e-05,0.2033862,0.0,0.0,0.0,0.0,0.0,0.0,0.0,0.0,0.0,0.0,0.0,0.0,0.0,0.0,0.0,0.0,0.0,0.0,0.0,0.0,0.0,0.0,0.0,0.0,0.0,0.0,0,0,0,0,0,0,0,1
119505702,0.0,0.0,0.10003685,0.0,0.0,0.10592602,0.0,0.0,0.04835207,0.09029627,0.0,0.0,0.0,0.0,0.0,0.0,0.0,0.0,0.0,0.0,0.0,0.0,0.0,0.0,0.0,0.0,0.0,0.0,0.0,0.0,0.0,0.0,10.0,0.0,0.0,0.0,2713.409,8698.855,0.03177733,0.23360106,1.8775326,0.01540392,9.5101495e-05,0.000105609084,8.458855e-05,0.20338629,0.0,0.0,0.0,0.0,0.0,0.0,0.0,0.0,0.0,0.0,0.0,0.0,0.0,0.0,0.0,0.0,0.0,0.0,0.0,0.0,0.0,0.0,0.0,0.0,0.0,0.0,0,0,0,0,0,0,0,1
119555723,0.0,0.0,0.09652175,0.0,0.0,0.103895254,0.0,0.0,0.04839909,0.0902953,0.0,0.0,0.0,0.0,0.0,0.0,0.0,0.0,0.0,0.0,0.0,0.0,0.0,0.0,0.0,0.0,0.0,0.0,0.0,0.0,0.0,0.0,10.0,0.0,0.0,0.0,2715.756,8710.015,0.031014958,0.23356587,1.8787168,0.014910194,9.512596e-05,0.0001056486,8.457856e-05,0.20338637,0.0,0.0,0.0,0.0,0.0,0.0,0.0,0.0,0.0,0.0,0.0,0.0,0.0,0.0,0.0,0.0,0.0,0.0,0.0,0.0,0.0,0.0,0.0,0.0,0.0,0.0,0,0,0,0,0,0,0,1
119605745,0.0,0.0,0.10005383,0.0,0.0,0.10618272,0.0,0.0,0.048403066,0.09029616,0.0,0.0,0.0,0.0,0.0,0.0,0.0,0.0,0.0,0.0,0.0,0.0,0.0,0.0,0.0,0.0,0.0,0.0,0.0,0.0,0.0,0.0,10.0,0.0,0.0,0.0,2718.104,8721.184,0.031777263,0.23360142,1.8799019,0.015404106,9.515588e-05,0.00010568919,8.462567e-05,0.20338644,0.0,0.0,0.0,0.0,0.0,0.0,0.0,0.0,0.0,0.0,0.0,0.0,0.0,0.0,0.0,0.0,0.0,0.0,0.0,0.0,0.0,0.0,0.0,0.0,0.0,0.0,0,0,0,0,0,0,0,1
119655776,0.0,0.0,0.096518055,0.0,0.0,0.10352665,0.0,0.0,0.048450213,0.09029519,0.0,0.0,0.0,0.0,0.0,0.0,0.0,0.0,0.0,0.0,0.0,0.0,0.0,0.0,0.0,0.0,0.0,0.0,0.0,0.0,0.0,0.0,10.0,0.0,0.0,0.0,2720.4536,8732.365,0.031015452,0.23356633,1.8810874,0.014910629,9.518026e-05,0.0001057287,8.461554e-05,0.20338652,0.0,0.0,0.0,0.0,0.0,0.0,0.0,0.0,0.0,0.0,0.0,0.0,0.0,0.0,0.0,0.0,0.0,0.0,0.0,0.0,0.0,0.0,0.0,0.0,0.0,0.0,0,0,0,0,0,0,0,1
119715799,0.0,0.0,0.100748785,0.0,0.0,0.10691739,0.0,0.0,0.048455045,0.09029622,0.0,0.0,0.0,0.0,0.0,0.0,0.0,0.0,0.0,0.0,0.0,0.0,0.0,0.0,0.0,0.0,0.0,0.0,0.0,0.0,0.0,0.0,10.0,0.0,0.0,0.0,2723.2737,8745.795,0.03193423,0.23360965,1.8825108,0.015502666,9.521625e-05,0.000105777355,8.4672e-05,0.2033866,0.0,0.0,0.0,0.0,0.0,0.0,0.0,0.0,0.0,0.0,0.0,0.0,0.0,0.0,0.0,0.0,0.0,0.0,0.0,0.0,0.0,0.0,0.0,0.0,0.0,0.0,0,0,0,0,0,0,0,1
119765819,0.0,0.0,0.09721445,0.0,0.0,0.10391079,0.0,0.0,0.04850216,0.09029525,0.0,0.0,0.0,0.0,0.0,0.0,0.0,0.0,0.0,0.0,0.0,0.0,0.0,0.0,0.0,0.0,0.0,0.0,0.0,0.0,0.0,0.0,10.0,0.0,0.0,0.0,2725.6248,8756.998,0.031165035,0.23357333,1.8836975,0.01500992,9.524045e-05,0.000105816805,8.4661726e-05,0.20338668,0.0,0.0,0.0,0.0,0.0,0.0,0.0,0.0,0.0,0.0,0.0,0.0,0.0,0.0,0.0,0.0,0.0,0.0,0.0,0.0,0.0,0.0,0.0,0.0,0.0,0.0,0,0,0,0,0,0,0,1
119815851,0.0,0.0,0.10075134,0.0,0.0,0.1072275,0.0,0.0,0.048506238,0.090296105,0.0,0.0,0.0,0.0,0.0,0.0,0.0,0.0,0.0,0.0,0.0,0.0,0.0,0.0,0.0,0.0,0.0,0.0,0.0,0.0,0.0,0.0,10.0,0.0,0.0,0.0,2727.9775,8768.215,0.031934444,0.23361014,1.8848853,0.015502917,9.5270516e-05,0.0001058573,8.470873e-05,0.20338675,0.0,0.0,0.0,0.0,0.0,0.0,0.0,0.0,0.0,0.0,0.0,0.0,0.0,0.0,0.0,0.0,0.0,0.0,0.0,0.0,0.0,0.0,0.0,0.0,0.0,0.0,0,0,0,0,0,0,0,1
119866057,0.0,0.0,0.09724527,0.0,0.0,0.104602434,0.0,0.0,0.04855357,0.09029513,0.0,0.0,0.0,0.0,0.0,0.0,0.0,0.0,0.0,0.0,0.0,0.0,0.0,0.0,0.0,0.0,0.0,0.0,0.0,0.0,0.0,0.0,10.0,0.0,0.0,0.0,2730.3394,8779.481,0.03116645,0.23357563,1.8860782,0.015009739,9.529479e-05,0.0001058969,8.469834e-05,0.20338683,0.0,0.0,0.0,0.0,0.0,0.0,0.0,0.0,0.0,0.0,0.0,0.0,0.0,0.0,0.0,0.0,0.0,0.0,0.0,0.0,0.0,0.0,0.0,0.0,0.0,0.0,0,0,0,0,0,0,0,1
119926072,0.0,0.0,0.101516336,0.0,0.0,0.10804641,0.0,0.0,0.048558533,0.09029616,0.0,0.0,0.0,0.0,0.0,0.0,0.0,0.0,0.0,0.0,0.0,0.0,0.0,0.0,0.0,0.0,0.0,0.0,0.0,0.0,0.0,0.0,10.0,0.0,0.0,0.0,2733.1643,8792.963,0.032093115,0.23362014,1.887505,0.015600454,9.533091e-05,0.0001059454,8.475465e-05,0.20338692,0.0,0.0,0.0,0.0,0.0,0.0,0.0,0.0,0.0,0.0,0.0,0.0,0.0,0.0,0.0,0.0,0.0,0.0,0.0,0.0,0.0,0.0,0.0,0.0,0.0,0.0,0,0,0,0,0,0,0,1
119976146,0.0,0.0,0.097402826,0.0,0.0,0.10459493,0.0,0.0,0.048609514,0.09029501,0.0,0.0,0.0,0.0,0.0,0.0,0.0,0.0,0.0,0.0,0.0,0.0,0.0,0.0,0.0,0.0,0.0,0.0,0.0,0.0,0.0,0.0,10.0,0.0,0.0,0.0,2735.5222,8804.224,0.031176459,0.23357703,1.8886962,0.015014821,9.5354386e-05,0.00010598475,8.473864e-05,0.20338699,0.0,0.0,0.0,0.0,0.0,0.0,0.0,0.0,0.0,0.0,0.0,0.0,0.0,0.0,0.0,0.0,0.0,0.0,0.0,0.0,0.0,0.0,0.0,0.0,0.0,0.0,0,0,0,0,0,0,0,1
