timestamp,gyro_rad[0],gyro_rad[1],gyro_rad[2],gyro_integral_dt,accelerometer_timestamp_relative,accelerometer_m_s2[0],accelerometer_m_s2[1],accelerometer_m_s2[2],accelerometer_integral_dt,magnetometer_timestamp_relative,magnetometer_ga[0],magnetometer_ga[1],magnetometer_ga[2],baro_timestamp_relative,baro_alt_meter,baro_temp_celcius
112614307,-0.0019249436,-0.0033102136,-0.0032385667,0.004,0,1.1071417,-0.48647752,-9.630395,0.004,-5189,0.12166172,0.14503792,0.44688118,2147483647,0.0,0.0
112650307,-0.00086194207,-0.0027728963,-0.0030642776,0.004,0,1.1002003,-0.48783186,-9.636235,0.004,-423,0.12669249,0.13591026,0.43511558,2147483647,0.0,0.0
112654307,-0.0017097152,-0.0034083286,-0.0029202034,0.004,0,1.1168418,-0.4824127,-9.623729,0.004,-4423,0.12669249,0.13591026,0.43511558,2147483647,0.0,0.0
112658307,-0.00097281096,-0.0025656503,-0.0032778587,0.004,0,1.1342559,-0.49378523,-9.60676,0.004,-8423,0.12669249,0.13591026,0.43511558,2147483647,0.0,0.0
112662307,-0.0009925222,-0.0028031652,-0.004229143,0.004,0,1.1241167,-0.48375168,-9.620079,0.004,-2823,0.123459145,0.13626723,0.44877452,2147483647,0.0,0.0
112666307,-0.001096709,-0.002588008,-0.004126556,0.004,0,1.1149837,-0.49469587,-9.63165,0.004,-6823,0.123459145,0.13626723,0.44877452,2147483647,0.0,0.0
112670307,-0.0011922371,-0.0025740564,-0.003593334,0.004,0,1.0884476,-0.4962012,-9.6239605,0.004,-423,0.123459145,0.13626723,0.44877452,2147483647,0.0,0.0
112674307,-0.0019301549,-0.0027784205,-0.003252431,0.004,0,1.1040705,-0.49403057,-9.624342,0.004,-4423,0.123459145,0.13626723,0.44877452,2147483647,0.0,0.0
112678307,-0.0017275115,-0.003430862,-0.0037726918,0.004,0,1.1101921,-0.5001722,-9.619335,0.004,-8423,0.123459145,0.13626723,0.44877452,2147483647,0.0,0.0
112682307,-0.0025704256,-0.0036323005,-0.003323343,0.004,0,1.1005284,-0.50005436,-9.632865,0.004,-2023,0.1338534,0.15371938,0.44129995,2147483647,0.0,0.0
112686307,-0.00097357243,-0.0021406435,-0.00328901,0.004,0,1.1035962,-0.4916716,-9.635752,0.004,-6023,0.1338534,0.15371938,0.44129995,2147483647,0.0,0.0
112690307,-0.0015947948,-0.0024386677,-0.0025240001,0.004,0,1.1170765,-0.48812065,-9.611311,0.004,-423,0.12144674,0.15182246,0.43650636,2147483647,0.0,0.0
112694306,-0.0006573549,-0.0025712394,-0.0034971312,0.003999,0,1.0961541,-0.49334618,-9.635083,0.003999,-4422,0.12144674,0.15182246,0.43650636,2147483647,0.0,0.0
112699108,-0.0013820188,-0.0030335386,-0.004231427,0.004802,0,1.0986146,-0.48838523,-9.64774,0.004802,-9224,0.12144674,0.15182246,0.43650636,2147483647,0.0,0.0
112703107,-0.00066033896,-0.0025740082,-0.003602574,0.003999,0,1.1235788,-0.48680827,-9.635336,0.003999,-2823,0.121524796,0.13780719,0.4402733,2147483647,0.0,0.0
112707108,-0.0011810885,-0.0027727839,-0.0030553238,0.004001,0,1.132294,-0.4867883,-9.643574,0.004001,-6824,0.121524796,0.13780719,0.4402733,2147483647,0.0,0.0
112711108,-0.0019005883,-0.0025264919,-0.0017677246,0.004,0,1.1209295,-0.49525526,-9.634362,0.004,-1224,0.13055542,0.14340873,0.45184022,2147483647,0.0,0.0
112715108,-0.0012937093,-0.0027813695,-0.0033726862,0.004,0,1.108289,-0.49888718,-9.652934,0.004,-5224,0.13055542,0.14340873,0.45184022,2147483647,0.0,0.0
112719108,-0.001405888,-0.0028920975,-0.0035786885,0.004,0,1.1029074,-0.5015992,-9.645655,0.004,-9224,0.13055542,0.14340873,0.45184022,2147483647,0.0,0.0
112723108,-0.0006572329,-0.0035288383,-0.003471918,0.004,0,1.1016501,-0.49417353,-9.648191,0.004,-2824,0.12495969,0.15534858,0.4363409,2147483647,0.0,0.0
112727108,-0.0010787869,-0.0030977097,-0.0032616833,0.004,0,1.0894433,-0.48897082,-9.633876,0.004,-6824,0.12495969,0.15534858,0.4363409,2147483647,0.0,0.0
112731113,-0.00022728815,-0.003416202,-0.0032709574,0.004005,0,1.0995326,-0.49261594,-9.634698,0.004005,-1229,0.11450081,0.12722881,0.4406968,2147483647,0.0,0.0
112735108,-0.0018322873,-0.0018245558,-0.0034928867,0.003995,0,1.1145124,-0.49071386,-9.608988,0.003995,-5224,0.11450081,0.12722881,0.4406968,2147483647,0.0,0.0
112739108,-0.0015221172,-0.002486016,-0.004333384,0.004,0,1.1066577,-0.4970337,-9.601496,0.004,-9224,0.11450081,0.12722881,0.4406968,2147483647,0.0,0.0
112743108,-0.0020432596,-0.0025740073,-0.0035738375,0.004,0,1.1202918,-0.5146892,-9.619645,0.004,-2819,0.14275861,0.13093343,0.44681463,2147483647,0.0,0.0
112747108,-0.0013987133,-0.002246362,-0.0032774236,0.004,0,1.1068907,-0.5140359,-9.604231,0.004,-6819,0.14275861,0.13093343,0.44681463,2147483647,0.0,0.0
112751108,-0.0022606247,-0.0025796324,-0.00378348,0.004,0,1.0969958,-0.5094908,-9.605805,0.004,-424,0.14275861,0.13093343,0.44681463,2147483647,0.0,0.0
112755108,-0.0015222032,-0.003013413,-0.004106429,0.004,0,1.0994658,-0.4896675,-9.614659,0.004,-3623,0.14275861,0.13093343,0.44681463,2147483647,0.0,0.0
112759108,-0.0020362642,-0.0033114122,-0.003236226,0.004,0,1.0975811,-0.4887076,-9.623873,0.004,-7623,0.14275861,0.13093343,0.44681463,2147483647,0.0,0.0
112763108,-0.0017175758,-0.0030973025,-0.0032481921,0.004,0,1.1103449,-0.48358506,-9.622614,0.004,-1991,0.12351993,0.15398711,0.45170805,2147483647,0.0,0.0
112767108,-0.0012729266,-0.0035016953,-0.0023953253,0.004,0,1.1092271,-0.47358617,-9.619056,0.004,-5991,0.12351993,0.15398711,0.45170805,2147483647,0.0,0.0
112771113,-0.0009697194,-0.0021411714,-0.0032890774,0.004005,0,1.1040934,-0.48138615,-9.6128845,0.004005,-9996,0.12351993,0.15398711,0.45170805,2147483647,0.0,0.0
112775107,-0.0012900599,-0.0020353247,-0.0032852185,0.003994,0,1.0955498,-0.49138853,-9.60652,0.003994,-3623,0.13414069,0.14349797,0.4551639,2147483647,0.0,0.0
112779108,-0.0008634806,-0.0015017969,-0.0033080783,0.004001,0,1.1069779,-0.4892235,-9.5873995,0.004001,-7624,0.13414069,0.14349797,0.4551639,2147483647,0.0,0.0
112783108,-0.0022501792,-0.0015017986,-0.003279343,0.004,0,1.1216766,-0.48339993,-9.587605,0.004,-1225,0.13730556,0.13952564,0.43820098,2147483647,0.0,0.0
112787108,-0.0022344638,-0.002014161,-0.0025208348,0.004,0,1.109575,-0.48318878,-9.62569,0.004,-5225,0.13730556,0.13952564,0.43820098,2147483647,0.0,0.0
112791108,-0.0017149253,-0.002989096,-0.0031460705,0.004,0,1.1153413,-0.4849588,-9.637813,0.004,-9225,0.13730556,0.13952564,0.43820098,2147483647,0.0,0.0
112795108,-0.0019416843,-0.0025796155,-0.0037895576,0.004,0,1.1235331,-0.49283847,-9.625248,0.004,-3623,0.12682942,0.143141,0.44172344,2147483647,0.0,0.0
112799108,-0.0017173387,-0.0025656524,-0.0032624302,0.004,0,1.1160227,-0.5095834,-9.627732,0.004,-7623,0.12682942,0.143141,0.44172344,2147483647,0.0,0.0
112803108,-0.0019302701,-0.0025656512,-0.0032580188,0.004,0,1.1208748,-0.50559205,-9.614209,0.004,-1225,0.11794146,0.13419183,0.43704224,2147483647,0.0,0.0
112807108,-0.000759115,-0.002991856,-0.0032710887,0.004,0,1.1174183,-0.5030542,-9.618712,0.004,-5225,0.11794146,0.13419183,0.43704224,2147483647,0.0,0.0
112811115,-0.0021212557,-0.002005399,-0.0022047656,0.004007,0,1.1172625,-0.509764,-9.625864,0.004007,-9232,0.11794146,0.13419183,0.43704224,2147483647,0.0,0.0
112815108,-0.0014868581,-0.0014794546,-0.0024444018,0.003993,0,1.1046666,-0.51247454,-9.618376,0.003993,-3619,0.12848416,0.13771795,0.43673113,2147483647,0.0,0.0
112819108,-0.0017220395,-0.0020395855,-0.0034892508,0.004,0,1.1173216,-0.49706984,-9.611764,0.004,-7619,0.12848416,0.13771795,0.43673113,2147483647,0.0,0.0
112823108,-0.001402227,-0.002784155,-0.0035881214,0.004,0,1.1029141,-0.49747884,-9.599878,0.004,-1185,0.11987006,0.14323024,0.44526562,2147483647,0.0,0.0
112827108,-0.001699153,-0.0030749594,-0.0023977046,0.004,0,1.0934547,-0.49485165,-9.5912075,0.004,-5185,0.11987006,0.14323024,0.44526562,2147483647,0.0,0.0
112831907,-0.0013714031,-0.0014220047,-0.0036549957,0.004799,0,1.1104825,-0.49560127,-9.616874,0.004799,-423,0.11987006,0.14323024,0.44526562,2147483647,0.0,0.0
112835900,-0.0013013371,-0.0019373713,-0.0037123645,0.003993,0,1.1127859,-0.49316522,-9.610114,0.003993,-3615,0.11987006,0.14323024,0.44526562,2147483647,0.0,0.0
112839907,-0.0021339094,-0.0021287885,-0.0028410258,0.004007,0,1.1021383,-0.5065484,-9.613786,0.004007,-7622,0.11987006,0.14323024,0.44526562,2147483647,0.0,0.0
112843901,-0.0015055739,-0.002034525,-0.0032807745,0.003994,0,1.0990862,-0.51544935,-9.621067,0.003994,-2010,0.1233107,0.15019326,0.44161105,2147483647,0.0,0.0
112847919,-0.0013993178,-0.0020344974,-0.003282182,0.004018,0,1.1071665,-0.51177585,-9.6376705,0.004018,-6028,0.1233107,0.15019326,0.44161105,2147483647,0.0,0.0
112851900,-0.0005223956,-0.002537705,-0.0022231098,0.003981,0,1.1123617,-0.508675,-9.630513,0.003981,-417,0.1355139,0.13771795,0.43658546,2147483647,0.0,0.0
112855907,-0.0017999199,-0.0025377031,-0.0021966405,0.004007,0,1.1056715,-0.49896514,-9.628253,0.004007,-4424,0.1355139,0.13771795,0.43658546,2147483647,0.0,0.0
112859901,-0.0017165738,-0.0025628253,-0.0031548124,0.003994,0,1.1128327,-0.5036166,-9.63092,0.003994,-8418,0.1355139,0.13771795,0.43658546,2147483647,0.0,0.0
112863915,-0.0029935364,-0.0027787401,-0.0032303876,0.004014,0,1.1159278,-0.5028026,-9.608747,0.004014,-2031,0.12331838,0.13608874,0.4419815,2147483647,0.0,0.0
112867901,-0.0016965091,-0.0028586143,-0.0022958694,0.003986,0,1.1236527,-0.5028412,-9.619807,0.003986,-6017,0.12331838,0.13608874,0.4419815,2147483647,0.0,0.0
112871907,-0.0022251115,-0.0029605934,-0.0020695985,0.004006,0,1.1115172,-0.4898464,-9.6026125,0.004006,-423,0.12858781,0.14137794,0.44173333,2147483647,0.0,0.0
112875901,-0.0022429952,-0.0025572754,-0.0029326342,0.003994,0,1.1069199,-0.48125422,-9.625921,0.003994,-2784,0.12841186,0.14115483,0.43324193,2147483647,0.0,0.0
112879907,-0.0026688708,-0.0025572595,-0.0029231706,0.004006,0,1.1195003,-0.49275383,-9.621853,0.004006,-6790,0.12841186,0.14115483,0.43324193,2147483647,0.0,0.0
112883900,-0.001259444,-0.001992761,-0.0016906832,0.003993,0,1.1312621,-0.49152836,-9.61244,0.003993,-1975,0.13027774,0.1359995,0.43843925,2147483647,0.0,0.0
112887907,-0.00041133224,-0.002201119,-0.0017006518,0.004007,0,1.1326213,-0.49014336,-9.614841,0.004007,-5982,0.13027774,0.1359995,0.43843925,2147483647,0.0,0.0
112891900,-0.0010560515,-0.002537703,-0.0022120546,0.003993,0,1.1241983,-0.48639187,-9.628274,0.003993,-9975,0.13027774,0.1359995,0.43843925,2147483647,0.0,0.0
112895907,-0.0012976371,-0.0033145805,-0.0034621782,0.004007,0,1.1192391,-0.4974413,-9.635441,0.004007,-2791,0.13378493,0.15010402,0.43799597,2147483647,0.0,0.0
112899913,-0.001394672,-0.0036238777,-0.0030270757,0.004006,0,1.1137749,-0.4980808,-9.631776,0.004006,-6797,0.13378493,0.15010402,0.43799597,2147483647,0.0,0.0
112903907,-0.00096854294,-0.002880934,-0.003164619,0.003994,0,1.1083996,-0.4865166,-9.623905,0.003994,-2023,0.11952007,0.1392579,0.4283755,2147483647,0.0,0.0
112907901,-0.0013598595,-0.0023210084,-0.0021198746,0.003994,0,1.0953007,-0.4904694,-9.611894,0.003994,-6017,0.11952007,0.1392579,0.4283755,2147483647,0.0,0.0
112911907,-0.0012847545,-0.0038281183,-0.002807086,0.004006,0,1.0911394,-0.50599146,-9.620667,0.004006,-10023,0.11952007,0.1392579,0.4283755,2147483647,0.0,0.0
112915901,-0.0011853189,-0.0030978438,-0.0032594719,0.003994,0,1.1009059,-0.50174356,-9.614361,0.003994,-2784,0.11952007,0.1392579,0.4283755,2147483647,0.0,0.0
112919926,-0.0008743714,-0.0031069901,-0.003689748,0.004025,0,1.1186867,-0.50406104,-9.639063,0.004025,-6809,0.11952007,0.1392579,0.4283755,2147483647,0.0,0.0
112923901,-0.001926845,-0.0025572341,-0.0029376624,0.0039749998,0,1.121116,-0.5042585,-9.636719,0.0039749998,-10784,0.11952007,0.1392579,0.4283755,2147483647,0.0,0.0
112927907,-0.0017142886,-0.0020289416,-0.0030639526,0.004006,0,1.1103302,-0.5100461,-9.636369,0.004006,-3623,0.12152288,0.14133331,0.4401807,2147483647,0.0,0.0
112931906,-0.0011637448,-0.0022172711,-0.0022182404,0.003999,0,1.1026182,-0.5070349,-9.613578,0.003999,-7622,0.12152288,0.14133331,0.4401807,2147483647,0.0,0.0
112935907,-0.00043117482,-0.0025516744,-0.0027569085,0.004001,0,1.1098775,-0.48079768,-9.598335,0.004001,-2791,0.12704247,0.13988261,0.45200565,2147483647,0.0,0.0
112939901,-0.00095790124,-0.0025461358,-0.002535122,0.003994,0,1.1159904,-0.47676584,-9.629966,0.003994,-6785,0.12704247,0.13988261,0.45200565,2147483647,0.0,0.0
112943906,-0.0008624619,-0.0033063386,-0.0031535388,0.004005,0,1.1163946,-0.48645145,-9.621496,0.004005,-422,0.12317954,0.13238412,0.435281,2147483647,0.0,0.0
112947908,-0.0017166217,-0.0043740952,-0.003214926,0.004002,0,1.1234245,-0.49019086,-9.607332,0.004002,-4424,0.12317954,0.13238412,0.435281,2147483647,0.0,0.0
112951907,-0.001397688,-0.0039493795,-0.003231766,0.003999,0,1.1246679,-0.49697408,-9.617343,0.003999,-8423,0.12317954,0.13238412,0.435281,2147483647,0.0,0.0
112955901,-0.0014880968,-0.0031809546,-0.00239868,0.003994,0,1.1169947,-0.50081843,-9.616391,0.003994,-2785,0.1268275,0.14666714,0.4416308,2147483647,0.0,0.0
112959907,-0.00065264147,-0.0028859212,-0.0032760792,0.004006,0,1.1015401,-0.49986482,-9.607112,0.004006,-6791,0.1268275,0.14666714,0.4416308,2147483647,0.0,0.0
112963900,-0.00046324555,-0.0033374324,-0.0043314863,0.003993,0,1.106614,-0.49887478,-9.606036,0.003993,-417,0.12309765,0.15345164,0.4313288,2147483647,0.0,0.0
112968707,-0.00093655323,-0.0026784693,-0.0041633616,0.004807,0,1.1069247,-0.4848727,-9.614119,0.004807,-5224,0.12309765,0.15345164,0.4313288,2147483647,0.0,0.0
112972711,-0.0004403571,-0.0033100036,-0.0032693322,0.004004,0,1.1196669,-0.48234794,-9.602969,0.004004,-9228,0.12309765,0.15345164,0.4313288,2147483647,0.0,0.0
112976707,-0.0013994193,-0.0025656498,-0.0032690198,0.003996,0,1.1378976,-0.49055567,-9.593894,0.003996,-3589,0.13558811,0.13075495,0.44016722,2147483647,0.0,0.0
112980707,-0.002032032,-0.0029857385,-0.003032043,0.004,0,1.1259905,-0.48943946,-9.588001,0.004,-7589,0.13558811,0.13075495,0.44016722,2147483647,0.0,0.0
112984707,-0.0027795245,-0.0025628558,-0.0031340136,0.004,0,1.129377,-0.4845249,-9.621801,0.004,-2023,0.12676094,0.13952564,0.43841946,2147483647,0.0,0.0
112988707,-0.002036669,-0.0025656507,-0.0032558143,0.004,0,1.1260272,-0.49012974,-9.632706,0.004,-6023,0.12676094,0.13952564,0.43841946,2147483647,0.0,0.0
112992706,-0.0020168938,-0.003072164,-0.0022847399,0.003999,0,1.0965511,-0.48869434,-9.651068,0.003999,-10022,0.12676094,0.13952564,0.43841946,2147483647,0.0,0.0
112996706,-0.0011811473,-0.0026669856,-0.0030581823,0.004,0,1.1057565,-0.4984865,-9.646985,0.004,-2022,0.12676094,0.13952564,0.43841946,2147483647,0.0,0.0
113000707,-0.0019040853,-0.0024256147,-0.0019841164,0.004001,0,1.123746,-0.4937759,-9.615054,0.004001,-6023,0.12676094,0.13952564,0.43841946,2147483647,0.0,0.0
113004706,-0.0007598894,-0.0023526936,-0.0032878667,0.003999,0,1.1196548,-0.4878663,-9.638309,0.003999,-10022,0.12676094,0.13952564,0.43841946,2147483647,0.0,0.0
113008707,-0.0019101431,-0.0017966798,-0.002321345,0.004001,0,1.1206468,-0.4963292,-9.64854,0.004001,-3589,0.12676479,0.13247338,0.43860468,2147483647,0.0,0.0
113012707,-0.0013891,-0.0021289298,-0.0029611296,0.004,0,1.1173097,-0.5039419,-9.625128,0.004,-7589,0.12676479,0.13247338,0.43860468,2147483647,0.0,0.0
113016706,-0.002690695,-0.0029043222,-0.0039789192,0.003999,0,1.108304,-0.505925,-9.617492,0.003999,-2022,0.12137829,0.14820708,0.4332024,2147483647,0.0,0.0
113020707,-0.0029946133,-0.0018208735,-0.0032555345,0.004001,0,1.1050661,-0.5160365,-9.63443,0.004001,-6023,0.12137829,0.14820708,0.4332024,2147483647,0.0,0.0
113024706,-0.0018244694,-0.0022465505,-0.003268595,0.003999,0,1.0953461,-0.5190053,-9.627525,0.003999,-10022,0.12137829,0.14820708,0.4332024,2147483647,0.0,0.0
113028707,-0.0011745961,-0.002551684,-0.0027419028,0.004001,0,1.0931529,-0.5123452,-9.640675,0.004001,-3590,0.121524796,0.13780719,0.4402733,2147483647,0.0,0.0
113032707,-0.001701904,-0.0025460809,-0.002517629,0.004,0,1.0999206,-0.4991809,-9.627192,0.004,-7590,0.121524796,0.13780719,0.4402733,2147483647,0.0,0.0
113036707,-0.0027525793,-0.0015766359,-0.0019941137,0.004,0,1.1121,-0.48472762,-9.619376,0.004,-2023,0.13909915,0.13780719,0.43990916,2147483647,0.0,0.0
113040707,-0.0022189764,-0.002100984,-0.0017735048,0.004,0,1.1087915,-0.48318702,-9.616694,0.004,-6023,0.13909915,0.13780719,0.43990916,2147483647,0.0,0.0
113044707,-0.0029723544,-0.0025377031,-0.002172346,0.004,0,1.1138443,-0.4884246,-9.60458,0.004,-10023,0.13909915,0.13780719,0.43990916,2147483647,0.0,0.0
113048707,-0.001608597,-0.0033075546,-0.0031387063,0.004,0,1.122648,-0.4989557,-9.609924,0.004,-3590,0.1320675,0.14133331,0.4399622,2147483647,0.0,0.0
113052706,-0.0011855509,-0.0026720632,-0.003270655,0.003999,0,1.1144766,-0.48936483,-9.621609,0.003999,-7589,0.1320675,0.14133331,0.4399622,2147483647,0.0,0.0
113056707,-0.0011921023,-0.0027868839,-0.0035868664,0.004001,0,1.0971365,-0.48824668,-9.634051,0.004001,-2023,0.13915993,0.15552707,0.4428426,2147483647,0.0,0.0
113060707,-0.0019470108,-0.0023724446,-0.004008119,0.004,0,1.1015995,-0.49530765,-9.626872,0.004,-6023,0.13915993,0.15552707,0.4428426,2147483647,0.0,0.0
113064707,-0.00043713572,-0.0010720642,-0.0031177688,0.004,0,1.1254492,-0.50876796,-9.624879,0.004,-10023,0.13915993,0.15552707,0.4428426,2147483647,0.0,0.0
113068707,-0.0011999905,-0.00045471502,-0.003967506,0.004,0,1.1184391,-0.4986284,-9.615519,0.004,-3590,0.14081468,0.15010402,0.4378503,2147483647,0.0,0.0
113072707,-0.00097577216,-0.00118544,-0.0034206775,0.004,0,1.1087068,-0.48821184,-9.632871,0.004,-7590,0.14081468,0.15010402,0.4378503,2147483647,0.0,0.0
113076707,-0.00042545045,-0.0020056455,-0.0022390988,0.004,0,1.110922,-0.49001586,-9.6383705,0.004,-1222,0.14081468,0.15010402,0.4378503,2147483647,0.0,0.0
113080707,-0.0015931596,-0.0030750912,-0.0024000336,0.004,0,1.1106241,-0.4988458,-9.633108,0.004,-5222,0.14081468,0.15010402,0.4378503,2147483647,0.0,0.0
113084706,-0.0012590608,-0.0028429604,-0.0016671508,0.003999,0,1.1208165,-0.49027294,-9.628805,0.003999,-9221,0.14081468,0.15010402,0.4378503,2147483647,0.0,0.0
113088707,-0.0015963922,-0.0025488539,-0.002625453,0.004001,0,1.1091833,-0.49323767,-9.622125,0.004001,-2822,0.14081468,0.15010402,0.4378503,2147483647,0.0,0.0
113092707,-0.0014936583,-0.0027644357,-0.002728902,0.004,0,1.1113663,-0.48919246,-9.596944,0.004,-6822,0.14081468,0.15010402,0.4378503,2147483647,0.0,0.0
113096712,-0.0017133269,-0.0033055574,-0.0030302429,0.004005,0,1.1098231,-0.4956043,-9.601713,0.004005,-1228,0.12841186,0.14115483,0.43324193,2147483647,0.0,0.0
113101509,-0.0016191078,-0.0036171782,-0.0027925535,0.004797,0,1.09537,-0.4891797,-9.640213,0.004797,-6025,0.12841186,0.14115483,0.43324193,2147483647,0.0,0.0
113105507,-0.0019124749,-0.0032882325,-0.0023876552,0.003998,0,1.1108818,-0.49127328,-9.620759,0.003998,-391,0.12511005,0.13789643,0.443597,2147483647,0.0,0.0
113109507,-0.00064282055,-0.0045729904,-0.0026992778,0.004,0,1.1008079,-0.49720785,-9.607627,0.004,-4391,0.12511005,0.13789643,0.443597,2147483647,0.0,0.0
113113507,-0.00042471095,-0.0033983663,-0.002415482,0.004,0,1.113197,-0.5020892,-9.600923,0.004,-8391,0.12511005,0.13789643,0.443597,2147483647,0.0,0.0
113117507,-1.6238007e-05,-0.0025713257,-0.0035138226,0.004,0,1.1050968,-0.4932314,-9.622451,0.004,-1997,0.12703864,0.14693487,0.45182043,2147483647,0.0,0.0
113121512,-0.0017158556,-0.0030961158,-0.0032485242,0.004005,0,1.1041058,-0.49150914,-9.610937,0.004005,-6002,0.12703864,0.14693487,0.45182043,2147483647,0.0,0.0
113125506,-0.0011966527,-0.0025796567,-0.0038064597,0.003994,0,1.1069022,-0.48991406,-9.61506,0.003994,-390,0.12855454,0.13780719,0.44012764,2147483647,0.0,0.0
113129507,-0.001401221,-0.0033120292,-0.003355957,0.004001,0,1.0867183,-0.49245632,-9.638412,0.004001,-4391,0.12855454,0.13780719,0.44012764,2147483647,0.0,0.0
113133507,-0.0011808949,-0.0030913015,-0.0030459738,0.004,0,1.0943916,-0.4935161,-9.650651,0.004,-8391,0.12855454,0.13780719,0.44012764,2147483647,0.0,0.0
113137507,-0.0009617874,-0.0025516748,-0.002745913,0.004,0,1.1016744,-0.49541807,-9.658802,0.004,-2823,0.121519044,0.14838557,0.43999547,2147483647,0.0,0.0
113141507,-0.00012148889,-0.0027785373,-0.0032892397,0.004,0,1.1217442,-0.49436894,-9.664925,0.004,-6823,0.121519044,0.14838557,0.43999547,2147483647,0.0,0.0
113145508,-0.00032345793,-0.0023388274,-0.0027648665,0.004001,0,1.1135465,-0.49445087,-9.631391,0.004001,-391,0.14247134,0.14115483,0.43295062,2147483647,0.0,0.0
113149506,-0.0017925815,-0.0027396993,-0.0017668093,0.003998,0,1.1178285,-0.48333573,-9.622052,0.003998,-4389,0.14247134,0.14115483,0.43295062,2147483647,0.0,0.0
113153507,-0.0017069161,-0.0026581604,-0.002727409,0.004001,0,1.1222601,-0.49431354,-9.617134,0.004001,-8390,0.14247134,0.14115483,0.43295062,2147483647,0.0,0.0
113157552,-0.0016975284,-0.0025318502,-0.0019759496,0.004045,0,1.1074843,-0.48760068,-9.608428,0.004045,-1269,0.13371456,0.15001476,0.43459946,2147483647,0.0,0.0
113161507,-0.0009377858,-0.0025294276,-0.0018993131,0.003955,0,1.099384,-0.4877851,-9.617104,0.003955,-5224,0.13371456,0.15001476,0.43459946,2147483647,0.0,0.0
113165507,-0.0018015828,-0.0027510053,-0.0021910013,0.004,0,1.0897782,-0.48335645,-9.594753,0.004,-9224,0.13371456,0.15001476,0.43459946,2147483647,0.0,0.0
113169507,-0.0022425207,-0.003408346,-0.0029098291,0.004,0,1.0869181,-0.48428085,-9.593243,0.004,-13224,0.13371456,0.15001476,0.43459946,2147483647,0.0,0.0
113173507,-0.002973854,-0.002859122,-0.0022703495,0.004,0,1.0915949,-0.50032264,-9.587952,0.004,-17224,0.13371456,0.15001476,0.43459946,2147483647,0.0,0.0
113177507,-0.0015020814,-0.0035203234,-0.0031353254,0.004,0,1.0946045,-0.49891245,-9.616918,0.004,-1223,0.12490083,0.13410258,0.4335,2147483647,0.0,0.0
113181509,-0.0024454887,-0.0036099388,-0.0024745064,0.004002,0,1.1012306,-0.5074946,-9.622049,0.004002,-5225,0.12490083,0.13410258,0.4335,2147483647,0.0,0.0
113185507,-0.002236212,-0.0028682104,-0.0026053211,0.003998,0,1.104678,-0.49410096,-9.617964,0.003998,-9223,0.12490083,0.13410258,0.4335,2147483647,0.0,0.0
113189506,-0.00223876,-0.0022320508,-0.0027282503,0.003999,0,1.1170297,-0.50082564,-9.625856,0.003999,-2822,0.13579349,0.14160106,0.450079,2147483647,0.0,0.0
113193511,-0.0012922966,-0.00203346,-0.0032852222,0.004005,0,1.1112573,-0.50463593,-9.614273,0.004005,-6827,0.13579349,0.14160106,0.450079,2147483647,0.0,0.0
113197506,-0.0019309939,-0.0024596641,-0.0032607894,0.003995,0,1.1142842,-0.503036,-9.618172,0.003995,-1223,0.14447609,0.13970412,0.4448484,2147483647,0.0,0.0
113201511,-0.0027708372,-0.002551668,-0.0027082963,0.004005,0,1.0970623,-0.48766592,-9.602828,0.004005,-5228,0.14447609,0.13970412,0.4448484,2147483647,0.0,0.0
113205507,-0.0020482354,-0.0025824509,-0.0038950592,0.003996,0,1.0988162,-0.47531107,-9.611024,0.003996,-9224,0.14447609,0.13970412,0.4448484,2147483647,0.0,0.0
113209507,-0.0019219782,-0.0015970065,-0.00285785,0.004,0,1.0992115,-0.47863135,-9.626774,0.004,-3623,0.12309765,0.15345164,0.4313288,2147483647,0.0,0.0
113213507,-0.0016819531,-0.00092171866,-0.0014969729,0.004,0,1.1021549,-0.48973584,-9.635762,0.004,-7623,0.12309765,0.15345164,0.4313288,2147483647,0.0,0.0
113217507,-0.0026694718,-0.0011741263,-0.002959819,0.004,0,1.109073,-0.489193,-9.6151085,0.004,-1224,0.12861916,0.14847481,0.44324633,2147483647,0.0,0.0
113221549,-0.001926911,-0.0022555192,-0.0034885765,0.004042,0,1.116295,-0.49209252,-9.616833,0.004042,-5266,0.12861916,0.14847481,0.44324633,2147483647,0.0,0.0
113225507,-0.0019402829,-0.0025683262,-0.003359704,0.003958,0,1.110998,-0.48162866,-9.623396,0.003958,-9224,0.12861916,0.14847481,0.44324633,2147483647,0.0,0.0
113229507,-0.0015045345,-0.0033095507,-0.0032472932,0.004,0,1.1106229,-0.49094278,-9.644921,0.004,-3622,0.13213211,0.15200095,0.4430809,2147483647,0.0,0.0
113233507,-0.0017173386,-0.0025656503,-0.0032624314,0.004,0,1.1111087,-0.49473244,-9.632996,0.004,-7622,0.13213211,0.15200095,0.4430809,2147483647,0.0,0.0
113238307,-0.0013832876,-0.0023246408,-0.004251767,0.0047999998,0,1.1018765,-0.4898945,-9.606768,0.0047999998,-2024,0.12848032,0.14477019,0.4365459,2147483647,0.0,0.0
113242307,-0.001526846,-0.0025936004,-0.004330457,0.004,0,1.1098638,-0.48143613,-9.62337,0.004,-6024,0.12848032,0.14477019,0.4365459,2147483647,0.0,0.0
113246307,-0.00013126485,-0.0025768704,-0.0037225257,0.004,0,1.1153622,-0.4901175,-9.613552,0.004,-10024,0.12848032,0.14477019,0.4365459,2147483647,0.0,0.0
113250307,-0.0009772185,-0.002571241,-0.0034905826,0.004,0,1.1122203,-0.4912791,-9.602575,0.004,-14024,0.12848032,0.14477019,0.4365459,2147483647,0.0,0.0
113254307,-0.0006415831,-0.0018043038,-0.0026653057,0.004,0,1.1034411,-0.48751813,-9.597046,0.004,-18024,0.12848032,0.14477019,0.4365459,2147483647,0.0,0.0
113258307,-0.0006627059,-0.0020454233,-0.0037233464,0.004,0,1.1017624,-0.4909547,-9.60828,0.004,-1190,0.12682557,0.15019326,0.4415382,2147483647,0.0,0.0
113262307,-0.0010820824,-0.002568447,-0.0033821366,0.004,0,1.0987347,-0.4916798,-9.626903,0.004,-5190,0.12682557,0.15019326,0.4415382,2147483647,0.0,0.0
113266307,-0.0016980607,-0.0020085764,-0.0023192673,0.004,0,1.1130022,-0.4882474,-9.634383,0.004,-9190,0.12682557,0.15019326,0.4415382,2147483647,0.0,0.0
113270311,-0.001489694,-0.0022241978,-0.0024245877,0.004004,0,1.1049236,-0.49798465,-9.618596,0.004004,-2028,0.12179864,0.1522687,0.453489,2147483647,0.0,0.0
113274306,-0.0012915689,-0.002885074,-0.00326286,0.003995,0,1.1024567,-0.4969564,-9.643889,0.003995,-6023,0.12179864,0.1522687,0.453489,2147483647,0.0,0.0
113278307,-0.0011662138,-0.0017974952,-0.0023374043,0.004001,0,1.1019735,-0.49085274,-9.631981,0.004001,-423,0.1092589,0.13608874,0.4422728,2147483647,0.0,0.0
113282307,-0.001182856,-0.0035189593,-0.0031406446,0.004,0,1.1088152,-0.4875253,-9.616095,0.004,-4423,0.1092589,0.13608874,0.4422728,2147483647,0.0,0.0
113286307,-0.001692691,-0.0030671207,-0.0020792685,0.004,0,1.106139,-0.4846686,-9.617523,0.004,-8423,0.1092589,0.13608874,0.4422728,2147483647,0.0,0.0
113290307,-0.00020830799,-0.002540492,-0.0023357605,0.004,0,1.1157721,-0.4682147,-9.616746,0.004,-2024,0.12682557,0.15019326,0.4415382,2147483647,0.0,0.0
113294306,-0.0010612995,-0.0027571756,-0.0024189271,0.003999,0,1.12848,-0.46463013,-9.618514,0.003999,-6023,0.12682557,0.15019326,0.4415382,2147483647,0.0,0.0
113298307,-0.0011894406,-0.0036350952,-0.003458313,0.004001,0,1.1312723,-0.48497653,-9.611655,0.004001,-423,0.12482661,0.14106558,0.42991826,2147483647,0.0,0.0
113302307,-0.0011699062,-0.0030772334,-0.0025156278,0.004,0,1.1138449,-0.5092839,-9.617282,0.004,-4423,0.12482661,0.14106558,0.42991826,2147483647,0.0,0.0
113306307,-0.0011987765,-0.0025823498,-0.0039089643,0.004,0,1.1204712,-0.50525546,-9.609974,0.004,-8423,0.12482661,0.14106558,0.42991826,2147483647,0.0,0.0
113310332,-0.0013989728,-0.002889702,-0.0033664652,0.004025,0,1.1263609,-0.5151155,-9.628792,0.004025,-2849,0.13372608,0.128858,0.43515512,2147483647,0.0,0.0
113314307,-0.001954172,-0.0025908696,-0.0042177406,0.0039749998,0,1.1070307,-0.49872023,-9.628776,0.0039749998,-6824,0.13372608,0.128858,0.43515512,2147483647,0.0,0.0
113318306,-0.0012949465,-0.0020360143,-0.00339254,0.003999,0,1.1014781,-0.49065062,-9.633375,0.003999,-422,0.13565466,0.13789643,0.4433785,2147483647,0.0,0.0
113322307,-0.0011099736,-0.0020727026,-0.0047782045,0.004001,0,1.0989664,-0.4840151,-9.63846,0.004001,-4423,0.13565466,0.13789643,0.4433785,2147483647,0.0,0.0
113326306,-0.0017146228,-0.0028828345,-0.0031505728,0.003999,0,1.1022029,-0.49575827,-9.644384,0.003999,-8422,0.13565466,0.13789643,0.4433785,2147483647,0.0,0.0
113330307,-0.00075998035,-0.0023529467,-0.0032883906,0.004001,0,1.100233,-0.4973866,-9.623482,0.004001,-1188,0.13565466,0.13789643,0.4433785,2147483647,0.0,0.0
113334307,-0.0011791543,-0.0020254753,-0.0029683304,0.004,0,1.0971265,-0.49061227,-9.6228695,0.004,-5188,0.13565466,0.13789643,0.4433785,2147483647,0.0,0.0
113338307,-0.0014185122,-0.0018462334,-0.0042457273,0.004,0,1.1120204,-0.49207184,-9.623611,0.004,-9188,0.13565466,0.13789643,0.4433785,2147483647,0.0,0.0
113342307,-0.001734338,-0.0028000046,-0.0041085705,0.004,0,1.097613,-0.4827861,-9.610306,0.004,-3623,0.14253788,0.14829633,0.43616197,2147483647,0.0,0.0
113346307,-0.0017203321,-0.0016111134,-0.0033940654,0.004,0,1.086917,-0.4745656,-9.628045,0.004,-7623,0.14253788,0.14829633,0.43616197,2147483647,0.0,0.0
113350307,-0.0017102152,-0.0014906836,-0.0028672933,0.004,0,1.0928532,-0.4968564,-9.631382,0.004,-2023,0.12166172,0.14503792,0.44688118,2147483647,0.0,0.0
113354307,-0.0027775443,-0.0012767862,-0.0029548823,0.004,0,1.1145221,-0.49299395,-9.630258,0.004,-6023,0.12166172,0.14503792,0.44688118,2147483647,0.0,0.0
113358307,-0.0014893941,-0.0012679854,-0.0025552155,0.004,0,1.1109567,-0.48755997,-9.617078,0.004,-10023,0.12166172,0.14503792,0.44688118,2147483647,0.0,0.0
113362307,-0.0019287005,-0.0013924827,-0.0031822617,0.004,0,1.0998604,-0.49188557,-9.607036,0.004,-3623,0.12331838,0.13608874,0.4419815,2147483647,0.0,0.0
113366306,-0.0013878735,-0.0014878067,-0.002764506,0.003999,0,1.094743,-0.48460242,-9.587006,0.003999,-7622,0.12331838,0.13608874,0.4419815,2147483647,0.0,0.0
113371108,-0.0023998409,-0.0014691928,-0.002034777,0.004802,0,1.0965824,-0.48372304,-9.600322,0.004802,-2825,0.11786341,0.14820708,0.43327522,2147483647,0.0,0.0
113375108,-0.0019075422,-0.0007267588,-0.002135511,0.004,0,1.1034313,-0.4984534,-9.608833,0.004,-6825,0.11786341,0.14820708,0.43327522,2147483647,0.0,0.0
113379108,-0.002356179,-0.0015018005,-0.003277146,0.004,0,1.1021845,-0.49173975,-9.610869,0.004,-1225,0.12669057,0.13943638,0.43502295,2147483647,0.0,0.0
113383108,-0.0024476396,-0.0020134663,-0.0025153721,0.004,0,1.1009057,-0.495784,-9.626378,0.004,-5225,0.12669057,0.13943638,0.43502295,2147483647,0.0,0.0
113387108,-0.0020343293,-0.0035196436,-0.0031236461,0.004,0,1.1026722,-0.49252138,-9.622238,0.004,-9225,0.12669057,0.13943638,0.43502295,2147483647,0.0,0.0
113391108,-0.0019157052,-0.0019062907,-0.0025294784,0.004,0,1.1070782,-0.47696763,-9.618693,0.004,-2824,0.11966083,0.13943638,0.43516862,2147483647,0.0,0.0
113395108,-0.0021282046,-0.0012693369,-0.0025427411,0.004,0,1.1039709,-0.48708862,-9.617661,0.004,-6824,0.11966083,0.13943638,0.43516862,2147483647,0.0,0.0
113399108,-0.0021225626,-0.0009421909,-0.0022318757,0.004,0,1.1077507,-0.48234043,-9.620939,0.004,-1224,0.12145634,0.13419183,0.4369694,2147483647,0.0,0.0
113403108,-0.0007534864,-0.0019188307,-0.00298022,0.004,0,1.105817,-0.48549896,-9.621523,0.004,-5224,0.12145634,0.13419183,0.4369694,2147483647,0.0,0.0
113407108,-0.0019205015,-0.00244648,-0.0027286785,0.004,0,1.1189902,-0.5021879,-9.612598,0.004,-9224,0.12145634,0.13419183,0.4369694,2147483647,0.0,0.0
113411108,-0.00095099583,-0.0028572595,-0.0022058326,0.004,0,1.1219887,-0.4965118,-9.607138,0.004,-1183,0.12145634,0.13419183,0.4369694,2147483647,0.0,0.0
113415108,-0.0009346687,-0.003476511,-0.0014434644,0.004,0,1.1263329,-0.49506825,-9.618165,0.004,-5183,0.12145634,0.13419183,0.4369694,2147483647,0.0,0.0
113419108,-0.0010696668,-0.003618306,-0.002821603,0.004,0,1.116276,-0.4976654,-9.615744,0.004,-9183,0.12145634,0.13419183,0.4369694,2147483647,0.0,0.0
113423108,-0.0021580511,-0.003436454,-0.00397672,0.004,0,1.1051573,-0.52699363,-9.618288,0.004,-2777,0.13895455,0.14468095,0.43293083,2147483647,0.0,0.0
113427108,-0.0019461503,-0.0029069202,-0.0041015083,0.004,0,1.1006954,-0.5179198,-9.613473,0.004,-6777,0.13895455,0.14468095,0.43293083,2147483647,0.0,0.0
113431109,-0.0027698698,-0.0030839788,-0.002693661,0.004001,0,1.1049101,-0.50228655,-9.607579,0.004001,-1225,0.135297,0.14802858,0.426118,2147483647,0.0,0.0
113435108,-0.001504828,-0.0026719302,-0.0032640425,0.003999,0,1.1054941,-0.48932514,-9.601774,0.003999,-5224,0.135297,0.14802858,0.426118,2147483647,0.0,0.0
113439108,-0.0015080373,-0.0027841488,-0.003474122,0.004,0,1.0972431,-0.4901625,-9.605608,0.004,-9224,0.135297,0.14802858,0.426118,2147483647,0.0,0.0
113443108,-0.0012029476,-0.0031196657,-0.0041102525,0.004,0,1.1094377,-0.5050968,-9.63221,0.004,-3622,0.125032,0.1519117,0.43983003,2147483647,0.0,0.0
113447108,-0.0009766833,-0.0033170055,-0.0034711312,0.004,0,1.1034049,-0.4954424,-9.632559,0.004,-7622,0.125032,0.1519117,0.43983003,2147483647,0.0,0.0
113451109,-0.0014046773,-0.0031059599,-0.0035742137,0.004001,0,1.1008394,-0.49168926,-9.6179495,0.004001,-1225,0.12510237,0.15200095,0.44322655,2147483647,0.0,0.0
113455107,-0.0017173386,-0.0025656521,-0.0032624302,0.003998,0,1.0963426,-0.492867,-9.617379,0.003998,-5223,0.12510237,0.15200095,0.44322655,2147483647,0.0,0.0
113459108,-0.0011860132,-0.0018208747,-0.0032930104,0.004001,0,1.0969324,-0.4912261,-9.655507,0.004001,-9224,0.12510237,0.15200095,0.44322655,2147483647,0.0,0.0
113463108,-0.00043288065,-0.0024471886,-0.00286743,0.004,0,1.0865283,-0.48497576,-9.647175,0.004,-3623,0.12007927,0.14702411,0.45536262,2147483647,0.0,0.0
113467108,-0.0018244028,-0.0025656493,-0.0032602136,0.004,0,1.0721492,-0.49275163,-9.621106,0.004,-7623,0.12007927,0.14702411,0.45536262,2147483647,0.0,0.0
113471108,-0.001716934,-0.0033114129,-0.0032428426,0.004,0,1.0965976,-0.48267508,-9.615027,0.004,-1199,0.12331646,0.13961488,0.44188887,2147483647,0.0,0.0
113475108,-0.0019141302,-0.0036099397,-0.0024855447,0.004,0,1.099004,-0.48457265,-9.613606,0.004,-5199,0.12331646,0.13961488,0.44188887,2147483647,0.0,0.0
113479108,-0.0017013089,-0.0033970303,-0.0024952814,0.004,0,1.1068923,-0.47956187,-9.616261,0.004,-9199,0.12331646,0.13961488,0.44188887,2147483647,0.0,0.0
113483108,-0.0029989546,-0.0027841467,-0.00344323,0.004,0,1.1134601,-0.46827856,-9.600835,0.004,-3624,0.12868762,0.15209019,0.4465503,2147483647,0.0,0.0
113487108,-0.0010933346,-0.0036518602,-0.0040985374,0.004,0,1.1038072,-0.47699744,-9.601132,0.004,-7624,0.12868762,0.15209019,0.4465503,2147483647,0.0,0.0
113491108,-0.0019306218,-0.0036295035,-0.0032300584,0.004,0,1.0866942,-0.4877156,-9.604046,0.004,-11624,0.12868762,0.15209019,0.4465503,2147483647,0.0,0.0
113495108,-0.00021522587,-0.0038279826,-0.0027209257,0.004,0,1.0940757,-0.47730008,-9.592388,0.004,-15624,0.12868762,0.15209019,0.4465503,2147483647,0.0,0.0
113499109,-0.0016206162,-0.003643487,-0.0037689228,0.004001,0,1.1088032,-0.4752251,-9.616649,0.004001,-19625,0.12868762,0.15209019,0.4465503,2147483647,0.0,0.0
113503108,-0.0006589621,-0.0028919086,-0.0035939824,0.003999,0,1.1205106,-0.49525937,-9.643596,0.003999,-2824,0.12518042,0.13798568,0.44699356,2147483647,0.0,0.0
113507909,-0.0017170459,-0.0031863253,-0.0032461274,0.004801,0,1.1136726,-0.49385512,-9.627221,0.004801,-7625,0.12518042,0.13798568,0.44699356,2147483647,0.0,0.0
113511907,-0.0017068464,-0.0025516686,-0.002730343,0.003998,0,1.1212991,-0.4994564,-9.6288185,0.003998,-1223,0.13228056,0.13807493,0.45024443,2147483647,0.0,0.0
113515901,-0.001487471,-0.0028621182,-0.002407071,0.003994,0,1.1090928,-0.48835662,-9.638079,0.003994,-5217,0.13228056,0.13807493,0.45024443,2147483647,0.0,0.0
113519907,-0.001908137,-0.0030716716,-0.00228855,0.004006,0,1.1017025,-0.49786732,-9.633457,0.004006,-9223,0.13228056,0.13807493,0.45024443,2147483647,0.0,0.0
113523901,-0.0014938017,-0.0034032403,-0.0027126465,0.003994,0,1.1159747,-0.5019019,-9.630055,0.003994,-3617,0.11456351,0.14142255,0.44372287,2147483647,0.0,0.0
113527907,-0.0021202369,-0.003067638,-0.0021760773,0.004006,0,1.116753,-0.5094,-9.639802,0.004006,-7623,0.11456351,0.14142255,0.44372287,2147483647,0.0,0.0
113531906,-0.0012816198,-0.0028720903,-0.0027302022,0.003999,0,1.104823,-0.5068739,-9.634685,0.003999,-419,0.12690555,0.13265187,0.4453978,2147483647,0.0,0.0
113535917,-0.0017189968,-0.0017150453,-0.0032847472,0.004011,0,1.1272062,-0.49627355,-9.6458235,0.004011,-4430,0.12690555,0.13265187,0.4453978,2147483647,0.0,0.0
113539901,-0.001503952,-0.002565651,-0.0032668528,0.003984,0,1.1292708,-0.50292265,-9.650191,0.003984,-8414,0.12690555,0.13265187,0.4453978,2147483647,0.0,0.0
113543906,-0.0026647504,-0.0020207048,-0.0027256422,0.004005,0,1.1050477,-0.516462,-9.659737,0.004005,-3622,0.12675902,0.14305176,0.43832687,2147483647,0.0,0.0
113547901,-0.0012905279,-0.0017120346,-0.003186956,0.003995,0,1.0863485,-0.49005803,-9.656025,0.003995,-7617,0.12675902,0.14305176,0.43832687,2147483647,0.0,0.0
113551907,-0.0011750704,-0.0017002976,-0.0027647945,0.004006,0,1.0803121,-0.4896753,-9.6332245,0.004006,-423,0.12318146,0.128858,0.4353736,2147483647,0.0,0.0
113555900,-0.0013762126,-0.001793966,-0.0022249618,0.003993,0,1.0988165,-0.4895512,-9.610625,0.003993,-4416,0.12318146,0.128858,0.4353736,2147483647,0.0,0.0
113559907,-0.0016967853,-0.0020048495,-0.0022127759,0.004007,0,1.0904738,-0.50158703,-9.609901,0.004007,-8423,0.12318146,0.128858,0.4353736,2147483647,0.0,0.0
113563901,-0.00041845633,-0.0025377038,-0.0022252644,0.003994,0,1.0890573,-0.51669526,-9.594798,0.003994,-2784,0.12841569,0.13410258,0.43342716,2147483647,0.0,0.0
113567907,-0.0009664939,-0.0025572386,-0.0029576493,0.004006,0,1.0711468,-0.50139946,-9.600272,0.004006,-6790,0.12841569,0.13410258,0.43342716,2147483647,0.0,0.0
113571904,-0.00084618095,-0.0021146494,-0.0023344795,0.003997,0,1.0949732,-0.50351286,-9.599052,0.003997,-419,0.12841569,0.13410258,0.43342716,2147483647,0.0,0.0
113575906,-0.0012680882,-0.0025348833,-0.0021002404,0.004002,0,1.088003,-0.51113117,-9.621894,0.004002,-4421,0.12841569,0.13410258,0.43342716,2147483647,0.0,0.0
113579901,-0.0017122763,-0.0025600744,-0.0030502537,0.003995,0,1.1061517,-0.5077021,-9.63892,0.003995,-8416,0.12841569,0.13410258,0.43342716,2147483647,0.0,0.0
113583907,-0.0012916289,-0.0018192603,-0.0031837446,0.004006,0,1.1258547,-0.50398195,-9.617477,0.004006,-1992,0.12518235,0.13445956,0.4470862,2147483647,0.0,0.0
113587905,-0.0008555522,-0.0014875641,-0.002776475,0.003998,0,1.1129708,-0.5012112,-9.61274,0.003998,-5990,0.12518235,0.13445956,0.4470862,2147483647,0.0,0.0
113591906,-0.0014876227,-0.0025432892,-0.0024157392,0.004001,0,1.1137024,-0.49878377,-9.6123495,0.004001,-422,0.1321398,0.13789643,0.44345134,2147483647,0.0,0.0
113595901,-0.0021428019,-0.0025656507,-0.0032536155,0.003995,0,1.108211,-0.47947347,-9.62173,0.003995,-4417,0.1321398,0.13789643,0.44345134,2147483647,0.0,0.0
113599907,-0.0017292887,-0.0027920576,-0.003787844,0.004006,0,1.0919611,-0.47164255,-9.6178255,0.004006,-8423,0.1321398,0.13789643,0.44345134,2147483647,0.0,0.0
113603901,-0.0011698056,-0.0032895396,-0.0025106645,0.003994,0,1.0923828,-0.4757054,-9.607549,0.003994,-2784,0.1179453,0.12713957,0.43722746,2147483647,0.0,0.0
113607906,-0.0011828119,-0.0036266919,-0.0031384819,0.004005,0,1.0968225,-0.49720573,-9.62647,0.004005,-6789,0.1179453,0.12713957,0.43722746,2147483647,0.0,0.0
113611901,-0.001929025,-0.0036295024,-0.0032300928,0.003995,0,1.099041,-0.50945944,-9.623363,0.003995,-415,0.12145826,0.1306657,0.43706203,2147483647,0.0,0.0
113615906,-0.0007484381,-0.003291992,-0.0025184497,0.004005,0,1.0892133,-0.49758157,-9.646102,0.004005,-4420,0.12145826,0.1306657,0.43706203,2147483647,0.0,0.0
113619909,-0.0010549264,-0.0033886791,-0.0021897173,0.004003,0,1.1106919,-0.50403035,-9.6285095,0.004003,-8423,0.12145826,0.1306657,0.43706203,2147483647,0.0,0.0
113623907,-0.0006509745,-0.0028821782,-0.0031699413,0.003998,0,1.1185095,-0.4981164,-9.624059,0.003998,-2023,0.12683517,0.13256262,0.44200125,2147483647,0.0,0.0
113627901,-0.0016113245,-0.0035229593,-0.0032394729,0.003994,0,1.1060196,-0.49359006,-9.63528,0.003994,-6017,0.12683517,0.13256262,0.44200125,2147483647,0.0,0.0
113631907,-0.00066977076,-0.002693026,-0.004025843,0.004006,0,1.092787,-0.5008354,-9.635047,0.004006,-423,0.118076466,0.14494868,0.44355744,2147483647,0.0,0.0
113635901,-0.0006544713,-0.0024591074,-0.0032872534,0.003994,0,1.0981697,-0.5022383,-9.642216,0.003994,-4417,0.118076466,0.14494868,0.44355744,2147483647,0.0,0.0
113640743,-0.00091172993,-0.0021976284,-0.0026651244,0.004842,0,1.1086462,-0.50137603,-9.645843,0.004842,-9259,0.118076466,0.14494868,0.44355744,2147483647,0.0,0.0
113644706,-0.0014913216,-0.0029821396,-0.0029388482,0.003963,0,1.10221,-0.5005709,-9.643755,0.003963,-2822,0.12661636,0.1463994,0.4314412,2147483647,0.0,0.0
113648716,-0.0024415299,-0.0030705573,-0.0021693448,0.00401,0,1.1091176,-0.48992372,-9.624556,0.00401,-6832,0.12661636,0.1463994,0.4314412,2147483647,0.0,0.0
113652707,-0.0010535578,-0.002855316,-0.0022037572,0.003991,0,1.1096427,-0.49469855,-9.6223135,0.003991,-1223,0.11829528,0.13111192,0.4541175,2147483647,0.0,0.0
113656707,-0.0010571706,-0.0025377034,-0.00221203,0.004,0,1.1024281,-0.51241153,-9.634239,0.004,-5223,0.11829528,0.13111192,0.4541175,2147483647,0.0,0.0
113660707,-0.00074254395,-0.0029684275,-0.0024199293,0.004,0,1.0940934,-0.5003413,-9.606707,0.004,-9223,0.11829528,0.13111192,0.4541175,2147483647,0.0,0.0
113664707,-0.0021251598,-0.0032879876,-0.0023830151,0.004,0,1.1083221,-0.49533594,-9.628179,0.004,-13223,0.11829528,0.13111192,0.4541175,2147483647,0.0,0.0
113668707,-0.0015017116,-0.0023487569,-0.0030597695,0.004,0,1.0964478,-0.51072824,-9.644342,0.004,-17223,0.11829528,0.13111192,0.4541175,2147483647,0.0,0.0
113672706,-0.002977407,-0.0016923927,-0.002407201,0.003999,0,1.1048592,-0.50288534,-9.621052,0.003999,-21222,0.11829528,0.13111192,0.4541175,2147483647,0.0,0.0
113676707,-0.0015160316,-0.002047426,-0.0038123599,0.004001,0,1.0993565,-0.48539916,-9.608381,0.004001,-3590,0.1147785,0.13463806,0.45409772,2147483647,0.0,0.0
113680710,-0.0020586203,-0.0028064756,-0.0043138457,0.004003,0,1.0977447,-0.48174575,-9.616493,0.004003,-7593,0.1147785,0.13463806,0.45409772,2147483647,0.0,0.0
113684707,-0.0012074739,-0.0029123267,-0.004328704,0.003997,0,1.1047091,-0.49528262,-9.616746,0.003997,-1223,0.1162125,0.1465779,0.43845275,2147483647,0.0,0.0
113688707,-0.0017249039,-0.0020425087,-0.0035954646,0.004,0,1.1019312,-0.5058324,-9.623032,0.004,-5223,0.1162125,0.1465779,0.43845275,2147483647,0.0,0.0
113692707,-0.00118594,-0.0017144347,-0.0032958088,0.004,0,1.1070043,-0.49844894,-9.645109,0.004,-9223,0.1162125,0.1465779,0.43845275,2147483647,0.0,0.0
113696706,-0.0015063287,-0.0030946531,-0.0032529018,0.003999,0,1.1047941,-0.49535155,-9.64801,0.003999,-3589,0.12834723,0.1304872,0.43012327,2147483647,0.0,0.0
113700707,-0.0013870893,-0.0020196128,-0.0027510826,0.004001,0,1.0936648,-0.4936375,-9.627693,0.004001,-7590,0.12834723,0.1304872,0.43012327,2147483647,0.0,0.0
113704707,-0.0015050945,-0.002033859,-0.003280802,0.004,0,1.1026212,-0.49138027,-9.624617,0.004,-1202,0.14088315,0.15371938,0.44115427,2147483647,0.0,0.0
113708707,-0.001935275,-0.0017200238,-0.0034930974,0.004,0,1.124435,-0.48228103,-9.628153,0.004,-5202,0.14088315,0.15371938,0.44115427,2147483647,0.0,0.0
113712707,-0.0017180037,-0.0025656521,-0.0032624162,0.004,0,1.1166794,-0.4762591,-9.6196165,0.004,-423,0.12848032,0.14477019,0.4365459,2147483647,0.0,0.0
113716707,-0.0018998408,-0.0019944676,-0.0017830504,0.004,0,1.1109349,-0.48577127,-9.641266,0.004,-4423,0.12848032,0.14477019,0.4365459,2147483647,0.0,0.0
113720710,-0.0014822456,-0.003069908,-0.0021896353,0.004003,0,1.1277744,-0.50201255,-9.652784,0.004003,-8426,0.12848032,0.14477019,0.4365459,2147483647,0.0,0.0
113724706,-0.0017065454,-0.0028703571,-0.0027223758,0.003996,0,1.1202198,-0.49379182,-9.634144,0.003996,-1223,0.13564889,0.14847481,0.44310066,2147483647,0.0,0.0
113728706,-0.0005631589,-0.0023727152,-0.0040369187,0.004,0,1.1089141,-0.49851775,-9.611317,0.004,-5223,0.13564889,0.14847481,0.44310066,2147483647,0.0,0.0
113732717,-0.0010641682,-0.0019067574,-0.002548492,0.004011,0,1.0935353,-0.4941018,-9.599269,0.004011,-433,0.12876952,0.13102268,0.45050249,2147483647,0.0,0.0
113736707,-0.001723279,-0.002467131,-0.0034782598,0.00399,0,1.0891465,-0.50781745,-9.623973,0.00399,-4423,0.12876952,0.13102268,0.45050249,2147483647,0.0,0.0
113740727,-0.0027900422,-0.0038576666,-0.0037373384,0.00402,0,1.0988739,-0.5033424,-9.620181,0.00402,-8443,0.12876952,0.13102268,0.45050249,2147483647,0.0,0.0
113744707,-0.0024581405,-0.003725867,-0.0030028317,0.00398,0,1.1027901,-0.5029952,-9.615837,0.00398,-1223,0.12876952,0.13102268,0.45050249,2147483647,0.0,0.0
113748706,-0.0017941074,-0.001781638,-0.0017904582,0.003999,0,1.1085263,-0.49586162,-9.629828,0.003999,-5222,0.12876952,0.13102268,0.45050249,2147483647,0.0,0.0
113752706,-0.00107676,-0.002030925,-0.0031831414,0.004,0,1.1146567,-0.50361997,-9.612482,0.004,-9222,0.12876952,0.13102268,0.45050249,2147483647,0.0,0.0
113756707,-0.0017222665,-0.0025712266,-0.003474559,0.004001,0,1.1189482,-0.4937645,-9.614474,0.004001,-3590,0.124828525,0.13753946,0.43001086,2147483647,0.0,0.0
113760707,-0.001713067,-0.0025600635,-0.0030498377,0.004,0,1.1110591,-0.4862154,-9.612148,0.004,-7590,0.124828525,0.13753946,0.43001086,2147483647,0.0,0.0
113764707,-0.0014933784,-0.0032963722,-0.0027153292,0.004,0,1.1169397,-0.48897523,-9.606994,0.004,-379,0.11822298,0.13454881,0.45062837,2147483647,0.0,0.0
113768707,-0.0011743028,-0.0030837397,-0.002727796,0.004,0,1.1078031,-0.4818518,-9.629944,0.004,-4379,0.11822298,0.13454881,0.45062837,2147483647,0.0,0.0
113772707,-0.00085109903,-0.0023334513,-0.0025411106,0.004,0,1.1155605,-0.49553436,-9.626915,0.004,-8379,0.11822298,0.13454881,0.45062837,2147483647,0.0,0.0
113777507,-0.0024152882,-0.002108573,-0.0028141988,0.0047999998,0,1.1039681,-0.4961785,-9.623048,0.0047999998,-4389,0.13580117,0.12749656,0.45044944,2147483647,0.0,0.0
113781507,-0.0015005283,-0.0025600595,-0.0030539737,0.004,0,1.091462,-0.5020766,-9.617724,0.004,-8389,0.13580117,0.12749656,0.45044944,2147483647,0.0,0.0
113785507,-0.0011854933,-0.0027784216,-0.003267861,0.004,0,1.0989455,-0.50651026,-9.6395235,0.004,-1223,0.13551198,0.14124407,0.43649286,2147483647,0.0,0.0
113789507,-0.0013989735,-0.0029901278,-0.0032578756,0.004,0,1.1180338,-0.5018619,-9.646897,0.004,-5223,0.13551198,0.14124407,0.43649286,2147483647,0.0,0.0
113793507,-0.0020368022,-0.0025656517,-0.0032558108,0.004,0,1.1339549,-0.49900576,-9.6212845,0.004,-9223,0.13551198,0.14124407,0.43649286,2147483647,0.0,0.0
113797507,-0.0013994939,-0.002033059,-0.0032830122,0.004,0,1.1223375,-0.49826,-9.601412,0.004,-2823,0.12152288,0.14133331,0.4401807,2147483647,0.0,0.0
113801507,-0.002037266,-0.0017128409,-0.0032782096,0.004,0,1.1147261,-0.49095213,-9.598125,0.004,-6823,0.12152288,0.14133331,0.4401807,2147483647,0.0,0.0
113805506,-0.0009888492,-0.001094895,-0.004060796,0.003999,0,1.1107659,-0.4985184,-9.592676,0.003999,-2022,0.11283648,0.1502825,0.44522607,2147483647,0.0,0.0
113809507,-0.0022492553,-0.0032035375,-0.0032346474,0.004001,0,1.1074531,-0.5162759,-9.624187,0.004001,-6023,0.11283648,0.1502825,0.44522607,2147483647,0.0,0.0
113813507,-0.002243106,-0.0023450314,-0.0029380228,0.004,0,1.1173627,-0.50584114,-9.632817,0.004,-390,0.12865819,0.14146718,0.44512984,2147483647,0.0,0.0
113817507,-0.0020410365,-0.0028902644,-0.0034601565,0.004,0,1.1068068,-0.4891345,-9.621436,0.004,-2823,0.12841186,0.14115483,0.43324193,2147483647,0.0,0.0
113821507,-0.001932097,-0.0018253642,-0.0033847129,0.004,0,1.1006174,-0.49067506,-9.616547,0.004,-6823,0.12841186,0.14115483,0.43324193,2147483647,0.0,0.0
113825507,-0.000780096,-0.0023780353,-0.0042451136,0.004,0,1.1006734,-0.49014032,-9.614196,0.004,-390,0.12841186,0.14115483,0.43324193,2147483647,0.0,0.0
113829554,-0.0016047339,-0.0020144135,-0.002638703,0.004047,0,1.1076643,-0.49489802,-9.58215,0.004047,-4437,0.12841186,0.14115483,0.43324193,2147483647,0.0,0.0
113833507,-0.00094511465,-0.0017003029,-0.0026611479,0.003953,0,1.1047068,-0.4899709,-9.603239,0.003953,-8390,0.12841186,0.14115483,0.43324193,2147483647,0.0,0.0
113837517,-0.001390117,-0.0023372604,-0.0027408157,0.00401,0,1.1072139,-0.4979032,-9.622934,0.00401,-2834,0.13207133,0.13428107,0.44014743,2147483647,0.0,0.0
113841507,-0.00096989516,-0.0019228254,-0.0031887272,0.00399,0,1.1030856,-0.5121718,-9.625494,0.00399,-6824,0.13207133,0.13428107,0.44014743,2147483647,0.0,0.0
113845525,-0.0018369375,-0.0022617187,-0.003798624,0.004018,0,1.1071385,-0.49713394,-9.650909,0.004018,-1242,0.124967374,0.14124407,0.43671134,2147483647,0.0,0.0
113849507,-0.0015030389,-0.0033094408,-0.003247327,0.003982,0,1.1189346,-0.50588,-9.662614,0.003982,-5224,0.124967374,0.14124407,0.43671134,2147483647,0.0,0.0
113853507,-0.002130638,-0.002551743,-0.0027243542,0.004,0,1.1206993,-0.49044323,-9.634941,0.004,-9224,0.124967374,0.14124407,0.43671134,2147483647,0.0,0.0
113857507,-0.0012890805,-0.0027713696,-0.0030529369,0.004,0,1.1214516,-0.5054619,-9.609745,0.004,-2823,0.1425398,0.14477019,0.4362546,2147483647,0.0,0.0
113861507,-0.0021194753,-0.0022165528,-0.0021984554,0.004,0,1.1204617,-0.5114368,-9.599408,0.004,-6823,0.1425398,0.14477019,0.4362546,2147483647,0.0,0.0
113865507,-0.001289804,-0.0025628568,-0.0031648814,0.004,0,1.1238605,-0.47883013,-9.5979395,0.004,-1223,0.11450465,0.120176554,0.44088203,2147483647,0.0,0.0
113869510,-0.0016007468,-0.0030874992,-0.0028265913,0.004003,0,1.1185898,-0.48261374,-9.5854435,0.004003,-5226,0.11450465,0.120176554,0.44088203,2147483647,0.0,0.0
113873507,-0.0017105041,-0.0036295026,-0.0032346214,0.003997,0,1.1221416,-0.4938695,-9.6009,0.003997,-9223,0.11450465,0.120176554,0.44088203,2147483647,0.0,0.0
113877507,-0.0020150407,-0.0033907837,-0.0022762464,0.004,0,1.1120956,-0.49464297,-9.620228,0.004,-2824,0.14254172,0.14124407,0.4363472,2147483647,0.0,0.0
113881507,-0.0010752644,-0.0027755867,-0.0031622748,0.004,0,1.1250452,-0.5002528,-9.632429,0.004,-6824,0.14254172,0.14124407,0.4363472,2147483647,0.0,0.0
113885507,-0.0014996607,-0.0041549075,-0.0030120856,0.004,0,1.1047956,-0.4855198,-9.658655,0.004,-390,0.12668481,0.15001476,0.43474513,2147483647,0.0,0.0
113889506,-0.0017327024,-0.0026916196,-0.0040039625,0.003999,0,1.0989829,-0.49383876,-9.626142,0.003999,-4389,0.12668481,0.15001476,0.43474513,2147483647,0.0,0.0
113893507,-0.0017231496,-0.0035313778,-0.0035556336,0.004001,0,1.0944726,-0.49328864,-9.623462,0.004001,-8390,0.12668481,0.15001476,0.43474513,2147483647,0.0,0.0
113897507,-0.0021317222,-0.0034026294,-0.002699578,0.004,0,1.1010631,-0.5027033,-9.641799,0.004,-2824,0.12503392,0.14838557,0.43992266,2147483647,0.0,0.0
113902307,-0.0014620783,-0.003028228,-0.0037038976,0.0047999998,0,1.1180109,-0.49475497,-9.630486,0.0047999998,-7624,0.12503392,0.14838557,0.43992266,2147483647,0.0,0.0
113906307,-0.0011665864,-0.0010511086,-0.0023554382,0.004,0,1.1307489,-0.49294406,-9.601971,0.004,-11624,0.12503392,0.14838557,0.43992266,2147483647,0.0,0.0
113910307,-0.0013924384,-0.0013865043,-0.0029809678,0.004,0,1.131256,-0.49877205,-9.612227,0.004,-15624,0.12503392,0.14838557,0.43992266,2147483647,0.0,0.0
113914315,-0.0022303208,-0.0014766151,-0.0023209406,0.004008,0,1.1194813,-0.5016585,-9.611922,0.004008,-19632,0.12503392,0.14838557,0.43992266,2147483647,0.0,0.0
113918307,-0.0020098854,-0.0019992662,-0.0018872845,0.003992,0,1.1209294,-0.48522156,-9.61121,0.003992,-2023,0.12338492,0.14323024,0.44519278,2147483647,0.0,0.0
113922307,-0.0017040876,-0.0030806742,-0.002610149,0.004,0,1.1099497,-0.48525745,-9.630845,0.004,-6023,0.12338492,0.14323024,0.44519278,2147483647,0.0,0.0
113926306,-0.0009752948,-0.002034504,-0.0032910986,0.003999,0,1.1042461,-0.47869843,-9.638698,0.003999,-10022,0.12338492,0.14323024,0.44519278,2147483647,0.0,0.0
113930307,-0.0020254261,-0.003296186,-0.002704311,0.004001,0,1.105904,-0.4822419,-9.617121,0.004001,-3623,0.12675327,0.15363014,0.43804902,2147483647,0.0,0.0
113934306,-0.0013828708,-0.0023335144,-0.0025295054,0.003999,0,1.1122305,-0.487835,-9.636985,0.003999,-7622,0.12675327,0.15363014,0.43804902,2147483647,0.0,0.0
113938307,-0.001294232,-0.0032061934,-0.0033605543,0.004001,0,1.0940235,-0.49324843,-9.6220255,0.004001,-2024,0.12841378,0.1376287,0.43333456,2147483647,0.0,0.0
113942308,-0.00088634033,-0.0034435345,-0.0043214005,0.004001,0,1.0914088,-0.48039,-9.620403,0.004001,-6025,0.12841378,0.1376287,0.43333456,2147483647,0.0,0.0
113946307,-0.0013155184,-0.0023822386,-0.0043403916,0.003999,0,1.0891455,-0.48204172,-9.636639,0.003999,-10024,0.12841378,0.1376287,0.43333456,2147483647,0.0,0.0
113950307,-0.0019368855,-0.0025740366,-0.00357724,0.004,0,1.0883095,-0.48471293,-9.619059,0.004,-3623,0.12669249,0.13591026,0.43511558,2147483647,0.0,0.0
113954307,-0.001510677,-0.002571242,-0.0034795282,0.004,0,1.1055566,-0.48034668,-9.609593,0.004,-7623,0.12669249,0.13591026,0.43511558,2147483647,0.0,0.0
113958307,-0.0028894132,-0.0025684563,-0.0033450855,0.004,0,1.1141746,-0.4863965,-9.600846,0.004,-2023,0.13378878,0.14305176,0.4381812,2147483647,0.0,0.0
113962307,-0.0016093809,-0.002350084,-0.0031637158,0.004,0,1.1179945,-0.50268763,-9.613988,0.004,-6023,0.13378878,0.14305176,0.4381812,2147483647,0.0,0.0
113966307,-0.0019072127,-0.0025348947,-0.0020874757,0.004,0,1.1131876,-0.50132626,-9.62599,0.004,-10023,0.13378878,0.14305176,0.4381812,2147483647,0.0,0.0
113970307,-0.000662414,-0.0018323757,-0.0037285516,0.004,0,1.1006451,-0.5006243,-9.627417,0.004,-3623,0.12502816,0.15896395,0.4396448,2147483647,0.0,0.0
113974307,-0.0019338537,-0.0015045954,-0.003392439,0.004,0,1.0991614,-0.50835484,-9.617953,0.004,-7623,0.12502816,0.15896395,0.4396448,2147483647,0.0,0.0
113978307,-0.0015055184,-0.0015018,-0.0032947727,0.004,0,1.0984741,-0.4861464,-9.627508,0.004,-2023,0.13716096,0.1463994,0.43122268,2147483647,0.0,0.0
113982307,-0.0015057782,-0.0022463617,-0.003275205,0.004,0,1.1034209,-0.49135342,-9.632902,0.004,-6023,0.13716096,0.1463994,0.43122268,2147483647,0.0,0.0
113986307,-0.0011773173,-0.0017034675,-0.0028732768,0.004,0,1.1035006,-0.49295884,-9.629314,0.004,-10023,0.13716096,0.1463994,0.43122268,2147483647,0.0,0.0
113990307,-0.0019288069,-0.002565651,-0.0032580493,0.004,0,1.0991615,-0.49706197,-9.628899,0.004,-2823,0.13716096,0.1463994,0.43122268,2147483647,0.0,0.0
113994307,-0.0013991008,-0.0012891605,-0.003302566,0.004,0,1.1185355,-0.498694,-9.645815,0.004,-6823,0.13716096,0.1463994,0.43122268,2147483647,0.0,0.0
113998306,-0.0024622323,-0.0015018003,-0.0032749488,0.003999,0,1.1216608,-0.49465385,-9.65759,0.003999,-1189,0.11793571,0.14477019,0.43676442,2147483647,0.0,0.0
114002307,-0.0017152585,-0.0015017962,-0.0032904285,0.004001,0,1.1114298,-0.4965127,-9.66373,0.004001,-5190,0.11793571,0.14477019,0.43676442,2147483647,0.0,0.0
114006306,-0.0020406293,-0.0018272897,-0.0034880145,0.003999,0,1.1020623,-0.49988645,-9.663424,0.003999,-9189,0.11793571,0.14477019,0.43676442,2147483647,0.0,0.0
114010307,-0.0017050122,-0.0011659671,-0.0026611346,0.004001,0,1.0943525,-0.5007475,-9.640766,0.004001,-3623,0.12641096,0.13555327,0.4215294,2147483647,0.0,0.0
114014306,-0.0009709882,-0.0014989907,-0.0031988823,0.003999,0,1.088909,-0.49646991,-9.624909,0.003999,-7622,0.12641096,0.13555327,0.4215294,2147483647,0.0,0.0
114018307,-0.0011817818,-0.0014962105,-0.0030887185,0.004001,0,1.0916038,-0.49549764,-9.633981,0.004001,-1190,0.12489891,0.1376287,0.4334074,2147483647,0.0,0.0
114022311,-0.0011831998,-0.0029890696,-0.0031571947,0.004004,0,1.0959766,-0.49812713,-9.632347,0.004004,-5194,0.12489891,0.1376287,0.4334074,2147483647,0.0,0.0
114026307,-0.0009590027,-0.0032930328,-0.0026216346,0.003996,0,1.1097616,-0.50692314,-9.628137,0.003996,-9190,0.12489891,0.1376287,0.4334074,2147483647,0.0,0.0
114030311,-0.0001190433,-0.003093352,-0.0031713196,0.004004,0,1.1104907,-0.48212242,-9.592446,0.004004,-3627,0.12861149,0.16257933,0.4428759,2147483647,0.0,0.0
114034307,-0.0016119158,-0.0027786328,-0.0032590204,0.003996,0,1.1013016,-0.49031767,-9.583923,0.003996,-7623,0.12861149,0.16257933,0.4428759,2147483647,0.0,0.0
114038307,-0.00076101464,-0.0036294833,-0.0032534946,0.004,0,1.1118486,-0.48546553,-9.620442,0.004,-1183,0.12489891,0.1376287,0.4334074,2147483647,0.0,0.0
114042307,-0.00136518,-0.0026302761,-0.0016718725,0.004,0,1.1169834,-0.47239906,-9.628947,0.004,-5183,0.12489891,0.1376287,0.4334074,2147483647,0.0,0.0
114047108,-0.0005444495,-0.0027174212,-0.0023068693,0.004801,0,1.1121435,-0.48772112,-9.623407,0.004801,-424,0.123038776,0.13220564,0.4284879,2147483647,0.0,0.0
114051126,-0.001163107,-0.0033872242,-0.0021875137,0.004018,0,1.1015437,-0.49381253,-9.60656,0.004018,-4442,0.123038776,0.13220564,0.4284879,2147483647,0.0,0.0
114055108,-0.0019254952,-0.002770267,-0.0029359988,0.003982,0,1.1054872,-0.4844881,-9.603523,0.003982,-8424,0.123038776,0.13220564,0.4284879,2147483647,0.0,0.0
114059108,-0.002030242,-0.0034084637,-0.002913556,0.004,0,1.0974206,-0.4814942,-9.597553,0.004,-1200,0.1302016,0.14648864,0.4347649,2147483647,0.0,0.0
114063108,-0.0011814067,-0.0026665751,-0.0030577893,0.004,0,1.1113755,-0.49191874,-9.608457,0.004,-5200,0.1302016,0.14648864,0.4347649,2147483647,0.0,0.0
114067108,-0.0022381807,-0.003296249,-0.0027002997,0.004,0,1.1097517,-0.5032579,-9.61712,0.004,-9200,0.1302016,0.14648864,0.4347649,2147483647,0.0,0.0
114071108,-0.0018238116,-0.0026713707,-0.0032574486,0.004,0,1.1092416,-0.509231,-9.642045,0.004,-3623,0.1302016,0.14648864,0.4347649,2147483647,0.0,0.0
114075118,-0.0010949664,-0.0022686075,-0.0040295646,0.00401,0,1.1129208,-0.50356174,-9.637756,0.00401,-7633,0.1302016,0.14648864,0.4347649,2147483647,0.0,0.0
114079108,-0.00215129,-0.003424372,-0.0035473858,0.00399,0,1.1072865,-0.5004531,-9.620659,0.00399,-1224,0.1302016,0.14648864,0.4347649,2147483647,0.0,0.0
114083108,-0.0009676365,-0.0029854684,-0.0030538365,0.004,0,1.1138108,-0.4944729,-9.595423,0.004,-5224,0.1302016,0.14648864,0.4347649,2147483647,0.0,0.0
114087108,-0.0017972299,-0.0027422183,-0.0018717444,0.004,0,1.1115321,-0.48717642,-9.612388,0.004,-9224,0.1302016,0.14648864,0.4347649,2147483647,0.0,0.0
114091109,-0.0007376566,-0.0030700301,-0.0022046617,0.004001,0,1.0987054,-0.47545993,-9.616447,0.004001,-3625,0.13200478,0.12713957,0.43693614,2147483647,0.0,0.0
114095108,-0.0008801004,-0.003860082,-0.0038868156,0.003999,0,1.1101189,-0.48742598,-9.611615,0.003999,-7624,0.13200478,0.12713957,0.43693614,2147483647,0.0,0.0
114099108,-0.0008577053,-0.0024506801,-0.002859867,0.004,0,1.1220378,-0.5012824,-9.616187,0.004,-1225,0.12325184,0.12894726,0.43877015,2147483647,0.0,0.0
114103108,-0.001914288,-0.001691665,-0.00242893,0.004,0,1.1242176,-0.49915883,-9.6272335,0.004,-5225,0.12325184,0.12894726,0.43877015,2147483647,0.0,0.0
114107108,-0.0015055988,-0.0033091512,-0.003247283,0.004,0,1.1200863,-0.5259772,-9.618409,0.004,-9225,0.12325184,0.12894726,0.43877015,2147483647,0.0,0.0
114111111,-0.0014879747,-0.003289743,-0.0025045408,0.004003,0,1.1328348,-0.51860577,-9.593787,0.004003,-3627,0.12675135,0.15715627,0.43795642,2147483647,0.0,0.0
114115108,-0.00064347935,-0.0021250038,-0.0027633216,0.003997,0,1.1282632,-0.49991605,-9.628734,0.003997,-7624,0.12675135,0.15715627,0.43795642,2147483647,0.0,0.0
114119109,-0.0016122102,-0.0015017996,-0.0032925622,0.004001,0,1.1121958,-0.49923226,-9.638098,0.004001,-1226,0.13213596,0.14494868,0.44326612,2147483647,0.0,0.0
114123110,-0.00074517704,-0.0021205037,-0.00254829,0.004001,0,1.1084551,-0.50560886,-9.633111,0.004001,-5227,0.13213596,0.14494868,0.44326612,2147483647,0.0,0.0
114127108,-0.0008435584,-0.0034961828,-0.0021912705,0.003998,0,1.1080564,-0.5005633,-9.606242,0.003998,-9225,0.13213596,0.14494868,0.44326612,2147483647,0.0,0.0
114131124,-0.0016971139,-0.0028553226,-0.0021904258,0.004016,0,1.115427,-0.49486798,-9.610625,0.004016,-2838,0.13586389,0.1416903,0.4534755,2147483647,0.0,0.0
114135107,-0.0012798932,-0.0038402467,-0.0029225412,0.003983,0,1.1189127,-0.49164668,-9.617369,0.003983,-6821,0.13586389,0.1416903,0.4534755,2147483647,0.0,0.0
114139108,-0.0013983849,-0.0029910798,-0.0032577317,0.004001,0,1.1249199,-0.48776934,-9.616418,0.004001,-1185,0.12682942,0.143141,0.44172344,2147483647,0.0,0.0
114143108,-0.0012888921,-0.0025628814,-0.0031658318,0.004,0,1.1250279,-0.4921563,-9.599029,0.004,-5185,0.12682942,0.143141,0.44172344,2147483647,0.0,0.0
114147108,-0.0026772018,-0.0025712284,-0.0034549604,0.004,0,1.1242248,-0.4968627,-9.603849,0.004,-9185,0.12682942,0.143141,0.44172344,2147483647,0.0,0.0
114151133,-0.0018352311,-0.0027944166,-0.0037828123,0.004025,0,1.109149,-0.4897624,-9.609375,0.004025,-2850,0.14089082,0.13961488,0.4415247,2147483647,0.0,0.0
114155108,-0.0030146292,-0.0028994526,-0.0039734915,0.0039749998,0,1.1104023,-0.49933532,-9.612817,0.0039749998,-6825,0.14089082,0.13961488,0.4415247,2147483647,0.0,0.0
114159108,-0.0023550682,-0.0025656514,-0.0032492161,0.004,0,1.1294038,-0.50165385,-9.62087,0.004,-424,0.14089082,0.13961488,0.4415247,2147483647,0.0,0.0
114163112,-0.0039353888,-0.003077374,-0.0024586648,0.004004,0,1.1110057,-0.5083378,-9.626715,0.004004,-4428,0.14089082,0.13961488,0.4415247,2147483647,0.0,0.0
