timestamp,roll,pitch,yaw,thrust
112574757,-0.33335218,-0.69860387,-0.217807,0.0
112651619,-0.33315495,-0.69868696,-0.21830499,0.0
112662769,-0.33315942,-0.69865465,-0.21840045,0.0
112674765,-0.33315736,-0.69866383,-0.21846455,0.0
112682953,-0.33314016,-0.6986505,-0.21843855,0.0
112694764,-0.3331022,-0.6986208,-0.21822885,0.0
112703778,-0.33309963,-0.69861686,-0.21812935,0.0
112715581,-0.33310127,-0.69862294,-0.21816039,0.0
112727586,-0.33309782,-0.69860846,-0.21800417,0.0
112735565,-0.33311275,-0.6985711,-0.21808971,0.0
112747586,-0.33310932,-0.6985704,-0.21838614,0.0
112755584,-0.3330948,-0.6985848,-0.21864416,0.0
112767577,-0.3330499,-0.69855815,-0.21861164,0.0
112779586,-0.33302152,-0.69853616,-0.21860617,0.0
112787746,-0.33301163,-0.69857395,-0.21871978,0.0
112799559,-0.3329525,-0.6986232,-0.21877287,0.0
112811584,-0.33292323,-0.6986368,-0.21880107,0.0
112819571,-0.3329252,-0.6986581,-0.21887754,0.0
112832391,-0.33291486,-0.6986902,-0.21878788,0.0
112841591,-0.3329023,-0.6987119,-0.21871154,0.0
112852391,-0.33289653,-0.6987465,-0.21866499,0.0
112864373,-0.33291572,-0.698762,-0.21884437,0.0
112872353,-0.33288667,-0.6987629,-0.21889961,0.0
112884358,-0.3328135,-0.69876117,-0.21898568,0.0
112892350,-0.3327925,-0.69878733,-0.21911879,0.0
112904352,-0.33281177,-0.698805,-0.21909006,0.0
112916344,-0.3328194,-0.6987654,-0.21903622,0.0
112924419,-0.33282986,-0.69873005,-0.21899721,0.0
112936362,-0.33283615,-0.6987349,-0.21899444,0.0
112948331,-0.3328559,-0.6987465,-0.2191232,0.0
112956340,-0.33285335,-0.6987119,-0.21914609,0.0
112969189,-0.3328679,-0.69865793,-0.2189363,0.0
112977198,-0.33289105,-0.6986435,-0.21891795,0.0
112989170,-0.3328691,-0.6986581,-0.21905558,0.0
112997188,-0.33281514,-0.6986667,-0.21909332,0.0
113009203,-0.33278233,-0.69866896,-0.21920942,0.0
113021756,-0.3327616,-0.6987102,-0.21914372,0.0
113029368,-0.33272648,-0.6987251,-0.21909232,0.0
113041443,-0.33269852,-0.6987324,-0.21927617,0.0
113053179,-0.3326228,-0.6987541,-0.21944559,0.0
113061766,-0.33259588,-0.6987504,-0.21939215,0.0
113073181,-0.3326025,-0.6988003,-0.2193626,0.0
113081792,-0.3326237,-0.69887626,-0.21937187,0.0
113093171,-0.33263573,-0.69889414,-0.21942823,0.0
113101963,-0.3326219,-0.6988777,-0.21946785,0.0
113113959,-0.3326012,-0.69880855,-0.21955648,0.0
113125971,-0.3326484,-0.6987477,-0.2195651,0.0
113133971,-0.3326542,-0.69872814,-0.2196241,0.0
113146002,-0.33266705,-0.69869375,-0.21956396,0.0
113158033,-0.33269477,-0.6986996,-0.21968932,0.0
113165997,-0.3326839,-0.69870335,-0.2196759,0.0
113177974,-0.33263567,-0.6986649,-0.21971084,0.0
113189977,-0.33257213,-0.6985991,-0.21985847,0.0
113197978,-0.33254135,-0.6985964,-0.22000512,0.0
113209975,-0.33248574,-0.6986179,-0.22009008,0.0
113217988,-0.33243415,-0.698645,-0.21998093,0.0
113229988,-0.33236337,-0.69871056,-0.21990849,0.0
113238775,-0.33232856,-0.698712,-0.2198536,0.0
113251775,-0.3323092,-0.69871324,-0.21977696,0.0
113262779,-0.33234012,-0.6987368,-0.21965756,0.0
113272099,-0.33235323,-0.6987566,-0.21951711,0.0
113282779,-0.33234844,-0.69876564,-0.21941707,0.0
113294734,-0.3323451,-0.6987463,-0.21931289,0.0
113302765,-0.33234558,-0.6987397,-0.21931061,0.0
113314759,-0.3323591,-0.6987331,-0.21951587,0.0
113322761,-0.33235422,-0.6987405,-0.21962526,0.0
113334749,-0.33233726,-0.6987505,-0.21978416,0.0
113346762,-0.3323289,-0.6987687,-0.21987455,0.0
113354951,-0.33229604,-0.6987891,-0.21979111,0.0
113366758,-0.33223683,-0.6988654,-0.21982287,0.0
113375738,-0.3322025,-0.69892484,-0.21966332,0.0
113387527,-0.33214113,-0.69899935,-0.21973377,0.0
113399556,-0.33206913,-0.6990204,-0.21974696,0.0
113407528,-0.33203483,-0.6990644,-0.21981849,0.0
113419526,-0.33203793,-0.69909304,-0.21992892,0.0
113427528,-0.33205384,-0.6990639,-0.22000057,0.0
113439560,-0.33202508,-0.69901896,-0.21995495,0.0
113451868,-0.33200476,-0.6989882,-0.2197321,0.0
113459786,-0.33200312,-0.698965,-0.21959701,0.0
113471984,-0.332001,-0.6989488,-0.2195048,0.0
113483591,-0.33195964,-0.69889283,-0.21947397,0.0
113492182,-0.33189744,-0.6988528,-0.21937303,0.0
113503578,-0.33186683,-0.69877756,-0.21930024,0.0
113512483,-0.33186725,-0.6987395,-0.21937717,0.0
113524347,-0.33185157,-0.6987241,-0.21945466,0.0
113536405,-0.33183518,-0.69869256,-0.2195732,0.0
113544395,-0.33182722,-0.6987034,-0.21964297,0.0
113556360,-0.33180335,-0.69873786,-0.21977693,0.0
113564382,-0.33180216,-0.6987554,-0.21991569,0.0
113576359,-0.33185053,-0.69874656,-0.22010708,0.0
113588387,-0.33188584,-0.69874525,-0.220281,0.0
113596466,-0.33189523,-0.6987782,-0.22039242,0.0
113608357,-0.3318566,-0.69877577,-0.22056107,0.0
113620378,-0.3318454,-0.6986951,-0.22071326,0.0
113628353,-0.3318689,-0.6986501,-0.22085059,0.0
113636350,-0.33188975,-0.698622,-0.22074561,0.0
113649173,-0.33192596,-0.6986042,-0.22060186,0.0
113662239,-0.3319237,-0.6985797,-0.2207937,0.0
113669162,-0.33193502,-0.6985605,-0.22089702,0.0
113682218,-0.33189932,-0.69855905,-0.22098581,0.0
113693168,-0.3318564,-0.69856596,-0.2207504,0.0
113702694,-0.33184913,-0.69857633,-0.22090599,0.0
113713179,-0.3318328,-0.6985962,-0.22087611,0.0
113725198,-0.33178422,-0.6986319,-0.22086297,0.0
113733203,-0.33177772,-0.6986367,-0.22095792,0.0
113745175,-0.33178115,-0.6986297,-0.22121392,0.0
113753168,-0.33174592,-0.6985994,-0.22138943,0.0
113765174,-0.3317211,-0.698613,-0.22144455,0.0
113773178,-0.33170947,-0.69861,-0.2214928,0.0
113785956,-0.3316989,-0.698606,-0.22186646,0.0
113797947,-0.33169326,-0.6985996,-0.22192442,0.0
113805957,-0.33167934,-0.6986284,-0.22180139,0.0
113817952,-0.3316536,-0.6986805,-0.22170222,0.0
113829977,-0.33161002,-0.6986914,-0.22171271,0.0
113837959,-0.3316063,-0.6987119,-0.22178802,0.0
113849938,-0.33162177,-0.6987449,-0.2218655,0.0
113857961,-0.33161297,-0.6987467,-0.22190097,0.0
113869928,-0.33159202,-0.69875884,-0.22213827,0.0
113882242,-0.33156273,-0.69874716,-0.22238024,0.0
113889931,-0.33155063,-0.6987176,-0.22228552,0.0
113902751,-0.3315176,-0.6986488,-0.2221194,0.0
113910767,-0.3315022,-0.69864225,-0.22202697,0.0
113922768,-0.33148465,-0.69873166,-0.22197124,0.0
113934784,-0.3314472,-0.69875395,-0.22184005,0.0
113942934,-0.33142942,-0.6987349,-0.22190654,0.0
113954754,-0.33141032,-0.6986907,-0.22197038,0.0
113966766,-0.33134922,-0.698688,-0.22201295,0.0
113974754,-0.3313311,-0.6987052,-0.22180441,0.0
113986764,-0.33132547,-0.6987535,-0.2218277,0.0
113994799,-0.33131576,-0.69877803,-0.22184475,0.0
114006771,-0.3312795,-0.6988395,-0.22167002,0.0
114018805,-0.3312473,-0.6989054,-0.22173376,0.0
114026938,-0.33125615,-0.6989254,-0.22176714,0.0
114038778,-0.3312936,-0.69889444,-0.2215743,0.0
114047752,-0.3313043,-0.69886684,-0.2216423,0.0
114059589,-0.3313105,-0.69883686,-0.22173497,0.0
114067560,-0.3312888,-0.69881123,-0.22171304,0.0
114083574,-0.33125597,-0.6987821,-0.2216403,0.0
114095571,-0.33124956,-0.69875824,-0.22185706,0.0
114103785,-0.33126003,-0.6987355,-0.22200406,0.0
114115550,-0.33127907,-0.6987455,-0.22190289,0.0
114127586,-0.33131298,-0.6987804,-0.22193806,0.0
114135582,-0.3313368,-0.69878364,-0.22205414,0.0
114147563,-0.33133405,-0.69875586,-0.22205357,0.0
114155561,-0.33130234,-0.6987603,-0.22218868,0.0
114167564,-0.33120176,-0.698762,-0.22238716,0.0
114179570,-0.33109906,-0.69874793,-0.22246876,0.0
114188355,-0.3310881,-0.69875056,-0.22258462,0.0
114200391,-0.33111647,-0.69874775,-0.22281489,0.0
114212938,-0.33110136,-0.6987246,-0.22265588,0.0
114224368,-0.33110476,-0.69870245,-0.2224397,0.0
114236382,-0.33113676,-0.69870895,-0.22230324,0.0
114244384,-0.3311497,-0.69870436,-0.22225082,0.0
114256357,-0.3311653,-0.6986628,-0.22225095,0.0
114264377,-0.33116895,-0.69866115,-0.22228831,0.0
114276350,-0.3311745,-0.6986462,-0.22221184,0.0
114288329,-0.33114693,-0.69869465,-0.22222856,0.0
114296418,-0.3311369,-0.69871444,-0.22227517,0.0
114308325,-0.3311207,-0.69875324,-0.22229677,0.0
114317372,-0.33107188,-0.6988133,-0.22225526,0.0
114329187,-0.33104414,-0.69885397,-0.22219318,0.0
114341186,-0.33108616,-0.6988838,-0.22219728,0.0
114353193,-0.33105224,-0.6988902,-0.2221037,0.0
114365192,-0.33099085,-0.6988903,-0.22203474,0.0
114373401,-0.33095843,-0.69889885,-0.22197425,0.0
114385184,-0.3309429,-0.6989395,-0.22196455,0.0
114397188,-0.33091936,-0.6989285,-0.22204393,0.0
114405206,-0.33090475,-0.69888544,-0.22209446,0.0
114417190,-0.33092585,-0.6988661,-0.22229223,0.0
114425184,-0.33095008,-0.6988526,-0.22239731,0.0
114437166,-0.33093816,-0.69883764,-0.22236341,0.0
114449977,-0.33094567,-0.698806,-0.22232868,0.0
114457956,-0.33094087,-0.69879436,-0.22243617,0.0
114469954,-0.33092633,-0.698805,-0.22237785,0.0
114477961,-0.3309022,-0.69880134,-0.22240832,0.0
114489951,-0.33082628,-0.69875914,-0.2224327,0.0
114497951,-0.33080408,-0.6987338,-0.22238469,0.0
114509951,-0.3308156,-0.69870734,-0.22236124,0.0
114523240,-0.33084038,-0.6987231,-0.22240216,0.0
114533992,-0.33083734,-0.69872105,-0.22244151,0.0
114543177,-0.33079475,-0.69870174,-0.2224842,0.0
114553969,-0.3307909,-0.69868004,-0.22251964,0.0
114563360,-0.3308175,-0.69863623,-0.22258092,0.0
114573951,-0.3308554,-0.69860786,-0.22266155,0.0
114583390,-0.3308524,-0.6986143,-0.22278479,0.0
114594760,-0.33081588,-0.69862473,-0.22260775,0.0
114606789,-0.33062273,-0.69881237,-0.22258444,0.0
114614948,-0.33053055,-0.6989191,-0.2225638,0.0
114626776,-0.33061552,-0.6989074,-0.22256015,0.0
114638786,-0.33063734,-0.6989536,-0.22259438,0.0
114646774,-0.33070496,-0.6989689,-0.2226872,0.0
114658750,-0.33077827,-0.6989277,-0.22281125,0.0
114666780,-0.33088565,-0.6988268,-0.2228125,0.0
114678767,-0.33100572,-0.6987556,-0.22283342,0.0
114690777,-0.3310817,-0.69869244,-0.22303793,0.0
114698950,-0.33110934,-0.6986838,-0.22305134,0.0
114714752,-0.33108017,-0.6987626,-0.22267444,0.0
114723530,-0.33100724,-0.69880676,-0.22272998,0.0
114735527,-0.33087552,-0.698908,-0.22280619,0.0
114743527,-0.3307834,-0.69900346,-0.22285888,0.0
114755846,-0.33068207,-0.6990479,-0.22301696,0.0
114767551,-0.33069095,-0.6990074,-0.2231146,0.0
114775801,-0.33067596,-0.6989974,-0.22299308,0.0
114787546,-0.33066452,-0.6990025,-0.22286329,0.0
114799559,-0.3306853,-0.69900346,-0.2228614,0.0
114807575,-0.330709,-0.6989569,-0.22285567,0.0
114819532,-0.33068508,-0.698894,-0.22295222,0.0
114827545,-0.3306895,-0.6988828,-0.22300357,0.0
114839551,-0.33077803,-0.6988887,-0.22319184,0.0
114851580,-0.3308048,-0.6988777,-0.2231774,0.0
114864380,-0.3368173,-0.6937616,-0.22174309,0.0
114876354,-0.37857905,-0.6499059,-0.21526216,0.0
114884583,-0.40988842,-0.6074438,-0.21267647,0.0
114896399,-0.41760108,-0.60765433,-0.2135459,0.0
114908400,-0.41300064,-0.61662257,-0.20139655,0.0
114916368,-0.4147846,-0.61701936,-0.1925954,0.0
114928361,-0.41436052,-0.6171052,-0.18078108,0.0
114936387,-0.41476697,-0.6179571,-0.17168003,0.0
114948363,-0.41485265,-0.6183151,-0.15856636,0.0
114960381,-0.41536832,-0.61776215,-0.1500675,0.0
114968466,-0.41506186,-0.61747193,-0.14909615,0.0
114980386,-0.41504422,-0.61760724,-0.1487226,0.0
114993670,-0.41377035,-0.6178759,-0.14820379,0.0
115005165,-0.4104879,-0.6179681,-0.14770763,0.0
115013736,-0.40949318,-0.618094,-0.14643542,0.0
115025167,-0.40885687,-0.61820734,-0.14202172,0.0
115037160,-0.40555075,-0.61830974,-0.13054343,0.0
115045355,-0.40011418,-0.6182992,-0.12057926,0.0
115057155,-0.39212418,-0.61867166,-0.108265765,0.0
115069173,-0.38741627,-0.6197796,-0.095701285,0.0
115077180,-0.38613898,-0.6199084,-0.08847968,0.0
115089173,-0.3850335,-0.61987656,-0.08006714,0.0
115097176,-0.3831643,-0.6198212,-0.07707557,0.0
115109194,-0.3832812,-0.61953557,-0.07789941,0.0
115121164,-0.38967487,-0.6192132,-0.083621435,0.0
115129928,-0.39769185,-0.6190649,-0.090221696,0.0
115141970,-0.40935314,-0.61531514,-0.103388295,0.0
115149964,-0.41651413,-0.6061141,-0.115865186,0.0
115161992,-0.42497683,-0.5803602,-0.13684718,0.0
115173986,-0.41904637,-0.5505254,-0.15455379,0.0
115181951,-0.40731248,-0.53498983,-0.16405292,0.0
115193954,-0.3842299,-0.5111037,-0.1774568,0.0
115205958,-0.3607795,-0.4835135,-0.19051537,0.0
115213944,-0.34432814,-0.46817055,-0.19890505,0.0
115225940,-0.31594422,-0.44755116,-0.2080357,0.0
115233932,-0.2991745,-0.43207973,-0.21160387,0.0
115245940,-0.284091,-0.40805867,-0.21598573,0.0
115258218,-0.28751764,-0.4001013,-0.22301127,0.0
115266752,-0.2989501,-0.40902507,-0.22804174,0.0
115278775,-0.32396382,-0.43613693,-0.23611863,0.0
115286929,-0.35029906,-0.4589627,-0.24630974,0.0
115298754,-0.4069441,-0.50407314,-0.27154788,0.0
115310758,-0.46683285,-0.540133,-0.3044546,0.0
115318775,-0.5013423,-0.54188913,-0.32959345,0.0
115330762,-0.5334554,-0.5086749,-0.3620744,0.0
115338775,-0.53727186,-0.47485292,-0.3778849,0.0
115354758,-0.5132224,-0.41302451,-0.40762946,0.0
115366774,-0.4695696,-0.36440247,-0.42964083,0.0
115374760,-0.4296776,-0.32802388,-0.44364184,0.0
115386769,-0.35795256,-0.2701487,-0.46448305,0.0
115395590,-0.30348882,-0.22937477,-0.47684863,0.0
115407600,-0.23664229,-0.17791407,-0.48857892,0.0
115415587,-0.19697842,-0.14522287,-0.49392992,0.0
115427551,-0.14133017,-0.0943715,-0.49986303,0.0
115439563,-0.083829165,-0.03847015,-0.50707227,0.0
115447819,-0.04490383,-0.0017710708,-0.5112178,0.0
115459612,0.011576403,0.04616311,-0.51733595,0.0
115471585,0.064587265,0.09143503,-0.5263539,0.0
115479581,0.092709966,0.12352575,-0.5333001,0.0
115495562,0.12371457,0.18900691,-0.55170065,0.0
115504093,0.12347476,0.2231156,-0.56540793,0.0
115515576,0.106256954,0.2696957,-0.5892354,0.0
115527588,0.07490234,0.32318512,-0.6169701,0.0
115536369,0.04768845,0.36317793,-0.63408583,0.0
115548377,0.00037345037,0.41419506,-0.65132487,0.0
115556453,-0.04172509,0.44960916,-0.6627004,0.0
115568377,-0.118622,0.5045751,-0.6810684,0.0
115580389,-0.20473342,0.5537674,-0.69770926,0.0
115588401,-0.26582083,0.5782434,-0.70737314,0.0
115600404,-0.36489803,0.6025284,-0.7241417,0.0
115608416,-0.4335808,0.6133566,-0.73944825,0.0
115620384,-0.5378612,0.6255227,-0.76754105,0.0
115632357,-0.6442277,0.6363038,-0.7995625,0.0
115645138,-0.7601277,0.64877653,-0.83815277,0.0
115657148,-0.8661711,0.6640963,-0.87673336,0.0
115665151,-0.9383764,0.6758468,-0.901899,0.0
115677135,-1.0573783,0.6918163,-0.94066083,0.0
115685140,-1.1443272,0.70083374,-0.96632445,0.0
115697161,-1.2843343,0.7120227,-1.0059003,0.0
115709183,-1.4259461,0.7216244,-1.0434659,0.0
115717340,-1.5176648,0.72487605,-1.0643531,0.0
115729163,-1.6436763,0.719969,-1.0897444,0.0
115741225,-1.7750244,0.7063892,-1.1144457,0.0
115749175,-1.8581979,0.6939921,-1.129013,0.0
115761465,-1.9702139,0.68094176,-1.1493354,0.0
115769170,-2.0269556,0.67929393,-1.1607463,0.0
115785185,-2.126806,0.66970617,-1.1803665,0.0
115797054,-2.188234,0.65177864,-1.1932935,0.0
115805958,-2.2275193,0.6395492,-1.2031997,0.0
115817973,-2.2691243,0.6239225,-1.2136937,0.0
115825956,-2.2901936,0.6106309,-1.2174225,0.0
115837953,-2.319046,0.5822555,-1.2207581,0.0
115849981,-2.35274,0.5430861,-1.2242216,0.0
115857947,-2.3768656,0.51336485,-1.2261246,0.0
115869948,-2.4026868,0.4661625,-1.2245651,0.0
115877973,-2.4088442,0.4320137,-1.2193847,0.0
115889952,-2.3994992,0.37607187,-1.2075208,0.0
115901976,-2.3673563,0.3183172,-1.1934283,0.0
115909961,-2.3331168,0.2784854,-1.1822045,0.0
115921970,-2.2678378,0.21210386,-1.1623299,0.0
115929950,-2.2145524,0.16411811,-1.1454948,0.0
115943820,-2.1104882,0.0857068,-1.1106293,0.0
115954825,-1.9939169,0.017497439,-1.0704199,0.0
115963829,-1.9080902,-0.027368642,-1.0395497,0.0
115974775,-1.7674407,-0.100826934,-0.9891499,0.0
115983789,-1.6642064,-0.151139,-0.95451313,0.0
115994788,-1.4963373,-0.22396946,-0.9030224,0.0
116006752,-1.3263055,-0.28806236,-0.85675615,0.0
116015059,-1.2109596,-0.32877612,-0.8259619,0.0
116026780,-1.0548497,-0.38305503,-0.78124535,0.0
116038756,-0.89727175,-0.4329247,-0.73371446,0.0
116046770,-0.7914917,-0.4651602,-0.7019075,0.0
116058767,-0.63256514,-0.51486784,-0.65380377,0.0
116066770,-0.5259045,-0.548411,-0.6204221,0.0
116079527,-0.35592628,-0.59890634,-0.56441987,0.0
116087548,-0.25257328,-0.6273619,-0.5284157,0.0
116099551,-0.10526373,-0.6619119,-0.47448736,0.0
116111542,0.038658015,-0.68865013,-0.42097026,0.0
116119712,0.1362719,-0.7047968,-0.38420558,0.0
116131522,0.28536642,-0.7309529,-0.33239228,0.0
116139525,0.38685098,-0.74988383,-0.30043876,0.0
116151545,0.54283434,-0.7728887,-0.2550181,0.0
116164388,0.7014605,-0.78534067,-0.21135674,0.0
116171531,0.78197694,-0.78993154,-0.18944575,0.0
116184548,0.9152423,-0.79914284,-0.15355958,0.0
116195546,1.0219201,-0.80103755,-0.123030335,0.0
116204603,1.1062436,-0.79510295,-0.09665055,0.0
116216376,1.2018455,-0.7781283,-0.06327061,0.0
116224596,1.2566991,-0.7605101,-0.043083552,0.0
116236373,1.3308657,-0.73055255,-0.018330038,0.0
116248442,1.402721,-0.6930135,0.0012267639,0.0
116256465,1.449401,-0.6663075,0.013804511,0.0
116268372,1.5189102,-0.6278879,0.033169825,0.0
116280385,1.5907705,-0.5914029,0.054335345,0.0
116288401,1.6401142,-0.5678753,0.06771523,0.0
116300382,1.7136186,-0.530138,0.08398826,0.0
116308376,1.7604673,-0.50246084,0.09306745,0.0
116320375,1.821058,-0.45779383,0.10402934,0.0
116332371,1.8641274,-0.4097574,0.11003986,0.0
116341178,1.8860883,-0.3705856,0.1107902,0.0
116354246,1.9077109,-0.30856538,0.10805314,0.0
116365164,1.9177893,-0.2381634,0.10375949,0.0
116377180,1.9142659,-0.15966256,0.1000841,0.0
116385173,1.9062033,-0.10513145,0.09655298,0.0
116397169,1.8874619,-0.026585795,0.08715532,0.0
116409175,1.8609165,0.047719978,0.07223185,0.0
116417413,1.8354415,0.098913,0.058637735,0.0
116429174,1.7850538,0.1729764,0.033631165,0.0
116441185,1.7146333,0.25036216,0.0027377878,0.0
116449190,1.6626747,0.29902145,-0.01889959,0.0
116461172,1.58381,0.35731375,-0.052253567,0.0
116469183,1.531973,0.3869332,-0.07599519,0.0
116481983,1.4501575,0.42956012,-0.11797613,0.0
116494995,1.3621881,0.47603524,-0.16625991,0.0
116505979,1.2777939,0.52029103,-0.20792527,0.0
116517844,1.1686188,0.57139343,-0.25475302,0.0
116525960,1.0875262,0.60496736,-0.2871162,0.0
116537927,0.96329683,0.6541398,-0.33511618,0.0
116549977,0.83880186,0.7015791,-0.37984583,0.0
116557923,0.7589191,0.7295954,-0.40637213,0.0
116569939,0.6404281,0.76073456,-0.44188803,0.0
116577944,0.56027395,0.77425164,-0.4633038,0.0
116589921,0.43693206,0.78947127,-0.4963701,0.0
116601949,0.30846637,0.80725676,-0.5333846,0.0
116609943,0.22008863,0.82108307,-0.56008816,0.0
116622767,0.07120005,0.84346867,-0.60648763,0.0
116635055,-0.082033746,0.865311,-0.6533966,0.0
116646755,-0.2245593,0.8841959,-0.69449383,0.0
116655239,-0.3191352,0.89507747,-0.7209393,0.0
116666751,-0.43681964,0.90791273,-0.752995,0.0
116678750,-0.55003196,0.92015594,-0.783844,0.0
116686951,-0.63356197,0.926353,-0.80733,0.0
116698750,-0.7623599,0.9285488,-0.84270364,0.0
116710764,-0.9079812,0.9275787,-0.8794049,0.0
116718750,-1.0168424,0.92584616,-0.9062791,0.0
116730752,-1.1928265,0.92065626,-0.94846344,0.0
116738753,-1.3074088,0.9175495,-0.9754499,0.0
116751596,-1.4689221,0.9168273,-1.0147662,0.0
116759566,-1.5511565,0.9190912,-1.0351081,0.0
116771560,-1.6542808,0.9223207,-1.0626674,0.0
116784898,-1.7515965,0.9196893,-1.0911356,0.0
116795592,-1.8524343,0.90943587,-1.1222591,0.0
116807573,-1.9486043,0.8958501,-1.150754,0.0
116815593,-2.0072675,0.8854453,-1.1656238,0.0
116827570,-2.0881536,0.86528647,-1.1812718,0.0
116839558,-2.1600547,0.8352395,-1.1867046,0.0
116847780,-2.2018065,0.8071549,-1.1822608,0.0
116859571,-2.253472,0.75274634,-1.1642827,0.0
116871574,-2.2856498,0.6874088,-1.1359719,0.0
116879585,-2.2919352,0.6401408,-1.1134928,0.0
116892368,-2.2727058,0.56002367,-1.0741643,0.0
116900506,-2.2356281,0.508306,-1.0463855,0.0
116912369,-2.153657,0.43943882,-1.0060413,0.0
116920411,-2.080888,0.394998,-0.9800476,0.0
116932376,-1.9484645,0.32824236,-0.93826413,0.0
116945243,-1.7823178,0.25879446,-0.88736063,0.0
116952376,-1.6892865,0.22711825,-0.85732484,0.0
116965324,-1.5105197,0.17750406,-0.7962357,0.0
116976386,-1.3484597,0.13337155,-0.73887026,0.0
116985441,-1.2075645,0.095434904,-0.6894138,0.0
116997168,-1.0208777,0.046344776,-0.6240933,0.0
117005583,-0.8801,0.008811622,-0.5738727,0.0
117017158,-0.67755556,-0.0446323,-0.5024786,0.0
117029169,-0.46287456,-0.101020776,-0.42948815,0.0
117037186,-0.31919065,-0.13952899,-0.38206455,0.0
117049164,-0.105824694,-0.196325,-0.31283763,0.0
117057166,0.038541872,-0.2314905,-0.26581174,0.0
117069159,0.25458056,-0.2723688,-0.1936566,0.0
117081129,0.45240706,-0.29446927,-0.1240967,0.0
117089564,0.5757003,-0.3019763,-0.07834671,0.0
117101141,0.7280977,-0.31285888,-0.019379163,0.0
117113183,0.87761295,-0.32790238,0.039694965,0.0
117121182,0.9747822,-0.33918735,0.07826717,0.0
117133165,1.1133018,-0.3584525,0.13259682,0.0
117141215,1.1995084,-0.37357962,0.16509728,0.0
117155003,1.3266925,-0.40180886,0.20968767,0.0
117165973,1.4455029,-0.43035126,0.25078884,0.0
117174997,1.5290384,-0.44799536,0.2804254,0.0
117185959,1.6561959,-0.47231793,0.32701528,0.0
117195313,1.7394701,-0.48847944,0.35830644,0.0
117205964,1.8564728,-0.50998646,0.40402386,0.0
117217879,1.9636521,-0.52605283,0.44886488,0.0
117225964,2.0320914,-0.5369863,0.47904885,0.0
117237958,2.1296127,-0.5550226,0.5208685,0.0
117249978,2.2119377,-0.5679754,0.5556833,0.0
117257958,2.256917,-0.57103837,0.5760912,0.0
117270255,2.31767,-0.56857795,0.6054567,0.0
117277969,2.348211,-0.5627817,0.62104654,0.0
117290772,2.3824632,-0.54553735,0.6410974,0.0
117298753,2.3970213,-0.53363895,0.65148824,0.0
117310771,2.418748,-0.520063,0.6680558,0.0
117322778,2.4452498,-0.51134104,0.684693,0.0
117330949,2.4642165,-0.5056666,0.69407797,0.0
117346750,2.4987018,-0.49109167,0.70352674,0.0
117355770,2.5107276,-0.47712302,0.7004225,0.0
117366766,2.5070696,-0.45463365,0.68741846,0.0
117378771,2.4746685,-0.42298478,0.663101,0.0
117386989,2.4321778,-0.3960902,0.63954866,0.0
117398750,2.3446739,-0.351951,0.5970584,0.0
117410764,2.2197833,-0.3072636,0.5401339,0.0
117418769,2.1202652,-0.27954605,0.4944822,0.0
117431558,1.945693,-0.23497783,0.41941354,0.0
117439529,1.8331375,-0.20876592,0.373109,0.0
117451540,1.6475806,-0.17291568,0.2953418,0.0
117459522,1.512738,-0.1486455,0.23749912,0.0
117471525,1.3138809,-0.11054546,0.15179467,0.0
117483541,1.1284652,-0.07194188,0.076171644,0.0
117495760,0.93870705,-0.030221432,0.00225731,0.0
117507524,0.74932766,0.01455235,-0.07000101,0.0
117515834,0.61249816,0.04918409,-0.118602596,0.0
117527528,0.42815027,0.1005636,-0.1783284,0.0
117539530,0.2545217,0.15572311,-0.22949584,0.0
117547711,0.14834219,0.18778831,-0.2588563,0.0
117560379,-0.0071895383,0.22409102,-0.30214095,0.0
117568369,-0.09694962,0.24118383,-0.32867503,0.0
117580357,-0.22212651,0.26664227,-0.36857164,0.0
117592363,-0.33234194,0.29260778,-0.40483493,0.0
117600452,-0.3955573,0.30789083,-0.42489436,0.0
117612358,-0.47884372,0.3216465,-0.44855514,0.0
117620361,-0.5315747,0.32428136,-0.46102104,0.0
117636390,-0.63855493,0.32299817,-0.48165393,0.0
117648391,-0.71929395,0.3207439,-0.49381503,0.0
117656474,-0.76909065,0.31925252,-0.4982874,0.0
117668358,-0.83411485,0.3131861,-0.49751028,0.0
117680396,-0.8900017,0.30029002,-0.49117017,0.0
117688366,-0.9218396,0.28846964,-0.48505482,0.0
117701235,-0.9662456,0.26143304,-0.4713373,0.0
117709059,-0.991957,0.23791504,-0.4622584,0.0
117721184,-1.0297058,0.19169629,-0.45129514,0.0
117729201,-1.0510733,0.15632579,-0.44382834,0.0
117741224,-1.0680733,0.098428726,-0.42461196,0.0
117753194,-1.0664643,0.041115463,-0.39774486,0.0
117761433,-1.0589379,0.009660259,-0.38446724,0.0
117777197,-1.0361818,-0.021867087,-0.3617898,0.0
117786157,-1.0104495,-0.03916556,-0.33792663,0.0
117797185,-0.97214633,-0.06437008,-0.3041448,0.0
117809055,-0.9182564,-0.0725435,-0.27320758,0.0
117817386,-0.8773343,-0.07463463,-0.25534126,0.0
117829945,-0.82472557,-0.111954555,-0.22219281,0.0
117837987,-0.7880014,-0.15093839,-0.19640741,0.0
117849980,-0.7244635,-0.19366777,-0.1587399,0.0
117861879,-0.66257,-0.22221409,-0.12847653,0.0
117870052,-0.61588764,-0.23770183,-0.11084376,0.0
117881970,-0.5516164,-0.26809025,-0.0849977,0.0
117893982,-0.5024429,-0.3231101,-0.058350917,0.0
117901967,-0.47288275,-0.36204964,-0.039123043,0.0
117913970,-0.43472093,-0.40508428,-0.012398882,0.0
117926087,-0.40445048,-0.42828995,0.005986682,0.0
117937922,-0.38206968,-0.44358754,0.018515462,0.0
117949980,-0.3652009,-0.46472955,0.03491377,0.0
117957924,-0.35479325,-0.48251885,0.04839116,0.0
117970778,-0.33644348,-0.51069015,0.069648206,0.0
117978774,-0.32746875,-0.5271784,0.08147889,0.0
117990770,-0.3264949,-0.5559343,0.09460371,0.0
117998781,-0.3306128,-0.5778133,0.101249516,0.0
118010765,-0.32175392,-0.5995124,0.10872971,0.0
118022775,-0.29388458,-0.58959365,0.11739502,0.0
118030951,-0.28052637,-0.5780723,0.12320487,0.0
118042795,-0.28007072,-0.5800212,0.1289564,0.0
118050792,-0.28804764,-0.5920454,0.13179943,0.0
118066750,-0.3059447,-0.616724,0.1356618,0.0
118078769,-0.31164685,-0.6311916,0.13655502,0.0
118086929,-0.31178683,-0.6392454,0.13763744,0.0
118099594,-0.3095312,-0.65083396,0.14052647,0.0
118107740,-0.3097955,-0.6604588,0.14210746,0.0
118119437,-0.31736472,-0.6778952,0.14393175,0.0
118131591,-0.330552,-0.69111603,0.14511724,0.0
118139437,-0.3419798,-0.6962676,0.14569435,0.0
118151574,-0.3660213,-0.70034266,0.14631923,0.0
118159437,-0.39907244,-0.7033783,0.14690588,0.0
118171589,-0.46611232,-0.6915594,0.14415604,0.0
118183583,-0.49579224,-0.64036435,0.13074236,0.0
118191761,-0.47989032,-0.6000111,0.11845123,0.0
118207563,-0.44932604,-0.5988388,0.094524786,0.0
118216667,-0.44309974,-0.61141336,0.08434902,0.0
118227562,-0.43184742,-0.6069897,0.07614784,0.0
118240387,-0.42378896,-0.6093872,0.06537929,0.0
118248361,-0.41759518,-0.61526537,0.05852021,0.0
118260372,-0.40831336,-0.6244798,0.05243827,0.0
118268376,-0.40232244,-0.63185245,0.05086537,0.0
118280372,-0.3934036,-0.64421487,0.04833916,0.0
118292387,-0.3869428,-0.65223986,0.03902509,0.0
118300540,-0.3878232,-0.6506902,0.0244935,0.0
118312362,-0.39961234,-0.63503075,-0.0050657517,0.0
118324385,-0.4150713,-0.61350906,-0.037460234,0.0
118332364,-0.4169243,-0.6086589,-0.055927902,0.0
118348351,-0.3890594,-0.6337452,-0.075479105,0.0
118356655,-0.36955586,-0.65378344,-0.07616148,0.0
118369137,-0.34101036,-0.6829424,-0.075368576,0.0
118377379,-0.32314098,-0.70070755,-0.07555726,0.0
118389134,-0.3036827,-0.7203841,-0.07538199,0.0
118401144,-0.29233715,-0.731695,-0.075251,0.0
118409145,-0.28944144,-0.734489,-0.07538375,0.0
118421128,-0.29333627,-0.73046476,-0.07536224,0.0
118429145,-0.299941,-0.7237848,-0.075585924,0.0
118441140,-0.31438145,-0.7091443,-0.07618919,0.0
118453147,-0.33067724,-0.6926285,-0.07691163,0.0
118461333,-0.34128734,-0.68185425,-0.07729211,0.0
118473152,-0.3540575,-0.668834,-0.07784098,0.0
118481144,-0.36033162,-0.6623829,-0.07803252,0.0
118497151,-0.36633083,-0.6561216,-0.07825023,0.0
118509980,-0.36469728,-0.65766096,-0.07827629,0.0
118517973,-0.36103603,-0.6613127,-0.07833987,0.0
118529948,-0.3527079,-0.6696756,-0.07847604,0.0
118537978,-0.3459493,-0.67647,-0.07843877,0.0
118549948,-0.33541197,-0.68708706,-0.078218006,0.0
118561989,-0.32569957,-0.6968706,-0.0780918,0.0
118569958,-0.32040432,-0.70219463,-0.077910304,0.0
118581966,-0.3151527,-0.70739156,-0.07792705,0.0
118593972,-0.31358644,-0.708869,-0.07789205,0.0
118601959,-0.3146985,-0.70769364,-0.07801853,0.0
118613978,-0.3189221,-0.7034004,-0.078277946,0.0
118621970,-0.32291895,-0.6993784,-0.07842426,0.0
118638772,-0.33204353,-0.6900306,-0.07876549,0.0
118647031,-0.3361755,-0.685811,-0.07899926,0.0
118658778,-0.3406845,-0.6812778,-0.07904041,0.0
118670811,-0.34326893,-0.678618,-0.079181075,0.0
118678791,-0.343724,-0.67810696,-0.07929169,0.0
118690786,-0.34256068,-0.679271,-0.07948055,0.0
118698781,-0.3406859,-0.68112516,-0.079494275,0.0
118710789,-0.33671427,-0.6850518,-0.07939422,0.0
118722764,-0.3320077,-0.689773,-0.07952493,0.0
118731007,-0.32875288,-0.69309795,-0.07956938,0.0
118742751,-0.32472682,-0.69721234,-0.07964499,0.0
118754759,-0.3217188,-0.70020354,-0.079806015,0.0
118762754,-0.32059175,-0.7012918,-0.07992919,0.0
118774756,-0.3203475,-0.70148194,-0.08012564,0.0
118791588,-0.3225664,-0.69921273,-0.08000731,0.0
118803532,-0.32533875,-0.6964631,-0.0798837,0.0
118811540,-0.32733756,-0.6944899,-0.08001943,0.0
118823522,-0.33004004,-0.6917395,-0.08034429,0.0
118831548,-0.33145642,-0.6902479,-0.08049687,0.0
118847524,-0.33311668,-0.68845576,-0.08066203,0.0
118859558,-0.33313906,-0.68843675,-0.08076856,0.0
118867525,-0.33249706,-0.68902457,-0.08082497,0.0
118879541,-0.33085284,-0.6906085,-0.08100908,0.0
118887541,-0.32941273,-0.69202983,-0.081198305,0.0
118899526,-0.3270166,-0.69442916,-0.08111013,0.0
118912397,-0.32454103,-0.6968913,-0.08101239,0.0
118920372,-0.3232553,-0.69815373,-0.08083609,0.0
118932385,-0.32200047,-0.6993841,-0.08106568,0.0
118940377,-0.32164347,-0.6997372,-0.08123781,0.0
118952375,-0.32180858,-0.6995393,-0.081098504,0.0
118964390,-0.32272154,-0.69865614,-0.08118513,0.0
118972490,-0.32362396,-0.69769704,-0.08127252,0.0
118988352,-0.32555413,-0.6956516,-0.08134989,0.0
118997047,-0.32648072,-0.6947269,-0.0813233,0.0
119008359,-0.32729748,-0.6938837,-0.08149221,0.0
119020370,-0.32769078,-0.6934554,-0.08181108,0.0
119028482,-0.32760566,-0.6935481,-0.08185099,0.0
119040381,-0.32700482,-0.69414663,-0.08207443,0.0
119049357,-0.32624155,-0.6948964,-0.081918724,0.0
119061169,-0.32501963,-0.6961366,-0.081988,0.0
119073195,-0.3237253,-0.6974777,-0.08193266,0.0
119081170,-0.32299334,-0.69826365,-0.08191309,0.0
119093158,-0.32218632,-0.699081,-0.081735335,0.0
119101170,-0.321873,-0.69938445,-0.08162662,0.0
119113187,-0.3217863,-0.699498,-0.08146616,0.0
119125175,-0.32216385,-0.6991583,-0.08143886,0.0
119137198,-0.322783,-0.6985053,-0.08147729,0.0
119149165,-0.3234761,-0.6977371,-0.081720166,0.0
119157180,-0.32390845,-0.697265,-0.0817813,0.0
119169163,-0.32435706,-0.69677144,-0.08184466,0.0
119181176,-0.32454532,-0.696607,-0.081902504,0.0
119189838,-0.32448876,-0.69665533,-0.08193243,0.0
119201958,-0.32415098,-0.6970315,-0.081929766,0.0
119209848,-0.32382998,-0.69740826,-0.08181576,0.0
119221970,-0.32317078,-0.6981404,-0.08184982,0.0
119234004,-0.32246548,-0.6989413,-0.08187513,0.0
119241979,-0.3220505,-0.69938767,-0.08180732,0.0
119253985,-0.32156238,-0.6998345,-0.082151555,0.0
119261972,-0.32139245,-0.6999624,-0.08214498,0.0
119277981,-0.3213796,-0.6999531,-0.08219669,0.0
119289847,-0.32162502,-0.6996293,-0.08225071,0.0
119298045,-0.3218624,-0.69932044,-0.0823014,0.0
119309991,-0.32223442,-0.69891346,-0.08245365,0.0
119318973,-0.32247645,-0.69865495,-0.082519025,0.0
119330733,-0.3226721,-0.69847894,-0.082713924,0.0
119342736,-0.3226589,-0.6985468,-0.08286607,0.0
119350730,-0.32254565,-0.69869316,-0.08291837,0.0
119362758,-0.32218626,-0.6990309,-0.08280385,0.0
119370638,-0.3218889,-0.69932985,-0.082805395,0.0
119382765,-0.32143304,-0.6998089,-0.082754575,0.0
119394750,-0.3210157,-0.70021063,-0.08264964,0.0
119403067,-0.32078105,-0.70040035,-0.082826525,0.0
119418773,-0.32056996,-0.70058346,-0.08291341,0.0
119427967,-0.320541,-0.7006211,-0.08279325,0.0
119438747,-0.3205886,-0.7005498,-0.08269853,0.0
119450733,-0.32067147,-0.7003891,-0.08303453,0.0
119459572,-0.32074684,-0.70023704,-0.083326,0.0
119471553,-0.32082283,-0.7000903,-0.083436064,0.0
119479952,-0.32082817,-0.70007384,-0.08343704,0.0
119491560,-0.32080394,-0.70012534,-0.08347559,0.0
119503556,-0.320711,-0.7002237,-0.083415896,0.0
119511597,-0.32059065,-0.7003205,-0.08332299,0.0
119523564,-0.3202937,-0.7005777,-0.083424404,0.0
119531584,-0.3201069,-0.70075995,-0.083621494,0.0
119543557,-0.3199076,-0.70099556,-0.083753765,0.0
119555556,-0.31971857,-0.70117116,-0.083710015,0.0
119563745,-0.3196133,-0.701257,-0.083793715,0.0
119575561,-0.319532,-0.70135015,-0.083907,0.0
119587586,-0.31955904,-0.7013536,-0.083999395,0.0
119597375,-0.31963214,-0.70129174,-0.08406473,0.0
119608364,-0.31969464,-0.70125914,-0.08399348,0.0
119617655,-0.3197063,-0.70123816,-0.084110804,0.0
119628378,-0.31965786,-0.70124716,-0.084083155,0.0
119640418,-0.3196099,-0.70132387,-0.08407174,0.0
119648377,-0.31956652,-0.7014063,-0.08420574,0.0
119660369,-0.31944466,-0.7015881,-0.084406,0.0
119668389,-0.319307,-0.70171434,-0.08452461,0.0
119680406,-0.31913647,-0.70189667,-0.08466174,0.0
119692377,-0.3190263,-0.7020558,-0.084640875,0.0
119700512,-0.3189473,-0.7021296,-0.08470224,0.0
119712378,-0.3188639,-0.70221627,-0.08469124,0.0
119720428,-0.31885415,-0.7022726,-0.08471661,0.0
119733160,-0.3187689,-0.70232916,-0.084906064,0.0
119745139,-0.3187285,-0.7023295,-0.08499218,0.0
119753146,-0.31876472,-0.70233184,-0.0850222,0.0
119765146,-0.3187796,-0.7023492,-0.08521247,0.0
119773147,-0.31875786,-0.7023786,-0.08550286,0.0
119785450,-0.3187149,-0.70241183,-0.08581135,0.0
119797426,-0.3186538,-0.70247173,-0.08600679,0.0
119805348,-0.3185961,-0.70253015,-0.08609938,0.0
119817422,-0.3184828,-0.70260763,-0.08592967,0.0
119829143,-0.31835133,-0.7027049,-0.08574325,0.0
119837688,-0.3182729,-0.7027624,-0.08563635,0.0
119849134,-0.3182152,-0.7028424,-0.08585321,0.0
119857926,-0.31821084,-0.7028645,-0.08604751,0.0
119869951,-0.31819162,-0.70287377,-0.08607527,0.0
119881975,-0.31816098,-0.70289207,-0.08609647,0.0
119889964,-0.3181514,-0.70290124,-0.08614225,0.0
119901968,-0.31810644,-0.7029344,-0.08612805,0.0
119909986,-0.31806448,-0.7029521,-0.085940495,0.0
119921963,-0.31799528,-0.7029743,-0.085651435,0.0
119933975,-0.3179605,-0.7030587,-0.08550063,0.0
119941984,-0.31792355,-0.70309824,-0.085520044,0.0
119953976,-0.31785935,-0.7031786,-0.085682034,0.0
119961954,-0.31780353,-0.7032498,-0.08566672,0.0
119973992,-0.31773463,-0.7033533,-0.08560542,0.0
119985979,-0.31768686,-0.7034185,-0.0856017,0.0
119994192,-0.31765857,-0.7034646,-0.08569548,0.0
120007947,-0.31759673,-0.7034861,-0.08590113,0.0
120014740,-0.3175784,-0.70349246,-0.085985065,0.0
120027808,-0.31751516,-0.70355445,-0.085912235,0.0
120038770,-0.31745598,-0.7036251,-0.08580369,0.0
120048126,-0.31740203,-0.7036768,-0.0857933,0.0
120058771,-0.31731853,-0.7037157,-0.08593193,0.0
120070759,-0.31724212,-0.7037491,-0.08605522,0.0
120078787,-0.31720665,-0.7038075,-0.08599561,0.0
120090753,-0.31711927,-0.70389545,-0.08580995,0.0
120098780,-0.31705537,-0.7039518,-0.08566901,0.0
120110755,-0.31700316,-0.70403093,-0.085435756,0.0
120122759,-0.31698793,-0.7040989,-0.085214205,0.0
120131550,-0.31695396,-0.70412123,-0.085335575,0.0
120143553,-0.31686744,-0.70415825,-0.08531833,0.0
120151745,-0.31679636,-0.7041873,-0.08531223,0.0
120163566,-0.316779,-0.7042489,-0.085290775,0.0
120175532,-0.31682482,-0.70431775,-0.08527206,0.0
120183568,-0.31683028,-0.70434517,-0.08537733,0.0
120199543,-0.3167566,-0.7044249,-0.085360095,0.0
120208089,-0.31671017,-0.70445997,-0.085528776,0.0
120219551,-0.3166434,-0.7045021,-0.08581199,0.0
120231563,-0.3165639,-0.70457894,-0.08605902,0.0
120239546,-0.31652075,-0.7046199,-0.08618623,0.0
120251532,-0.31646463,-0.70470774,-0.08625914,0.0
120259551,-0.31643146,-0.7047649,-0.08626295,0.0
120272378,-0.3164662,-0.7048106,-0.086163886,0.0
120284368,-0.316471,-0.70485896,-0.08613092,0.0
120292377,-0.31647456,-0.7049068,-0.08617849,0.0
120304411,-0.31642905,-0.70499706,-0.086196035,0.0
120312395,-0.3163822,-0.7050571,-0.086141884,0.0
120324351,-0.31632805,-0.70509684,-0.086137496,0.0
120336361,-0.31628826,-0.705106,-0.086177096,0.0
120348392,-0.31621572,-0.70517004,-0.08644762,0.0
120360382,-0.31616363,-0.7052971,-0.086358935,0.0
120368377,-0.31611857,-0.705361,-0.08626095,0.0
120380378,-0.31609094,-0.7054206,-0.08643755,0.0
120392404,-0.3160863,-0.70543647,-0.08656652,0.0
120401184,-0.31611282,-0.7054504,-0.0866173,0.0
120413196,-0.31614542,-0.70545304,-0.086634405,0.0
120421329,-0.3161439,-0.70545614,-0.08662762,0.0
120433196,-0.3161776,-0.7055055,-0.0865953,0.0
120445175,-0.31613263,-0.70555556,-0.08679049,0.0
120453196,-0.31608835,-0.7055318,-0.086868964,0.0
120465200,-0.3160911,-0.7055685,-0.0868999,0.0
120473210,-0.31606698,-0.70565104,-0.08685859,0.0
120489180,-0.31597766,-0.7058227,-0.08683909,0.0
120501171,-0.3159057,-0.7058723,-0.086903416,0.0
120509192,-0.3158644,-0.7058977,-0.08692689,0.0
120521170,-0.31583086,-0.7059716,-0.086988114,0.0
120529178,-0.31579748,-0.7060287,-0.086943045,0.0
120541976,-0.3158037,-0.70608526,-0.08699767,0.0
120549966,-0.3158284,-0.7061056,-0.08699774,0.0
120561985,-0.31587923,-0.7061695,-0.08689299,0.0
120573984,-0.3158496,-0.7061854,-0.087008335,0.0
120581985,-0.31579036,-0.70620966,-0.0870753,0.0
120594032,-0.31567317,-0.7062474,-0.087317646,0.0
120606007,-0.31563184,-0.7063096,-0.08747999,0.0
120614124,-0.31562948,-0.706347,-0.08754885,0.0
120629957,-0.3155816,-0.70649,-0.08770504,0.0
120638895,-0.31559092,-0.7065555,-0.0876849,0.0
120649968,-0.31557474,-0.7065898,-0.0876659,0.0
120658737,-0.31555972,-0.7066146,-0.08764921,0.0
120670736,-0.31552374,-0.70663154,-0.08785903,0.0
120682739,-0.3154553,-0.70664823,-0.087904654,0.0
120690901,-0.31543887,-0.7066668,-0.087852925,0.0
120702726,-0.3154066,-0.7066768,-0.08788361,0.0
120714752,-0.3153671,-0.7066835,-0.08757241,0.0
120722734,-0.31536937,-0.706699,-0.08743466,0.0
120734752,-0.31539848,-0.70670784,-0.08741387,0.0
120742728,-0.3153902,-0.7067303,-0.087400004,0.0
120754737,-0.31536788,-0.7067649,-0.08747469,0.0
120766779,-0.31532434,-0.70682454,-0.08771413,0.0
120778797,-0.31526738,-0.70689213,-0.087682195,0.0
120791151,-0.31523344,-0.70694065,-0.087755196,0.0
120798775,-0.3152125,-0.70695543,-0.08773389,0.0
120811572,-0.3151521,-0.70697564,-0.08774633,0.0
120819561,-0.3151319,-0.7069619,-0.08781986,0.0
120831439,-0.31511217,-0.70696145,-0.08792944,0.0
120843562,-0.31506535,-0.7069746,-0.08786664,0.0
120851727,-0.31501603,-0.7069805,-0.08785813,0.0
120863567,-0.3149843,-0.70696187,-0.087907925,0.0
120875590,-0.3149547,-0.7069125,-0.087936595,0.0
120883565,-0.31495428,-0.70691055,-0.08790739,0.0
120895579,-0.31494862,-0.70690244,-0.08809953,0.0
120903561,-0.31492487,-0.706909,-0.08823806,0.0
120919585,-0.31488097,-0.7069766,-0.08846327,0.0
120931568,-0.3148669,-0.707029,-0.08854434,0.0
120940371,-0.31484056,-0.7070304,-0.08857701,0.0
120952331,-0.31479785,-0.7070277,-0.08862786,0.0
120960504,-0.3148213,-0.70702016,-0.08870189,0.0
120972354,-0.31484517,-0.7070483,-0.08890437,0.0
120984357,-0.31477997,-0.7070992,-0.08906252,0.0
120992360,-0.31472623,-0.70714694,-0.08916039,0.0
121004374,-0.31466997,-0.707157,-0.08920934,0.0
121012365,-0.31464157,-0.70717525,-0.08932973,0.0
121024366,-0.3146307,-0.7072469,-0.08959618,0.0
121036365,-0.31458622,-0.70734406,-0.08973438,0.0
121044514,-0.31454408,-0.70740867,-0.08959341,0.0
121060348,-0.31452826,-0.70746243,-0.08976148,0.0
121069189,-0.31452838,-0.7075244,-0.089724675,0.0
121081177,-0.3145187,-0.7075589,-0.08976645,0.0
121089148,-0.31452286,-0.7075868,-0.08991812,0.0
121101148,-0.31446064,-0.7076155,-0.09011645,0.0
121113129,-0.3143586,-0.7076238,-0.09017023,0.0
121121332,-0.3143584,-0.70762163,-0.0901971,0.0
121133154,-0.31435272,-0.7076092,-0.0903982,0.0
121145145,-0.3143267,-0.70758617,-0.09060593,0.0
121153133,-0.31430104,-0.70757866,-0.090692684,0.0
121165054,-0.31424552,-0.7075461,-0.09066116,0.0
121173149,-0.31422675,-0.7075648,-0.09066231,0.0
121185162,-0.31420648,-0.7076485,-0.090865776,0.0
121197163,-0.3141462,-0.7076571,-0.09089647,0.0
121209194,-0.3140932,-0.7077052,-0.0908894,0.0
121221861,-0.31407726,-0.707731,-0.09092719,0.0
121229974,-0.3140827,-0.7077192,-0.09074864,0.0
121241942,-0.31410256,-0.7077489,-0.09052343,0.0
121253988,-0.31411067,-0.7077963,-0.090486355,0.0
121261955,-0.31410122,-0.70780766,-0.09052986,0.0
121273983,-0.31413332,-0.70785654,-0.0907367,0.0
121281968,-0.31413838,-0.70792454,-0.09083317,0.0
121294363,-0.3140961,-0.70797074,-0.09084131,0.0
121305982,-0.31413504,-0.7080156,-0.09075002,0.0
121314029,-0.3141604,-0.7080087,-0.0906451,0.0
121325975,-0.31422698,-0.70798147,-0.09047141,0.0
121333992,-0.31425646,-0.70800656,-0.09051784,0.0
121350765,-0.31429893,-0.7080638,-0.09062978,0.0
121359360,-0.31431636,-0.70804024,-0.09089749,0.0
121370762,-0.31437734,-0.7080231,-0.09108144,0.0
121382797,-0.31440264,-0.7081026,-0.0909478,0.0
121390927,-0.31438252,-0.7081925,-0.09113052,0.0
121402775,-0.31431782,-0.7082821,-0.09117356,0.0
121414753,-0.31431198,-0.7083609,-0.09117749,0.0
121422735,-0.31431678,-0.70840037,-0.09115456,0.0
121434779,-0.31429482,-0.70839566,-0.091031544,0.0
121442754,-0.3142892,-0.7084015,-0.091055006,0.0
121454798,-0.31430668,-0.7084139,-0.09119554,0.0
121466822,-0.31429732,-0.70844305,-0.091241315,0.0
121474976,-0.31431466,-0.708485,-0.09120802,0.0
121491527,-0.31429985,-0.7085181,-0.09115997,0.0
121499566,-0.3142856,-0.70856005,-0.0912622,0.0
121511561,-0.31425437,-0.70859194,-0.09122722,0.0
121519562,-0.3142455,-0.7086013,-0.091235586,0.0
121531553,-0.3142532,-0.7086362,-0.091315255,0.0
121543577,-0.31423566,-0.7087399,-0.09149824,0.0
121551774,-0.31421372,-0.70879304,-0.09170719,0.0
121563558,-0.31420144,-0.7088035,-0.09182195,0.0
121575583,-0.31426096,-0.70879686,-0.092003345,0.0
121583569,-0.31428808,-0.7087976,-0.09219431,0.0
121595583,-0.31428468,-0.70884347,-0.092094764,0.0
121603527,-0.3143023,-0.7088637,-0.0923151,0.0
121615540,-0.3143252,-0.7088412,-0.09234643,0.0
121624363,-0.3143244,-0.7088538,-0.09224344,0.0
121640369,-0.3142573,-0.7088877,-0.09210146,0.0
121652357,-0.31420133,-0.7089468,-0.09193966,0.0
121660601,-0.314184,-0.70894873,-0.09184556,0.0
121672366,-0.31422743,-0.70893484,-0.09199087,0.0
121684364,-0.31423992,-0.70896316,-0.09206974,0.0
121692357,-0.31425685,-0.70897776,-0.092014804,0.0
121704362,-0.3142695,-0.7090108,-0.09210173,0.0
121712378,-0.31424895,-0.70901364,-0.09194869,0.0
121724369,-0.31424856,-0.7090515,-0.09182064,0.0
121736378,-0.3142882,-0.70912766,-0.09177348,0.0
121744536,-0.3143019,-0.7091755,-0.091733515,0.0
121757175,-0.31426862,-0.7092538,-0.09176672,0.0
121765464,-0.314215,-0.7092978,-0.09184738,0.0
121777202,-0.31412977,-0.7093424,-0.09204181,0.0
121785157,-0.3141202,-0.7093736,-0.09205956,0.0
121797447,-0.31410962,-0.7094091,-0.09203886,0.0
121809449,-0.31401664,-0.7094662,-0.092298694,0.0
121817165,-0.31397414,-0.7094781,-0.09244524,0.0
121829748,-0.3139872,-0.70949167,-0.09252639,0.0
121841180,-0.31399587,-0.7095311,-0.09261347,0.0
121849823,-0.313972,-0.7095552,-0.092694305,0.0
121861180,-0.31396374,-0.70961785,-0.092868954,0.0
121873179,-0.31393972,-0.70962644,-0.09297586,0.0
121881195,-0.31393853,-0.70962065,-0.092996284,0.0
121893964,-0.31393757,-0.70961815,-0.092911266,0.0
121902010,-0.3139353,-0.7096168,-0.09298762,0.0
121913963,-0.31395173,-0.7096486,-0.093164094,0.0
121925959,-0.31394818,-0.709662,-0.09326263,0.0
121933950,-0.31394276,-0.70968056,-0.09316118,0.0
121945952,-0.31388953,-0.70965147,-0.093088254,0.0
121953961,-0.31385937,-0.7096076,-0.09327423,0.0
121965954,-0.3138409,-0.7096132,-0.093546964,0.0
121977977,-0.31384486,-0.70966446,-0.09382281,0.0
121986001,-0.31387496,-0.70971555,-0.09399473,0.0
121997957,-0.31390196,-0.70979744,-0.09375298,0.0
122009982,-0.31387687,-0.7098402,-0.093770936,0.0
122017964,-0.31386334,-0.70988023,-0.0939674,0.0
122030747,-0.31388736,-0.7099342,-0.0939633,0.0
122040070,-0.31389415,-0.7099446,-0.09404132,0.0
122050741,-0.31385776,-0.70994645,-0.09423136,0.0
122060102,-0.3138244,-0.70997584,-0.09421142,0.0
122070735,-0.31378865,-0.70996916,-0.09418636,0.0
122082743,-0.3137436,-0.7099846,-0.09443626,0.0
122090916,-0.31372488,-0.70998263,-0.094458826,0.0
122102749,-0.31373078,-0.71000385,-0.09437098,0.0
122114754,-0.3137636,-0.71001565,-0.09458067,0.0
122122752,-0.31381953,-0.7100277,-0.09468819,0.0
122134742,-0.3138938,-0.7100204,-0.094891146,0.0
122142768,-0.3139148,-0.7100419,-0.09483626,0.0
122154739,-0.3139294,-0.71010166,-0.0948613,0.0
122162755,-0.31396782,-0.7101418,-0.09501639,0.0
122175581,-0.31404048,-0.7102195,-0.095136605,0.0
122187568,-0.31409398,-0.7102052,-0.09519904,0.0
122200092,-0.31406003,-0.71014816,-0.095297165,0.0
122211573,-0.31398085,-0.710148,-0.09523372,0.0
122219852,-0.31394687,-0.71012855,-0.09530088,0.0
122231559,-0.31395736,-0.71009564,-0.095430754,0.0
122243594,-0.31397069,-0.7100668,-0.09562511,0.0
122251746,-0.31393695,-0.71006495,-0.09566229,0.0
122263600,-0.3138457,-0.7100398,-0.09571604,0.0
122275588,-0.31385714,-0.71003306,-0.095900446,0.0
122284370,-0.3138775,-0.7100511,-0.09589161,0.0
122296397,-0.31386074,-0.7101042,-0.09587678,0.0
122304484,-0.3138319,-0.71014655,-0.09606916,0.0
122316369,-0.31383586,-0.71021307,-0.096192926,0.0
122328414,-0.31386858,-0.710237,-0.09616453,0.0
122336376,-0.31386966,-0.7102526,-0.09627448,0.0
122352362,-0.3138709,-0.7103127,-0.09639996,0.0
122360457,-0.3138619,-0.7103243,-0.096311815,0.0
122372369,-0.31383094,-0.7103088,-0.096222065,0.0
122384388,-0.3137677,-0.71032107,-0.09618131,0.0
122392380,-0.31373036,-0.7103454,-0.09617041,0.0
122404370,-0.31370062,-0.71036,-0.096223176,0.0
122412364,-0.3136723,-0.71035856,-0.09634456,0.0
122424357,-0.313668,-0.71034205,-0.09633264,0.0
122432360,-0.3136611,-0.7103505,-0.09647787,0.0
122445139,-0.31365502,-0.71038574,-0.0966886,0.0
122457188,-0.3136647,-0.7104026,-0.09685376,0.0
122465354,-0.31365815,-0.71041006,-0.09699529,0.0
122477195,-0.3136101,-0.7104241,-0.09721847,0.0
122485135,-0.31359753,-0.71044743,-0.097365595,0.0
122497154,-0.3135969,-0.710449,-0.09739186,0.0
122510195,-0.3135722,-0.71040213,-0.097635336,0.0
122517152,-0.31354892,-0.710376,-0.097705945,0.0
122530213,-0.31354564,-0.7103318,-0.09791205,0.0
122541145,-0.3135449,-0.7103195,-0.09808441,0.0
122550527,-0.31353697,-0.7103056,-0.098235995,0.0
122561176,-0.3135153,-0.71028876,-0.09834215,0.0
122570462,-0.31348535,-0.71030074,-0.09844832,0.0
122581970,-0.3134456,-0.7102754,-0.09863312,0.0
122593878,-0.3134511,-0.7102552,-0.098749146,0.0
122602027,-0.3134731,-0.7102771,-0.0987451,0.0
122613967,-0.31348193,-0.7103099,-0.09861667,0.0
122625967,-0.31351763,-0.7103531,-0.098824896,0.0
122633971,-0.3135399,-0.7103629,-0.09905642,0.0
122645959,-0.31352642,-0.71033025,-0.099305615,0.0
122653968,-0.31352273,-0.7103028,-0.099336654,0.0
122665968,-0.3135119,-0.71031344,-0.099394865,0.0
122677876,-0.31351167,-0.7102916,-0.09942983,0.0
122685994,-0.31352872,-0.7102675,-0.09935821,0.0
122697969,-0.3135439,-0.710286,-0.09942997,0.0
122705960,-0.31356245,-0.7102992,-0.09953137,0.0
122718777,-0.3135968,-0.71024644,-0.09968157,0.0
122730789,-0.3136124,-0.7102494,-0.09963075,0.0
122738775,-0.31363305,-0.7102747,-0.09960639,0.0
122750811,-0.31366986,-0.7103245,-0.099684656,0.0
122758808,-0.31366557,-0.71034145,-0.09988241,0.0
122770803,-0.313676,-0.7103663,-0.09955551,0.0
122782816,-0.313662,-0.71037173,-0.0993286,0.0
122791027,-0.3136516,-0.71038157,-0.0993259,0.0
122803156,-0.31364548,-0.71040326,-0.09933853,0.0
122814791,-0.31358835,-0.71036464,-0.09943871,0.0
122822782,-0.3135648,-0.71037745,-0.099504314,0.0
122834775,-0.3135953,-0.7104723,-0.09957993,0.0
122842781,-0.3136219,-0.71054053,-0.09965036,0.0
122855550,-0.31362617,-0.7105699,-0.099865675,0.0
122863572,-0.31359258,-0.71057767,-0.09992273,0.0
122875575,-0.3135685,-0.71061367,-0.09983417,0.0
122887558,-0.31357044,-0.710613,-0.09973993,0.0
122895853,-0.31357652,-0.71059513,-0.09976327,0.0
122907557,-0.3135623,-0.7105746,-0.09970891,0.0
122915562,-0.3135265,-0.7105668,-0.09960379,0.0
122927574,-0.31348908,-0.7106078,-0.099582516,0.0
122940550,-0.31344593,-0.7106636,-0.09968093,0.0
122947562,-0.31340897,-0.7106915,-0.099682584,0.0
122960575,-0.31334662,-0.7107029,-0.09982767,0.0
122971553,-0.3132782,-0.71072304,-0.09997345,0.0
122980811,-0.31324723,-0.71075755,-0.0999599,0.0
122992330,-0.31326362,-0.71078384,-0.10024338,0.0
123000839,-0.31327727,-0.71080476,-0.100175776,0.0
123012358,-0.31322318,-0.71085584,-0.10014298,0.0
123024384,-0.31316018,-0.71093225,-0.100184456,0.0
123032462,-0.31314304,-0.71099436,-0.10017096,0.0
123044396,-0.31314254,-0.7110759,-0.10043574,0.0
123056395,-0.3131174,-0.7110918,-0.100645006,0.0
123064383,-0.31307152,-0.7110726,-0.10072422,0.0
123076374,-0.31299606,-0.71108395,-0.10072715,0.0
123084387,-0.31296644,-0.71108395,-0.1007557,0.0
123096383,-0.31295356,-0.7110063,-0.100898154,0.0
123108393,-0.3129312,-0.711019,-0.10109956,0.0
123117175,-0.31290197,-0.71104616,-0.101118535,0.0
123129165,-0.31286582,-0.7110206,-0.10086036,0.0
123141160,-0.31285188,-0.7110145,-0.10074017,0.0
123153160,-0.31283522,-0.7110362,-0.100819744,0.0
123161164,-0.31279603,-0.71103245,-0.10091953,0.0
123173165,-0.31277663,-0.7110905,-0.10076301,0.0
123185183,-0.31278947,-0.71114975,-0.10077124,0.0
123193378,-0.31277156,-0.7111962,-0.10063908,0.0
123205184,-0.31270528,-0.71125346,-0.100826725,0.0
123217189,-0.3127007,-0.71133137,-0.100859195,0.0
123225167,-0.31273073,-0.71137416,-0.10068431,0.0
123237201,-0.3127341,-0.71138734,-0.10076056,0.0
123245163,-0.3127148,-0.71136105,-0.100697905,0.0
123257967,-0.3126891,-0.7113409,-0.10077161,0.0
123265955,-0.3126979,-0.7113757,-0.10081753,0.0
123281982,-0.31269762,-0.7114608,-0.10079546,0.0
123293978,-0.31268257,-0.7114869,-0.10065927,0.0
123301930,-0.31268972,-0.71148276,-0.10063862,0.0
123313989,-0.31271908,-0.71149206,-0.10073845,0.0
123325973,-0.31275102,-0.7115806,-0.10038127,0.0
123333978,-0.31275257,-0.71163636,-0.10053998,0.0
123345962,-0.31272417,-0.7116611,-0.10040342,0.0
123353988,-0.3127061,-0.71165204,-0.10053619,0.0
123365961,-0.31271636,-0.71166,-0.100581095,0.0
123378033,-0.31271875,-0.71166354,-0.100575134,0.0
123385972,-0.31273177,-0.71169436,-0.10051358,0.0
123398783,-0.3127742,-0.7117355,-0.10069004,0.0
123411202,-0.31272754,-0.711695,-0.100706175,0.0
123422756,-0.3126743,-0.71171176,-0.10056669,0.0
123431238,-0.31264436,-0.7117186,-0.100552514,0.0
123442758,-0.312622,-0.7117083,-0.1005636,0.0
123454757,-0.31264424,-0.711695,-0.10055504,0.0
123463005,-0.3126707,-0.7116978,-0.10056698,0.0
123474740,-0.31270638,-0.71174926,-0.1003503,0.0
123486735,-0.31269717,-0.7118305,-0.10049826,0.0
123494739,-0.31269974,-0.7118835,-0.100588076,0.0
123506730,-0.3127085,-0.71192247,-0.10065322,0.0
123514750,-0.31270736,-0.7119252,-0.100707605,0.0
123527562,-0.31276232,-0.71192604,-0.10078112,0.0
123535569,-0.31276903,-0.7119156,-0.10082728,0.0
123547550,-0.31272572,-0.7118925,-0.10093738,0.0
123560874,-0.31268674,-0.7119008,-0.10079426,0.0
123571567,-0.31263873,-0.71190065,-0.10087949,0.0
123583584,-0.31259966,-0.7119132,-0.10104892,0.0
123591582,-0.31258,-0.71191645,-0.10125271,0.0
123603607,-0.31263128,-0.7119254,-0.10143779,0.0
123615578,-0.31273738,-0.7119129,-0.10143574,0.0
123623776,-0.3127682,-0.7119013,-0.101422936,0.0
123635563,-0.31278318,-0.71192515,-0.101557024,0.0
123647573,-0.31280035,-0.7119829,-0.10138113,0.0
123655578,-0.31282339,-0.71196365,-0.10127851,0.0
123668358,-0.31283367,-0.71192706,-0.10117711,0.0
123676474,-0.31283018,-0.71194094,-0.10136897,0.0
123688332,-0.31281635,-0.7119915,-0.10147246,0.0
123696379,-0.31278083,-0.7120363,-0.10139823,0.0
123712391,-0.31275493,-0.7119877,-0.10142944,0.0
123724350,-0.31273937,-0.71194136,-0.101825416,0.0
123732492,-0.31272385,-0.71192026,-0.101842396,0.0
123744367,-0.31274453,-0.7118533,-0.101557635,0.0
123756428,-0.312717,-0.711807,-0.101521045,0.0
123764349,-0.31269476,-0.7117968,-0.10153451,0.0
123776392,-0.3126711,-0.7117611,-0.10151496,0.0
123784323,-0.31267273,-0.7117682,-0.1013974,0.0
123797184,-0.31270635,-0.71177834,-0.101225995,0.0
123805197,-0.31269485,-0.7117745,-0.10121942,0.0
123821281,-0.31264135,-0.7117412,-0.10119486,0.0
123833205,-0.31263515,-0.71176654,-0.10130806,0.0
123841559,-0.31261477,-0.7117728,-0.101405196,0.0
123853179,-0.3126215,-0.7117266,-0.10132605,0.0
123861814,-0.31261852,-0.7117077,-0.10143472,0.0
123873185,-0.31260645,-0.7117058,-0.10156521,0.0
123885151,-0.31259194,-0.7116852,-0.10154875,0.0
123893313,-0.31258056,-0.71169823,-0.10171481,0.0
123905153,-0.31261143,-0.7117321,-0.10151214,0.0
123917151,-0.31266242,-0.7117815,-0.10139612,0.0
123925146,-0.3126889,-0.7118018,-0.10130798,0.0
123937977,-0.31270447,-0.71176344,-0.101332664,0.0
123946110,-0.3126873,-0.7117613,-0.10143992,0.0
123957984,-0.31265685,-0.71176696,-0.10164383,0.0
123966028,-0.31263745,-0.7117412,-0.10187316,0.0
123981962,-0.31259668,-0.7117177,-0.10192543,0.0
123993985,-0.31258124,-0.7117012,-0.10185193,0.0
124002107,-0.31255922,-0.71169066,-0.10202107,0.0
124013978,-0.31252804,-0.7116861,-0.10209867,0.0
124025980,-0.31252277,-0.7117193,-0.10207717,0.0
124033963,-0.3125318,-0.7117157,-0.10206817,0.0
124045967,-0.312481,-0.7116834,-0.10218005,0.0
124053975,-0.31247324,-0.71170104,-0.10240641,0.0
124066767,-0.3125421,-0.7117714,-0.10235448,0.0
124074751,-0.3125668,-0.7118082,-0.102482274,0.0
124086766,-0.31260508,-0.7118576,-0.102399394,0.0
124098784,-0.31260923,-0.7118913,-0.102393694,0.0
124106931,-0.31258598,-0.7118918,-0.10248158,0.0
124122754,-0.31260875,-0.71188724,-0.10268776,0.0
124131739,-0.31260616,-0.711878,-0.10278941,0.0
124142757,-0.31257454,-0.7118859,-0.10304134,0.0
124154783,-0.31250578,-0.71187854,-0.10311323,0.0
124162955,-0.3124799,-0.7118718,-0.103209145,0.0
124174754,-0.3124525,-0.71189165,-0.103333026,0.0
124186793,-0.31242397,-0.7119326,-0.10348452,0.0
124194767,-0.3124117,-0.7119826,-0.10343524,0.0
124207576,-0.31239745,-0.7120102,-0.103356466,0.0
124215564,-0.31238145,-0.71198463,-0.103581905,0.0
124227553,-0.31233612,-0.71193886,-0.10370362,0.0
124235550,-0.3123036,-0.7119152,-0.10369335,0.0
124247575,-0.31226224,-0.7118877,-0.10403227,0.0
124259584,-0.31226122,-0.71186453,-0.10407485,0.0
124271806,-0.31228364,-0.71186185,-0.10424701,0.0
124283608,-0.3123242,-0.7119396,-0.10447458,0.0
124291670,-0.31231683,-0.7120027,-0.10461673,0.0
124303583,-0.3122754,-0.7120269,-0.1046805,0.0
124315566,-0.31224367,-0.71200657,-0.10476026,0.0
124323783,-0.31222737,-0.7119801,-0.10493054,0.0
124335439,-0.3122371,-0.7119877,-0.105038196,0.0
124344329,-0.31221732,-0.711998,-0.10520526,0.0
124356322,-0.31215954,-0.71200687,-0.10526001,0.0
124368342,-0.3120586,-0.71196926,-0.10522417,0.0
124376425,-0.31206372,-0.71195316,-0.10528915,0.0
124388332,-0.31207496,-0.71195394,-0.105209894,0.0
124401437,-0.31202692,-0.7119531,-0.1051687,0.0
124412383,-0.3119673,-0.7119285,-0.10524651,0.0
124424425,-0.31197837,-0.71190786,-0.10532207,0.0
124432470,-0.31196,-0.7119007,-0.10536051,0.0
124444349,-0.31188864,-0.7119388,-0.10556379,0.0
124456396,-0.3118384,-0.71199024,-0.10574296,0.0
124464389,-0.31182635,-0.71202165,-0.10576867,0.0
124477222,-0.31181654,-0.712099,-0.105582274,0.0
124485063,-0.31184825,-0.71211296,-0.10541979,0.0
124497169,-0.31187385,-0.71209484,-0.10533895,0.0
124505068,-0.31186435,-0.7120932,-0.10523901,0.0
124517168,-0.31186986,-0.7121155,-0.10510163,0.0
124529165,-0.3118687,-0.71217215,-0.104999855,0.0
124537348,-0.31188866,-0.7121953,-0.10503569,0.0
124549174,-0.3118942,-0.7121754,-0.104932144,0.0
124557172,-0.31188715,-0.712162,-0.10499031,0.0
124569175,-0.3118788,-0.7121405,-0.10496673,0.0
124581834,-0.31184548,-0.7120914,-0.10508305,0.0
124589164,-0.3118483,-0.7121013,-0.10520203,0.0
124601947,-0.3118704,-0.71216613,-0.10540756,0.0
124613969,-0.31185412,-0.7122427,-0.10559434,0.0
124622101,-0.31182593,-0.71225905,-0.10573277,0.0
124633966,-0.31178385,-0.7122289,-0.10569261,0.0
124641974,-0.3117473,-0.712225,-0.105801135,0.0
124653985,-0.31168908,-0.71227145,-0.105472095,0.0
124666000,-0.3116879,-0.7122854,-0.10546177,0.0
124674008,-0.31168914,-0.7122958,-0.10554269,0.0
124685978,-0.31168738,-0.7123097,-0.10561751,0.0
124697974,-0.31166488,-0.71229357,-0.10567469,0.0
124705970,-0.31164762,-0.7122889,-0.105707,0.0
124717975,-0.31159854,-0.71228236,-0.10571061,0.0
124726177,-0.31158006,-0.7122814,-0.10571279,0.0
124737968,-0.3115564,-0.712317,-0.10584271,0.0
124746739,-0.3115314,-0.71235377,-0.1059399,0.0
124758739,-0.31150132,-0.71239364,-0.10595491,0.0
124766739,-0.31150433,-0.71240956,-0.10588457,0.0
124782726,-0.3115211,-0.7123948,-0.10575551,0.0
124794726,-0.31155166,-0.7123891,-0.10584009,0.0
124802730,-0.3115911,-0.7124101,-0.1058127,0.0
124815006,-0.31163093,-0.71250707,-0.10563366,0.0
124826779,-0.31166917,-0.7125451,-0.10549523,0.0
124834903,-0.31167534,-0.7125559,-0.10556252,0.0
124846745,-0.31165546,-0.71255434,-0.10560613,0.0
124858758,-0.31165522,-0.7125325,-0.10581317,0.0
124866721,-0.31165498,-0.71249974,-0.10595539,0.0
124878742,-0.31163463,-0.71247417,-0.10610856,0.0
124887564,-0.31161925,-0.712458,-0.10613757,0.0
124899589,-0.311598,-0.7124406,-0.10619934,0.0
124907567,-0.3115889,-0.71243095,-0.1062054,0.0
124923575,-0.31154746,-0.7124171,-0.10588696,0.0
124935544,-0.31154713,-0.71239376,-0.10598547,0.0
124943565,-0.3115757,-0.7123934,-0.10617562,0.0
124955546,-0.31159633,-0.71241283,-0.1064523,0.0
124963586,-0.31160307,-0.71242505,-0.106393315,0.0
124975439,-0.31156337,-0.7124546,-0.10634972,0.0
124987564,-0.31149223,-0.7124725,-0.10638916,0.0
124995761,-0.31145573,-0.7124785,-0.10650404,0.0
125007564,-0.31140137,-0.7125106,-0.106568635,0.0
125015527,-0.3113909,-0.7125516,-0.1067346,0.0
125028352,-0.31139022,-0.71258736,-0.10672949,0.0
125040383,-0.31142837,-0.7125924,-0.1066756,0.0
125048488,-0.31145713,-0.71259546,-0.106567055,0.0
125060407,-0.31146377,-0.71259856,-0.10623218,0.0
125068378,-0.31146076,-0.7125652,-0.10619891,0.0
125080391,-0.31147045,-0.7125266,-0.106325716,0.0
125092398,-0.31147325,-0.71254,-0.10658754,0.0
125100394,-0.31146386,-0.71256447,-0.106763534,0.0
125112582,-0.31144714,-0.71257186,-0.1070658,0.0
125124360,-0.31140918,-0.71257067,-0.10712751,0.0
125132617,-0.3114182,-0.71258163,-0.10712508,0.0
125144367,-0.31144762,-0.7125756,-0.10736665,0.0
125152392,-0.31147212,-0.71259475,-0.10757899,0.0
125165165,-0.31150693,-0.7126763,-0.10779934,0.0
125177205,-0.31146175,-0.7127694,-0.107823096,0.0
125185163,-0.31141323,-0.71283907,-0.10783937,0.0
125197162,-0.3114251,-0.71288407,-0.10787054,0.0
125205191,-0.31143513,-0.7128731,-0.10789713,0.0
125217160,-0.31141394,-0.7128484,-0.10798962,0.0
125229175,-0.31138766,-0.7128123,-0.1079826,0.0
125237383,-0.31135625,-0.71279496,-0.10773978,0.0
125249175,-0.31134245,-0.71281695,-0.10770226,0.0
125262201,-0.31136334,-0.7128088,-0.107757814,0.0
125273149,-0.31135657,-0.71282804,-0.10783541,0.0
125285151,-0.31132543,-0.7129055,-0.1078545,0.0
125293969,-0.31131777,-0.7129217,-0.107755736,0.0
125305952,-0.31130862,-0.712937,-0.10781671,0.0
125313979,-0.31127533,-0.7129399,-0.10788894,0.0
125325961,-0.3112638,-0.71293056,-0.10780549,0.0
125337965,-0.31123644,-0.7129504,-0.10766675,0.0
125345971,-0.31122413,-0.712971,-0.10739581,0.0
125357964,-0.31124383,-0.7130029,-0.10701127,0.0
125369858,-0.31122598,-0.712987,-0.10683548,0.0
125377981,-0.3111951,-0.71299434,-0.10687101,0.0
125389962,-0.31117845,-0.71305,-0.10687592,0.0
125397991,-0.31117868,-0.7130803,-0.10677756,0.0
125413981,-0.31115574,-0.71309817,-0.106952906,0.0
125425964,-0.31114167,-0.7131084,-0.106953844,0.0
125434773,-0.31110674,-0.7131101,-0.107077956,0.0
125446775,-0.31102344,-0.7130929,-0.10723221,0.0
125454787,-0.31098807,-0.7130673,-0.107237175,0.0
125466772,-0.31095842,-0.7130398,-0.10721702,0.0
125474787,-0.31095707,-0.71301997,-0.107316405,0.0
125486793,-0.31093958,-0.7130012,-0.10734302,0.0
125498783,-0.3108757,-0.71298563,-0.10729279,0.0
125506949,-0.31082648,-0.7129907,-0.10738878,0.0
125518758,-0.3107874,-0.7129936,-0.10740887,0.0
125530773,-0.31076542,-0.7129997,-0.10728767,0.0
125538776,-0.31072342,-0.7129984,-0.10733877,0.0
125550776,-0.31066704,-0.7130135,-0.10735716,0.0
125558782,-0.31062916,-0.71303403,-0.10737035,0.0
125572980,-0.31059402,-0.7130308,-0.10749867,0.0
125579578,-0.31060487,-0.7130389,-0.10753377,0.0
125592790,-0.31063432,-0.7130815,-0.1076276,0.0
125603564,-0.3106501,-0.71306777,-0.10746426,0.0
125612977,-0.3106594,-0.71305585,-0.10728614,0.0
125623597,-0.31069028,-0.71308243,-0.10730427,0.0
125635612,-0.3107254,-0.7130918,-0.107459575,0.0
125643582,-0.31075367,-0.71309364,-0.10745695,0.0
125655590,-0.3107816,-0.7130686,-0.10758319,0.0
125663570,-0.31079412,-0.71305114,-0.10772252,0.0
125675555,-0.31082115,-0.7130418,-0.10779643,0.0
125687584,-0.310891,-0.71302426,-0.107836895,0.0
125695786,-0.31092596,-0.7129868,-0.107846506,0.0
125708350,-0.31090838,-0.712964,-0.10773644,0.0
125716330,-0.3108615,-0.71296763,-0.10781987,0.0
125728349,-0.31082428,-0.71296954,-0.1077688,0.0
125740346,-0.3108445,-0.71298677,-0.107817374,0.0
125748453,-0.31085268,-0.712992,-0.107918285,0.0
125760378,-0.31078947,-0.7130083,-0.10797811,0.0
